time,baro_altitude,accl_x,accl_y,accl_z,gps_altitude,gyro_roll,gyro_pitch,gyro_yaw
0.0,0.0,-9.217152,-2.9279088,-2.6069544000000002,0.0,0.0,0.0,0.0
0.020000000000000462,0.0170688,-9.3256608,-3.0361128,-2.6069544000000002,0.0,0.0,0.0,0.0
0.040000000000000036,0.0204216,-9.217152,-3.0361128,-2.683764,0.0,0.0,0.0,0.0
0.05999999999999961,-0.1344168,-9.217152,-3.0361128,-2.5304496,0.0,0.0,0.0,0.0
0.08000000000000007,-0.0377952,-9.2714064,-2.9818584,-2.6069544000000002,0.0,0.0,0.0,0.0
0.09999999999999964,-0.04693920000000001,-9.217152,-3.0361128,-2.4536400000000005,0.0,0.0,0.0,0.0
0.1200000000000001,-0.0713232,-9.2714064,-3.0903671999999998,-2.6069544000000002,0.0,0.0,0.0,0.0
0.13999999999999968,0.008839199999999992,-9.2714064,-2.9818584,-2.5304496,0.0,0.0,0.0,0.0
0.16000000000000014,-0.09326880000000003,-9.217152,-3.1446216000000002,-2.6069544000000002,0.0,0.0,0.0,0.0
0.17999999999999972,-0.039319200000000006,-9.3256608,-3.1446216000000002,-2.5304496,0.0,0.0,0.0,0.0
0.20000000000000018,0.0006096000000000006,-9.2714064,-2.9818584,-2.5304496,0.0,0.0,0.0,0.0
0.21999999999999975,-0.06583680000000001,-9.2714064,-3.0903671999999998,-2.6069544000000002,0.0,0.0,0.0,0.0
0.2400000000000002,-0.08625840000000001,-9.217152,-3.0361128,-2.6069544000000002,0.0,0.0,0.0,0.0
0.2599999999999998,-0.06309360000000001,-9.2714064,-2.9818584,-2.6069544000000002,0.0,0.0,0.0,0.0
0.28000000000000025,-0.10789920000000001,-9.3256608,-3.0361128,-2.6069544000000002,0.0,0.0,0.0,0.0
0.2999999999999998,-0.1283208,-9.217152,-3.0361128,-2.6069544000000002,0.0,0.0,0.0,0.0
0.3200000000000003,-0.0804672,-9.2714064,-2.9818584,-2.6069544000000002,0.0,0.0,0.0,0.0
0.33999999999999986,0.0539496,-9.3256608,-3.0361128,-2.683764,0.0,0.0,0.0,0.0
0.3600000000000003,-0.0542544,-9.2714064,-2.9818584,-2.6069544000000002,0.0,0.0,0.0,0.0
0.3799999999999999,-0.039319200000000006,-9.379915200000001,-2.8736544000000004,-2.683764,0.0,0.0,0.0,0.0
0.40000000000000036,-0.025603200000000007,-9.3256608,-3.0361128,-2.6069544000000002,0.0,0.0,0.0,0.0
0.41999999999999993,-0.0192024,-9.2714064,-2.9818584,-2.683764,0.0,0.0,0.0,0.0
0.4400000000000004,-0.18288000000000001,-9.3256608,-3.0361128,-2.6069544000000002,0.0,0.0,0.0,0.0
0.45999999999999996,-0.17099280000000003,-9.3256608,-3.0361128,-2.6069544000000002,0.0,0.0,0.0,0.0
0.4800000000000004,-0.1091184,-9.217152,-3.0361128,-2.5304496,0.0,0.0,0.0,0.0
0.5,0.024993600000000008,-9.379915200000001,-2.9818584,-2.5304496,0.0,0.0,0.0,0.0
0.5200000000000005,0.04053839999999999,-9.3256608,-3.0361128,-2.6069544000000002,0.0,0.0,0.0,0.0
0.54,0.11033759999999998,-9.217152,-3.1446216000000002,-2.683764,0.0,0.0,0.0,0.0
0.56,0.07437119999999998,-9.2714064,-3.0903671999999998,-2.5304496,0.0,0.0,0.0,0.0
0.5800000000000001,0.27828240000000004,-9.1628976,-3.0903671999999998,-2.5304496,0.0,0.0,0.0,0.0
0.6000000000000001,0.2441448,-9.217152,-3.0361128,-2.5304496,0.0,0.0,0.0,0.0
0.6200000000000001,0.1191768,-9.217152,-3.0361128,-2.5304496,0.0,0.0,0.0,0.0
0.6400000000000001,0.057912000000000005,-9.2714064,-2.9818584,-2.6069544000000002,0.0,0.0,0.0,0.0
0.6600000000000001,-0.044196000000000006,-9.3256608,-3.0361128,-2.5304496,0.0,0.0,0.0,0.0
0.6800000000000002,-0.06858,-9.2714064,-3.0903671999999998,-2.5304496,0.0,0.0,0.0,0.0
0.7000000000000002,-0.0816864,-9.217152,-3.0361128,-2.5304496,0.0,0.0,0.0,0.0
0.7200000000000002,-0.0399288,-9.217152,-3.0361128,-2.5304496,0.0,0.0,0.0,0.0
0.7400000000000002,-0.04846320000000001,-9.3256608,-2.9279088,-2.5304496,0.0,0.0,0.0,0.0
0.7600000000000002,-0.10759440000000002,-9.2714064,-2.9818584,-2.5304496,0.0,0.0,0.0,0.0
0.7800000000000002,-0.1335024,-9.3256608,-2.9279088,-2.6069544000000002,0.0,0.0,0.0,0.0
0.7999999999999998,-0.0789432,-9.3256608,-2.9279088,-2.683764,0.0,0.0,0.0,0.0
0.8199999999999998,-0.1328928,-9.2714064,-2.8736544000000004,-2.683764,0.0,0.0,0.0,0.0
0.8399999999999999,-0.12496800000000001,-9.2714064,-2.9818584,-2.6069544000000002,0.0,0.0,0.0,0.0
0.8599999999999999,-0.14203680000000002,-9.2714064,-2.8736544000000004,-2.5304496,0.0,0.0,0.0,0.0
0.8799999999999999,0.03078480000000001,-9.2714064,-2.9818584,-2.6069544000000002,0.0,0.0,0.0,0.0
0.8999999999999999,0.096012,-9.2714064,-2.9818584,-2.683764,0.0,0.0,0.0,0.0
0.9199999999999999,0.027127200000000008,-9.3256608,-3.0361128,-2.6069544000000002,0.0,0.0,0.0,0.0
0.94,0.012801599999999995,-9.2714064,-2.9818584,-2.6069544000000002,0.0,0.0,0.0,0.0
0.96,-0.12771120000000002,-9.2714064,-2.9818584,-2.683764,0.0,0.0,0.0,0.0
0.98,-0.19629120000000003,-9.2714064,-2.9818584,-2.5304496,0.0,0.0,0.0,0.0
1.0,-0.2517648,-9.2714064,-2.9818584,-2.5304496,0.0,0.0,0.0,0.0
1.02,-0.002133600000000002,-9.2714064,-3.0903671999999998,-2.5304496,0.0,0.0,0.0,0.0
1.04,-0.14691360000000003,-9.3256608,-3.0361128,-2.6069544000000002,0.0,0.0,0.0,0.0
1.06,-0.07528560000000001,-9.217152,-3.1446216000000002,-2.5304496,0.0,0.0,0.0,0.0
1.08,-0.029870400000000012,-9.217152,-3.0361128,-2.4536400000000005,0.0,0.0,0.0,0.0
1.1,0.05334,-9.217152,-3.0361128,-2.6069544000000002,0.0,0.0,0.0,0.0
1.12,0.003048000000000003,-9.2714064,-2.9818584,-2.6069544000000002,0.0,0.0,0.0,0.0
1.1400000000000001,-0.022860000000000005,-9.2714064,-2.9818584,-2.6069544000000002,0.0,0.0,0.0,0.0
1.1600000000000001,-0.014935200000000015,-9.379915200000001,-2.9818584,-2.6069544000000002,0.0,0.0,0.0,0.0
1.1800000000000002,0.0780288,-9.2714064,-2.9818584,-2.5304496,0.0,0.0,0.0,0.0
1.2000000000000002,-0.04632960000000001,-9.2714064,-2.9818584,-2.5304496,0.0,0.0,0.0,0.0
1.2200000000000002,0.20116799999999999,-9.1628976,-2.9818584,-2.5304496,0.0,0.0,0.0,0.0
1.2400000000000002,0.07619999999999999,-9.2714064,-2.9818584,-2.6069544000000002,0.0,0.0,0.0,0.0
1.2600000000000002,-0.036576,-9.2714064,-2.8736544000000004,-2.6069544000000002,0.0,0.0,0.0,0.0
1.2800000000000002,-0.022555200000000004,-9.3256608,-2.9279088,-2.5304496,0.0,0.0,0.0,0.0
1.2999999999999998,-0.041148000000000004,-9.379915200000001,-2.9818584,-2.6069544000000002,0.0,0.0,0.0,0.0
1.3199999999999998,-0.14721840000000003,-9.3256608,-2.9279088,-2.6069544000000002,0.0,0.0,0.0,0.0
1.3399999999999999,-0.1770888,-9.2714064,-2.9818584,-2.5304496,0.0,0.0,0.0,0.0
1.3599999999999999,-0.2511552,-9.3256608,-3.0361128,-2.6069544000000002,0.0,0.0,0.0,0.0
1.38,-0.30114240000000003,-9.2714064,-2.9818584,-2.6069544000000002,0.0,0.0,0.0,0.0
1.4,-0.30693360000000003,-9.2714064,-3.0903671999999998,-2.5304496,0.0,0.0,0.0,0.0
1.42,-0.2734056,-9.2714064,-3.0903671999999998,-2.683764,0.0,0.0,0.0,0.0
1.44,-0.1621536,-9.3256608,-3.1446216000000002,-2.683764,0.0,0.0,0.0,0.0
1.46,-0.2551176,-9.108643200000001,-3.1446216000000002,-2.5304496,0.0,0.0,0.0,0.0
1.48,-0.301752,-9.3256608,-3.1446216000000002,-2.6069544000000002,0.0,0.0,0.0,0.0
1.5,-0.2871216,-9.217152,-3.0361128,-2.5304496,0.0,0.0,0.0,0.0
1.52,-0.2121408,-9.217152,-3.0361128,-2.6069544000000002,0.0,0.0,0.0,0.0
1.54,-0.0993648,-9.3256608,-3.0361128,-2.6069544000000002,0.0,0.0,0.0,0.0
1.56,0.0774192,-9.2714064,-3.0903671999999998,-2.5304496,0.0,0.0,0.0,0.0
1.58,0.11490959999999999,-9.2714064,-3.0903671999999998,-2.5304496,0.0,0.0,0.0,0.0
1.6,0.0923544,-9.3256608,-3.0361128,-2.4536400000000005,0.0,0.0,0.0,0.0
1.62,0.11429999999999998,-9.2714064,-3.0903671999999998,-2.5304496,0.0,0.0,0.0,0.0
1.6400000000000001,0.1395984,-9.217152,-2.9279088,-2.5304496,0.0,0.0,0.0,0.0
1.6600000000000001,0.16367759999999998,-9.3256608,-2.9279088,-2.7602688,0.0,0.0,0.0,0.0
1.6800000000000002,0.034442399999999984,-9.2714064,-2.9818584,-2.7602688,0.0,0.0,0.0,0.0
1.7000000000000002,0.0201168,-9.217152,-2.9279088,-2.6069544000000002,0.0,0.0,0.0,0.0
1.7200000000000002,-0.0036576000000000035,-9.2714064,-2.9818584,-2.6069544000000002,0.0,0.0,0.0,0.0
1.7400000000000002,0.006095999999999989,-9.379915200000001,-2.9818584,-2.6069544000000002,0.0,0.0,0.0,0.0
1.7600000000000002,-0.0368808,-9.379915200000001,-2.7651456,-2.6069544000000002,0.0,0.0,0.0,0.0
1.7800000000000002,-0.09083040000000002,-9.3256608,-2.9279088,-2.6069544000000002,0.0,0.0,0.0,0.0
1.7999999999999998,-0.0347472,-9.2714064,-2.9818584,-2.6069544000000002,0.0,0.0,0.0,0.0
1.8199999999999998,-0.1905,-9.2714064,-2.9818584,-2.6069544000000002,0.0,0.0,0.0,0.0
1.8399999999999999,-0.2432304,-9.379915200000001,-2.9818584,-2.4536400000000005,0.0,0.0,0.0,0.0
1.8599999999999999,-0.2599944,-9.2714064,-2.9818584,-2.6069544000000002,0.0,0.0,0.0,0.0
1.88,-0.1304544,-9.3256608,-3.0361128,-2.5304496,0.0,0.0,0.0,0.0
1.9,-0.15605760000000002,-9.3256608,-3.0361128,-2.5304496,0.0,0.0,0.0,0.0
1.92,-0.10789920000000001,-9.1628976,-3.0903671999999998,-2.683764,0.0,0.0,0.0,0.0
1.94,-0.13624560000000002,-9.2714064,-2.9818584,-2.6069544000000002,0.0,0.0,0.0,0.0
1.96,-0.1871472,-9.2714064,-3.0903671999999998,-2.6069544000000002,0.0,0.0,0.0,0.0
1.98,-0.03169920000000001,-9.2714064,-3.0903671999999998,-2.6069544000000002,0.0,0.0,0.0,0.0
2.0,-0.08625840000000001,-9.217152,-3.1446216000000002,-2.6069544000000002,0.0,0.0,0.0,0.0
2.02,-0.0542544,-9.217152,-3.0361128,-2.6069544000000002,0.0,0.0,0.0,0.0
2.04,-0.181356,-9.2714064,-3.0903671999999998,-2.6069544000000002,0.0,0.0,0.0,0.0
2.06,-0.17922240000000003,-9.217152,-3.0361128,-2.7602688,0.0,0.0,0.0,0.0
2.08,-0.23408640000000003,-9.217152,-2.9279088,-2.6069544000000002,0.0,0.0,0.0,0.0
2.1,-0.3313176,-9.217152,-3.0361128,-2.7602688,0.0,0.0,0.0,0.0
2.12,-0.32247840000000005,-9.2714064,-2.9818584,-2.683764,0.0,0.0,0.0,0.0
2.14,-0.38709600000000005,-9.217152,-2.9279088,-2.6069544000000002,0.0,0.0,0.0,0.0
2.16,-0.29565600000000003,-9.3256608,-2.9279088,-2.6069544000000002,0.0,0.0,0.0,0.0
2.18,-0.12801600000000002,-9.2714064,-2.9818584,-2.6069544000000002,0.0,0.0,0.0,0.0
2.2,-0.12679680000000002,-9.3256608,-2.9279088,-2.5304496,0.0,0.0,0.0,0.0
2.22,-0.04754880000000001,-9.379915200000001,-2.9818584,-2.4536400000000005,0.0,0.0,0.0,0.0
2.24,0.00853439999999999,-9.3256608,-3.0361128,-2.6069544000000002,0.0,0.0,0.0,0.0
2.2600000000000002,-0.1328928,-9.2714064,-2.9818584,-2.6069544000000002,0.0,0.0,0.0,0.0
2.2800000000000002,-0.3054096,-9.3256608,-3.0361128,-2.6069544000000002,0.0,0.0,0.0,0.0
2.3,-0.057912000000000005,-9.2714064,-2.9818584,-2.683764,0.0,0.0,0.0,0.0
2.32,-0.13014960000000003,-9.379915200000001,-2.9818584,-2.5304496,0.0,0.0,0.0,0.0
2.34,-0.09966960000000001,-9.3256608,-3.0361128,-2.5304496,0.0,0.0,0.0,0.0
2.36,-0.12496800000000001,-9.217152,-3.0361128,-2.6069544000000002,0.0,0.0,0.0,0.0
2.38,-0.11430000000000001,-9.3256608,-3.0361128,-2.5304496,0.0,0.0,0.0,0.0
2.4,-0.0371856,-9.217152,-3.0361128,-2.5304496,0.0,0.0,0.0,0.0
2.42,-0.004267200000000004,-9.2714064,-3.0903671999999998,-2.6069544000000002,0.0,0.0,0.0,0.0
2.44,0.0045719999999999875,-9.2714064,-3.0903671999999998,-2.683764,0.0,0.0,0.0,0.0
2.46,0.20208240000000002,-9.2714064,-3.0903671999999998,-2.4536400000000005,0.0,0.0,0.0,0.0
2.48,0.047243999999999994,-9.3256608,-3.0361128,-2.5304496,0.0,0.0,0.0,0.0
2.5,0.10149840000000002,-9.2714064,-3.0903671999999998,-2.5304496,0.0,0.0,0.0,0.0
2.52,-0.027127200000000008,-9.2714064,-3.0903671999999998,-2.6069544000000002,0.0,0.0,0.0,0.0
2.54,-0.12679680000000002,-9.2714064,-3.0903671999999998,-2.5304496,0.0,0.0,0.0,0.0
2.56,-0.15331440000000002,-9.2714064,-2.9818584,-2.6069544000000002,0.0,0.0,0.0,0.0
2.58,-0.1758696,-9.2714064,-2.9818584,-2.6069544000000002,0.0,0.0,0.0,0.0
2.6,-0.06339840000000001,-9.3256608,-2.9279088,-2.683764,0.0,0.0,0.0,0.0
2.62,-0.06644640000000002,-9.2714064,-2.9818584,-2.683764,0.0,0.0,0.0,0.0
2.64,-0.09845040000000001,-9.2714064,-2.8736544000000004,-2.6069544000000002,0.0,0.0,0.0,0.0
2.66,-0.12252960000000002,-9.2714064,-2.9818584,-2.6069544000000002,0.0,0.0,0.0,0.0
2.6799999999999997,-0.09814560000000001,-9.2714064,-2.9818584,-2.7602688,0.0,0.0,0.0,0.0
2.7,-0.03169920000000001,-9.2714064,-2.8736544000000004,-2.683764,0.0,0.0,0.0,0.0
2.7199999999999998,-0.04663440000000001,-9.3256608,-3.0361128,-2.6069544000000002,0.0,0.0,0.0,0.0
2.74,-0.1703832,-9.2714064,-2.9818584,-2.6069544000000002,0.0,0.0,0.0,0.0
2.76,-0.12527280000000002,-9.2714064,-2.9818584,-2.6069544000000002,0.0,0.0,0.0,0.0
2.7800000000000002,-0.1536192,-9.3256608,-3.0361128,-2.5304496,0.0,0.0,0.0,0.0
2.8,-0.21427440000000003,-9.217152,-3.0361128,-2.5304496,0.0,0.0,0.0,0.0
2.8200000000000003,-0.20360640000000002,-9.217152,-3.0361128,-2.683764,0.0,0.0,0.0,0.0
2.84,-0.1984248,-9.217152,-3.0361128,-2.5304496,0.0,0.0,0.0,0.0
2.8600000000000003,-0.140208,-9.217152,-3.0361128,-2.6069544000000002,0.0,0.0,0.0,0.0
2.88,-0.09052560000000001,-9.217152,-3.0361128,-2.683764,0.0,0.0,0.0,0.0
2.9000000000000004,-0.0176784,-9.2714064,-3.0903671999999998,-2.5304496,0.0,0.0,0.0,0.0
2.92,0.04236719999999999,-9.3256608,-3.0361128,-2.5304496,0.0,0.0,0.0,0.0
2.94,0.092964,-9.108643200000001,-3.1446216000000002,-2.5304496,0.0,0.0,0.0,0.0
2.96,0.0006096000000000006,-9.1628976,-3.0903671999999998,-2.683764,0.0,0.0,0.0,0.0
2.98,-0.039624000000000006,-9.2714064,-3.0903671999999998,-2.683764,0.0,0.0,0.0,0.0
3.0,0.0966216,-9.2714064,-3.0903671999999998,-2.5304496,0.0,0.0,0.0,0.0
3.02,0.0932688,-9.2714064,-2.9818584,-2.5304496,0.0,0.0,0.0,0.0
3.04,0.1246632,-9.217152,-3.0361128,-2.4536400000000005,0.0,0.0,0.0,0.0
3.06,0.11186159999999999,-9.379915200000001,-2.9818584,-2.5304496,0.0,0.0,0.0,0.0
3.08,0.17556479999999997,-9.2714064,-2.9818584,-2.683764,0.0,0.0,0.0,0.0
3.1,0.03048000000000001,-9.2714064,-2.9818584,-2.5304496,0.0,0.0,0.0,0.0
3.12,-0.07284720000000001,-9.2714064,-2.9818584,-2.6069544000000002,0.0,0.0,0.0,0.0
3.14,-0.12374880000000002,-9.2714064,-2.8736544000000004,-2.6069544000000002,0.0,0.0,0.0,0.0
3.16,-0.1155192,-9.3256608,-2.9279088,-2.5304496,0.0,0.0,0.0,0.0
3.1799999999999997,-0.024079200000000005,-9.379915200000001,-2.9818584,-2.5304496,0.0,0.0,0.0,0.0
3.2,0.019812000000000003,-9.3256608,-2.9279088,-2.683764,0.0,0.0,0.0,0.0
3.2199999999999998,-0.04267200000000001,-9.217152,-2.9279088,-2.5304496,0.0,0.0,0.0,0.0
3.24,-0.019812000000000003,-9.379915200000001,-2.8736544000000004,-2.6069544000000002,0.0,0.0,0.0,0.0
3.26,0.04907279999999999,-9.217152,-3.0361128,-2.5304496,0.0,0.0,0.0,0.0
3.2800000000000002,0.011582399999999994,-9.217152,-3.0361128,-2.5304496,0.0,0.0,0.0,0.0
3.3,-0.006400800000000006,-9.1628976,-3.0903671999999998,-2.6069544000000002,0.0,0.0,0.0,0.0
3.3200000000000003,-0.192024,-9.2714064,-2.9818584,-2.683764,0.0,0.0,0.0,0.0
3.34,-0.34015680000000004,-9.1628976,-3.198876,-2.6069544000000002,0.0,0.0,0.0,0.0
3.3600000000000003,-0.18562320000000002,-9.2714064,-3.0903671999999998,-2.6069544000000002,0.0,0.0,0.0,0.0
3.38,0.07528559999999998,-9.3256608,-3.0361128,-2.5304496,0.0,0.0,0.0,0.0
3.4000000000000004,-0.02956560000000001,-9.217152,-3.1446216000000002,-2.5304496,0.0,0.0,0.0,0.0
3.42,-0.12954000000000002,-9.2714064,-3.0903671999999998,-2.4536400000000005,0.0,0.0,0.0,0.0
3.44,-0.14173200000000002,-9.2714064,-2.9818584,-2.5304496,0.0,0.0,0.0,0.0
3.46,-0.239268,-9.2714064,-3.0903671999999998,-2.6069544000000002,0.0,0.0,0.0,0.0
3.48,-0.2935224,-9.2714064,-2.9818584,-2.5304496,0.0,0.0,0.0,0.0
3.5,-0.21427440000000003,-9.2714064,-2.9818584,-2.6069544000000002,0.0,0.0,0.0,0.0
3.52,-0.10027920000000001,-9.2714064,-2.9818584,-2.5304496,0.0,0.0,0.0,0.0
3.54,-0.20482560000000002,-9.3256608,-2.9279088,-2.6069544000000002,0.0,0.0,0.0,0.0
3.56,-0.184404,-9.2714064,-2.9818584,-2.4536400000000005,0.0,0.0,0.0,0.0
3.58,-0.20909280000000002,-9.2714064,-2.8736544000000004,-2.6069544000000002,0.0,0.0,0.0,0.0
3.6,-0.17099280000000003,-9.4338648,-2.9279088,-2.6069544000000002,0.0,0.0,0.0,0.0
3.62,-0.11430000000000001,-9.3256608,-2.9279088,-2.6069544000000002,0.0,0.0,0.0,0.0
3.64,-0.06187440000000001,-9.2714064,-2.8736544000000004,-2.6069544000000002,0.0,0.0,0.0,0.0
3.66,0.03566159999999998,-9.3256608,-2.9279088,-2.5304496,0.0,0.0,0.0,0.0
3.68,0.06736080000000001,-9.3256608,-3.0361128,-2.6069544000000002,0.0,0.0,0.0,0.0
3.7,-0.18166080000000004,-9.2714064,-2.9818584,-2.5304496,0.0,0.0,0.0,0.0
3.72,-0.1149096,-9.217152,-3.0361128,-2.683764,0.0,0.0,0.0,0.0
3.74,-0.2014728,-9.3256608,-3.0361128,-2.4536400000000005,0.0,0.0,0.0,0.0
3.76,-0.13380720000000002,-9.3256608,-2.9279088,-2.6069544000000002,0.0,0.0,0.0,0.0
3.7800000000000002,-0.19354800000000003,-9.1628976,-3.0903671999999998,-2.6069544000000002,0.0,0.0,0.0,0.0
3.8,-0.09814560000000001,-9.108643200000001,-3.1446216000000002,-2.683764,0.0,0.0,0.0,0.0
3.8200000000000003,-0.1984248,-9.217152,-3.1446216000000002,-2.6069544000000002,0.0,0.0,0.0,0.0
3.84,-0.2630424,-9.217152,-3.1446216000000002,-2.5304496,0.0,0.0,0.0,0.0
3.86,-0.24993600000000002,-9.3256608,-3.1446216000000002,-2.4536400000000005,0.0,0.0,0.0,0.0
3.88,-0.14691360000000003,-9.2714064,-3.0903671999999998,-2.6069544000000002,0.0,0.0,0.0,0.0
3.9,-0.1905,-9.2714064,-2.9818584,-2.6069544000000002,0.0,0.0,0.0,0.0
3.92,-0.07863840000000001,-9.217152,-3.0361128,-2.5304496,0.0,0.0,0.0,0.0
3.94,-0.2182368,-9.2714064,-3.0903671999999998,-2.6069544000000002,0.0,0.0,0.0,0.0
3.96,-0.11917680000000001,-9.217152,-3.0361128,-2.5304496,0.0,0.0,0.0,0.0
3.98,-0.1344168,-9.3256608,-2.9279088,-2.4536400000000005,0.0,0.0,0.0,0.0
4.0,-0.20909280000000002,-9.217152,-2.9279088,-2.4536400000000005,0.0,0.0,0.0,0.0
4.02,-0.12009120000000001,-9.2714064,-2.8736544000000004,-2.5304496,0.0,0.0,0.0,0.0
4.04,-0.2295144,-9.217152,-2.9279088,-2.6069544000000002,0.0,0.0,0.0,0.0
4.0600000000000005,-0.10393680000000001,-9.3256608,-2.9279088,-2.5304496,0.0,0.0,0.0,0.0
4.08,-0.024688800000000007,-9.2714064,-2.9818584,-2.5304496,0.0,0.0,0.0,0.0
4.1,-0.09448800000000002,-9.5423736,-3.0361128,-2.6069544000000002,0.0,0.0,0.0,0.0
4.12,-0.06156960000000001,-9.3256608,-3.1446216000000002,-2.7602688,0.0,0.0,0.0,0.0
4.14,-0.15727680000000002,-9.3256608,-2.9279088,-2.683764,0.0,0.0,0.0,0.0
4.16,-0.18166080000000004,-9.217152,-2.9279088,-2.5304496,0.0,0.0,0.0,0.0
4.18,-0.1905,-9.3256608,-3.0361128,-2.4536400000000005,0.0,0.0,0.0,0.0
4.2,0.025298400000000006,-9.2714064,-3.0903671999999998,-2.6069544000000002,0.0,0.0,0.0,0.0
4.22,-0.0356616,-9.217152,-3.2531304000000003,-2.5304496,0.0,0.0,0.0,0.0
4.24,-0.0024384000000000025,-9.1628976,-3.198876,-2.6069544000000002,0.0,0.0,0.0,0.0
4.26,-0.054864,-9.2714064,-2.9818584,-2.4536400000000005,0.0,0.0,0.0,0.0
4.28,-0.153924,-9.217152,-3.0361128,-2.6069544000000002,0.0,0.0,0.0,0.0
4.3,-0.1304544,-9.217152,-3.0361128,-2.6069544000000002,0.0,0.0,0.0,0.0
4.32,0.02865120000000001,-9.217152,-3.0361128,-2.5304496,0.0,0.0,0.0,0.0
4.34,-0.08260080000000002,-9.217152,-3.1446216000000002,-2.683764,0.0,0.0,0.0,0.0
4.36,-0.08991600000000001,-9.217152,-3.1446216000000002,-2.6069544000000002,0.0,0.0,0.0,0.0
4.38,-0.16581120000000002,-9.2714064,-2.9818584,-2.683764,0.0,0.0,0.0,0.0
4.4,-0.14478000000000002,-9.217152,-3.0361128,-2.683764,0.0,0.0,0.0,0.0
4.42,-0.1825752,-9.379915200000001,-2.9818584,-2.683764,0.0,0.0,0.0,0.0
4.44,-0.07315200000000001,-9.2714064,-2.9818584,-2.683764,0.0,0.0,0.0,0.0
4.46,-0.09357360000000002,-8.4582,-3.7953696000000003,-4.0638984,0.0,0.0,0.0,0.0
4.48,-0.077724,-9.488119200000002,-3.7411152,-2.7602688,0.0,0.0,0.0,0.0
4.5,-0.04785360000000001,-9.108643200000001,-2.3856696,-2.3768304000000002,0.0,0.0,0.0,0.0
4.5200000000000005,0.011277599999999994,-9.108643200000001,-3.4698432,-3.1437072,0.0,0.0,0.0,0.0
4.54,-0.1255776,-9.3256608,-2.8194000000000004,-2.5304496,0.0,0.0,0.0,0.0
4.56,-0.0185928,-9.108643200000001,-2.9279088,-2.5304496,0.0,0.0,0.0,0.0
4.58,0.037490399999999986,-9.2714064,-2.9818584,-2.6069544000000002,0.0,0.0,0.0,0.0
4.6,-0.1118616,-9.2714064,-3.5240976,-3.0672024,0.0,0.0,0.0,0.0
4.62,-0.13502640000000002,-9.1628976,-2.9818584,-2.9135831999999997,0.0,0.0,0.0,0.0
4.64,-0.2657856,-76.2850392,-15.235428,-13.8016488,0.0,0.0,0.0,0.0
4.66,-0.2663952,-44.2420248,177.83586480000002,-61.8009432,0.0,0.0,0.0,0.0
4.68,-0.6620256000000001,-99.32791920000001,-51.5072376,-33.50757840000001,0.0,0.0,0.0,0.0
4.7,-0.7360920000000001,-72.2187024,-61.808868000000004,-157.03296000000003,0.0,0.0,0.0,0.0
4.72,-0.4142232,-70.10430480000001,-51.561492,-17.405604,0.0,0.0,0.0,0.0
4.74,-0.254508,-90.2735304,-63.3813312,-31.130443200000002,0.0,0.0,0.0,0.0
4.76,0.034442399999999984,-79.1586936,-48.7963464,-23.999647200000002,0.0,0.0,0.0,0.0
4.78,0.44958,-79.2672024,-51.832764000000005,-29.1370512,0.0,0.0,0.0,0.0
4.8,0.8446008000000002,-77.64048480000001,-50.097842400000005,-22.6195128,0.0,0.0,0.0,0.0
4.82,1.4084808000000002,-78.18272400000001,-57.6882768,-27.449983200000002,0.0,0.0,0.0,0.0
4.84,2.0717256,-84.2552544,-56.6037984,-30.900624,0.0,0.0,0.0,0.0
4.86,2.7273503999999997,-85.88166720000001,-52.266494400000006,-26.069848800000003,0.0,0.0,0.0,0.0
4.88,3.448812,-85.3936824,-55.3568616,-29.827118400000003,0.0,0.0,0.0,0.0
4.9,4.134612,-84.20100000000001,-56.98357920000001,-28.6002984,0.0,0.0,0.0,0.0
4.92,5.0508408,-84.20100000000001,-57.4173096,-29.213556,0.0,0.0,0.0,0.0
4.94,5.862218400000001,-86.74912800000001,-56.387085600000006,-27.6801072,0.0,0.0,0.0,0.0
4.96,6.746443200000001,-85.61070000000001,-55.3568616,-26.069848800000003,0.0,0.0,0.0,0.0
4.98,7.9555848000000005,-86.369652,-54.9231312,-27.066849600000005,0.0,0.0,0.0,0.0
5.0,9.146438400000001,-90.21927600000001,-56.7123072,-27.1433544,0.0,0.0,0.0,0.0
5.02,10.3756968,-88.59255840000002,-54.5436552,-23.999647200000002,0.0,0.0,0.0,0.0
5.04,11.6095272,-90.49024320000001,-54.2723832,-24.6132096,0.0,0.0,0.0,0.0
5.0600000000000005,13.002463200000001,-91.3037544,-52.916937600000004,-24.229771200000002,0.0,0.0,0.0,0.0
5.08,14.489887200000002,-90.21927600000001,-54.218433600000004,-25.993344,0.0,0.0,0.0,0.0
5.1,15.8227776,-88.86383040000001,-54.2723832,-25.533096,0.0,0.0,0.0,0.0
5.12,17.2632624,-89.3518152,-56.9293248,-26.299972800000003,0.0,0.0,0.0,0.0
5.14,18.6241944,-87.67084320000001,-57.0917832,-25.3797816,0.0,0.0,0.0,0.0
5.16,19.995489600000003,-87.72509760000001,-59.20648560000001,-27.2966688,0.0,0.0,0.0,0.0
5.18,21.3731856,-86.8033824,-59.4774528,-27.220164000000004,0.0,0.0,0.0,0.0
5.2,22.835006400000005,-86.31539760000001,-60.5076768,-26.759916,0.0,0.0,0.0,0.0
5.22,24.571452000000004,-84.1467456,-59.9654376,-26.376477600000005,0.0,0.0,0.0,0.0
5.24,26.3136888,-86.74912800000001,-59.423198400000004,-27.986736,0.0,0.0,0.0,0.0
5.26,28.431439200000003,-89.189052,-60.9956616,-28.1400504,0.0,0.0,0.0,0.0
5.28,30.469636800000004,-86.1529392,-58.5014832,-25.533096,0.0,0.0,0.0,0.0
5.3,32.411822400000005,-85.990176,-53.8929072,-26.299972800000003,0.0,0.0,0.0,0.0
5.32,34.539021600000005,-87.1289088,-56.00760960000001,-30.7473096,0.0,0.0,0.0,0.0
5.34,36.686642400000004,-86.0986848,-54.977385600000005,-27.526792800000003,0.0,0.0,0.0,0.0
5.36,38.876935200000005,-86.58666960000001,-53.730448800000005,-26.683411200000002,0.0,0.0,0.0,0.0
5.38,41.01480240000001,-90.21927600000001,-57.1460376,-28.0635456,0.0,0.0,0.0,0.0
5.4,43.340426400000005,-93.03867600000001,-61.9173768,-31.2072528,0.0,0.0,0.0,0.0
5.42,45.7584048,-99.32791920000001,-68.20662,-32.203948800000006,0.0,0.0,0.0,0.0
5.44,48.094392000000006,-95.85807600000001,-63.977520000000005,-26.299972800000003,0.0,0.0,0.0,0.0
5.46,50.607772800000006,-65.007744,-42.0191184,-17.0221656,0.0,0.0,0.0,0.0
5.48,53.360726400000004,-31.934505600000005,-23.259592800000004,-5.9807856,0.0,0.0,0.0,0.0
5.5,55.814366400000004,-8.295436800000001,-6.668719200000001,-4.907280000000001,0.0,0.0,0.0,0.0
5.52,57.930288000000004,-0.9759696,-2.0601432,-3.8337744,0.0,0.0,0.0,0.0
5.54,59.82553440000001,0.0542544,0.4879848,-1.1500104,0.0,0.0,0.0,0.0
5.5600000000000005,61.6677456,1.7349216,-0.650748,-1.7635728,0.0,0.0,0.0,0.0
5.58,63.22862640000001,0.7589520000000001,0.5422392,-3.3738312000000006,0.0,0.0,0.0,0.0
5.6,64.8016992,7.8617064,-6.9942456,-8.971178400000001,0.0,0.0,0.0,0.0
5.62,66.289428,-16.4281104,13.174980000000001,-36.574476000000004,0.0,0.0,0.0,0.0
5.640000000000001,67.5256968,-43.862548800000006,92.33367360000001,99.6790488,0.0,0.0,0.0,0.0
5.66,68.6187096,59.5317072,30.9042816,-4.2172128,0.0,0.0,0.0,0.0
5.68,70.26188640000001,51.77850960000001,-15.235428,156.9561504,0.0,0.0,0.0,0.0
5.7,71.8608672,-4.012082400000001,3.9035736000000005,8.6645496,0.0,0.0,0.0,0.0
5.72,74.384916,-2.3314152,2.1143976,-0.3834384,0.0,0.0,0.0,0.0
5.74,76.05522,4.7713392,3.6868608000000003,8.58774,0.0,0.0,0.0,0.0
5.76,76.47767280000001,3.1446216000000002,0.1085088,10.1979984,0.0,0.0,0.0,0.0
5.78,77.0744712,-0.37947600000000004,0.0542544,12.804952800000002,0.0,0.0,0.0,0.0
5.8,77.7169896,-2.8194000000000004,-2.4941784,10.274503200000002,0.0,0.0,0.0,0.0
5.82,77.638656,-1.5182088,1.5182088,11.3480088,0.0,0.0,0.0,0.0
5.84,77.3177016,-2.6566368,0.8132064000000001,8.5109304,0.0,0.0,0.0,0.0
5.86,77.97302160000001,-6.506260800000001,3.2531304000000003,12.038076,0.0,0.0,0.0,0.0
5.88,79.0715208,-1.6806672000000002,1.3554456000000001,9.4311216,0.0,0.0,0.0,0.0
5.9,80.2190928,-1.9519392,1.5182088,10.1979984,0.0,0.0,0.0,0.0
5.92,81.0892968,-0.7046976,1.2469368,9.737750400000001,0.0,0.0,0.0,0.0
5.9399999999999995,81.59617920000001,-1.2469368,0.16276320000000002,9.6612456,0.0,0.0,0.0,0.0
5.96,82.0771536,-2.2229064000000003,0.0542544,8.6645496,0.0,0.0,0.0,0.0
5.98,82.7004696,-1.0844784,0.650748,9.3546168,0.0,0.0,0.0,0.0
6.0,83.2375272,-1.6264128000000002,-0.3252216,8.971178400000001,0.0,0.0,0.0,0.0
6.02,83.91631680000002,-2.2229064000000003,1.789176,10.5046272,0.0,0.0,0.0,0.0
6.04,85.00628160000001,-3.0903671999999998,2.548128,9.6612456,0.0,0.0,0.0,0.0
6.0600000000000005,86.43853680000001,-2.3856696,1.9519392,9.1244928,0.0,0.0,0.0,0.0
6.08,87.60835920000001,-1.7349216,1.0844784,8.971178400000001,0.0,0.0,0.0,0.0
6.1,88.72971840000001,-1.1387328,1.1387328,8.2043016,0.0,0.0,0.0,0.0
6.12,89.7733536,-1.8434304000000001,1.4097000000000002,8.2811112,0.0,0.0,0.0,0.0
6.140000000000001,90.76547760000001,-1.5724632,0.16276320000000002,7.6675488,0.0,0.0,0.0,0.0
6.16,91.9669992,-1.4097000000000002,-0.1085088,8.2043016,0.0,0.0,0.0,0.0
6.18,93.19016160000001,-0.650748,0.3252216,8.971178400000001,0.0,0.0,0.0,0.0
6.2,94.3365144,-1.6264128000000002,-0.5422392,7.2841104,0.0,0.0,0.0,0.0
6.22,95.36033760000001,-1.4097000000000002,1.0844784,7.36092,0.0,0.0,0.0,0.0
6.24,96.5234544,-1.3011912,0.4337304,7.8208632,0.0,0.0,0.0,0.0
6.26,97.75728480000001,-2.3314152,1.1387328,7.8976728000000005,0.0,0.0,0.0,0.0
6.28,99.14686800000001,-2.4941784,2.0601432,7.8208632,0.0,0.0,0.0,0.0
6.3,100.6983,-1.9519392,1.6264128000000002,8.1277968,0.0,0.0,0.0,0.0
6.32,102.286308,-2.548128,2.1143976,7.5142344,0.0,0.0,0.0,0.0
6.34,103.7082,-2.2229064000000003,1.1387328,6.9009768,0.0,0.0,0.0,0.0
6.36,105.15630480000002,-1.9519392,0.5422392,6.4407288000000005,0.0,0.0,0.0,0.0
6.38,106.63580400000001,-1.3011912,1.0844784,6.9774816,0.0,0.0,0.0,0.0
6.4,108.18144480000001,-0.650748,0.2170176,6.9774816,0.0,0.0,0.0,0.0
6.42,109.42350480000002,-1.7349216,0.9759696,8.1277968,0.0,0.0,0.0,0.0
6.4399999999999995,110.65520160000001,-1.2469368,0.16276320000000002,7.2841104,0.0,0.0,0.0,0.0
6.46,111.7582728,-1.1926824,0.7589520000000001,7.437729600000001,0.0,0.0,0.0,0.0
6.48,112.97533920000001,-0.5422392,0.650748,7.8976728000000005,0.0,0.0,0.0,0.0
6.5,114.24787920000001,-0.9759696,0.7589520000000001,6.364224,0.0,0.0,0.0,0.0
6.52,115.3680192,-1.3554456000000001,0.9217152000000001,6.4407288000000005,0.0,0.0,0.0,0.0
6.54,116.7085296,-1.8434304000000001,0.9759696,6.1341,0.0,0.0,0.0,0.0
6.5600000000000005,117.93077760000001,-1.6806672000000002,0.8132064000000001,6.1341,0.0,0.0,0.0,0.0
6.58,119.0436024,-1.4639544,0.5964936000000001,6.5175384,0.0,0.0,0.0,0.0
6.6,120.0025032,-1.8434304000000001,1.9519392,6.2874144,0.0,0.0,0.0,0.0
6.62,121.0296792,-1.7349216,0.8674608,6.364224,0.0,0.0,0.0,0.0
6.640000000000001,122.07422880000001,-2.1143976,1.3554456000000001,5.6741568000000004,0.0,0.0,0.0,0.0
6.66,123.12792240000002,-1.789176,0.4879848,5.597347200000001,0.0,0.0,0.0,0.0
6.68,124.20721920000001,-1.3554456000000001,0.9217152000000001,5.827471200000001,0.0,0.0,0.0,0.0
6.7,125.24628240000001,-1.6806672000000002,1.2469368,6.364224,0.0,0.0,0.0,0.0
6.720000000000001,126.3310656,-1.6806672000000002,1.1387328,5.6741568000000004,0.0,0.0,0.0,0.0
6.74,127.35336480000001,-1.6264128000000002,1.9519392,5.2907184,0.0,0.0,0.0,0.0
6.76,128.41589760000002,-1.1387328,1.2469368,5.750661600000001,0.0,0.0,0.0,0.0
6.78,129.5744424,-0.5422392,0.5422392,5.903976000000001,0.0,0.0,0.0,0.0
6.8,130.6948872,-0.7589520000000001,0.650748,5.9807856,0.0,0.0,0.0,0.0
6.82,131.7824136,-0.7589520000000001,-0.1085088,5.750661600000001,0.0,0.0,0.0,0.0
6.84,132.98210640000002,-0.5964936000000001,-0.0542544,5.5205376,0.0,0.0,0.0,0.0
6.859999999999999,134.1613776,-0.7589520000000001,0.0,5.9807856,0.0,0.0,0.0,0.0
6.88,135.1922112,-1.5724632,0.5964936000000001,5.597347200000001,0.0,0.0,0.0,0.0
6.9,136.13251920000002,-1.1387328,0.7046976,5.903976000000001,0.0,0.0,0.0,0.0
6.92,137.17188720000001,-0.9217152000000001,0.7046976,5.827471200000001,0.0,0.0,0.0,0.0
6.9399999999999995,138.2441736,-1.030224,1.030224,5.367223200000001,0.0,0.0,0.0,0.0
6.96,139.4295408,-0.9759696,1.4097000000000002,5.2139088000000005,0.0,0.0,0.0,0.0
6.98,140.3777736,-0.7046976,1.2469368,5.5205376,0.0,0.0,0.0,0.0
7.0,141.35435280000002,-1.1387328,1.2469368,4.4473368,0.0,0.0,0.0,0.0
7.02,142.32910320000002,-0.8674608,0.5422392,4.7539656,0.0,0.0,0.0,0.0
7.04,143.3419536,-0.9217152000000001,0.9217152000000001,4.2937176,0.0,0.0,0.0,0.0
7.0600000000000005,144.1731432,-0.9217152000000001,0.4879848,4.2937176,0.0,0.0,0.0,0.0
7.08,145.15703760000002,-0.4879848,0.8132064000000001,4.523841600000001,0.0,0.0,0.0,0.0
7.1,146.1555624,-0.9217152000000001,0.4879848,4.6006512,0.0,0.0,0.0,0.0
7.12,147.0973944,-1.1387328,0.7046976,4.523841600000001,0.0,0.0,0.0,0.0
7.140000000000001,148.06757280000002,-1.1387328,0.8132064000000001,5.060594400000001,0.0,0.0,0.0,0.0
7.16,149.1075504,-1.6806672000000002,0.7046976,3.5271456,0.0,0.0,0.0,0.0
7.18,150.1234488,-1.3011912,1.0844784,4.8304704,0.0,0.0,0.0,0.0
7.2,151.2149376,-1.3554456000000001,1.1387328,4.523841600000001,0.0,0.0,0.0,0.0
7.220000000000001,152.41280160000002,-1.0844784,1.4097000000000002,4.2172128,0.0,0.0,0.0,0.0
7.24,153.5618976,-1.0844784,1.1926824,3.8337744,0.0,0.0,0.0,0.0
7.26,154.7247096,-1.030224,0.5964936000000001,4.0638984,0.0,0.0,0.0,0.0
7.28,155.7674304,-0.2170176,1.1926824,4.907280000000001,0.0,0.0,0.0,0.0
7.3,156.7275504,-0.9759696,0.650748,4.677156,0.0,0.0,0.0,0.0
7.32,157.69010880000002,-0.7589520000000001,0.3252216,4.2172128,0.0,0.0,0.0,0.0
7.34,158.5834776,-0.5964936000000001,0.37947600000000004,4.2172128,0.0,0.0,0.0,0.0
7.359999999999999,159.465264,-0.4337304,0.3252216,3.9870888,0.0,0.0,0.0,0.0
7.38,160.4348328,-0.5964936000000001,0.16276320000000002,3.9870888,0.0,0.0,0.0,0.0
7.4,161.34831840000004,-1.0844784,0.8674608,3.8337744,0.0,0.0,0.0,0.0
7.42,162.2197416,-0.9759696,0.5422392,3.68046,0.0,0.0,0.0,0.0
7.4399999999999995,163.10823360000003,-1.1926824,0.7589520000000001,3.910584,0.0,0.0,0.0,0.0
7.46,164.02842479999998,-0.7589520000000001,0.650748,3.2205168000000004,0.0,0.0,0.0,0.0
7.48,164.95532160000002,-0.7589520000000001,0.650748,3.450336,0.0,0.0,0.0,0.0
7.5,165.92763360000004,-0.9759696,0.650748,3.1437072,0.0,0.0,0.0,0.0
7.52,166.80423840000003,-0.4879848,0.2709672,3.2205168000000004,0.0,0.0,0.0,0.0
7.54,167.67017520000002,-0.7046976,0.8132064000000001,3.8337744,0.0,0.0,0.0,0.0
7.5600000000000005,168.54982800000002,-0.4337304,0.5422392,3.9870888,0.0,0.0,0.0,0.0
7.58,169.37583600000002,-0.650748,0.4337304,3.6036504000000003,0.0,0.0,0.0,0.0
7.6,170.25823200000002,-0.5422392,0.3252216,3.6036504000000003,0.0,0.0,0.0,0.0
7.62,171.07753440000002,-0.4879848,0.2709672,3.68046,0.0,0.0,0.0,0.0
7.640000000000001,171.9334128,-0.4337304,0.3252216,2.9903928,0.0,0.0,0.0,0.0
7.66,172.81123680000002,-0.5964936000000001,0.37947600000000004,3.5271456,0.0,0.0,0.0,0.0
7.68,173.662848,-0.7046976,0.7046976,3.8337744,0.0,0.0,0.0,0.0
7.7,174.46812960000003,-0.4337304,0.650748,3.0672024,0.0,0.0,0.0,0.0
7.720000000000001,175.36637520000002,-0.7589520000000001,0.4337304,2.9903928,0.0,0.0,0.0,0.0
7.74,176.28351840000002,-0.8132064000000001,0.37947600000000004,3.2970216000000003,0.0,0.0,0.0,0.0
7.76,177.18206880000002,-0.7589520000000001,0.4337304,2.6069544000000002,0.0,0.0,0.0,0.0
7.78,178.0342896,-1.030224,0.9217152000000001,3.2205168000000004,0.0,0.0,0.0,0.0
7.8,178.89809280000003,-0.7589520000000001,0.5422392,2.4536400000000005,0.0,0.0,0.0,0.0
7.82,179.6622264,-0.8674608,0.650748,2.5304496,0.0,0.0,0.0,0.0
7.84,180.56138640000003,-0.8132064000000001,0.9217152000000001,2.9903928,0.0,0.0,0.0,0.0
7.859999999999999,181.39653840000003,-0.7589520000000001,0.650748,2.683764,0.0,0.0,0.0,0.0
7.88,182.17134,-0.37947600000000004,0.37947600000000004,2.4536400000000005,0.0,0.0,0.0,0.0
7.9,182.9632104,-0.7046976,0.8132064000000001,2.7602688,0.0,0.0,0.0,0.0
7.92,183.6919872,-0.4879848,0.4879848,2.9903928,0.0,0.0,0.0,0.0
7.9399999999999995,184.519824,-0.5422392,0.2170176,1.6102584000000002,0.0,0.0,0.0,0.0
7.96,185.19891840000003,-0.37947600000000004,0.4879848,2.683764,0.0,0.0,0.0,0.0
7.98,185.9328768,-0.5422392,0.3252216,2.0702016,0.0,0.0,0.0,0.0
8.0,186.67323600000003,-0.650748,0.2170176,1.9936968000000002,0.0,0.0,0.0,0.0
8.02,187.48735680000001,-0.5964936000000001,0.16276320000000002,2.1470112,0.0,0.0,0.0,0.0
8.04,188.2301544,-0.4879848,0.2709672,2.3003256,0.0,0.0,0.0,0.0
8.06,188.9909352,-0.4879848,0.37947600000000004,2.0702016,0.0,0.0,0.0,0.0
8.08,189.74805840000002,-0.4337304,0.3252216,2.1470112,0.0,0.0,0.0,0.0
8.1,190.4750064,-0.7046976,0.4879848,2.3003256,0.0,0.0,0.0,0.0
8.120000000000001,191.0952744,-1.0844784,0.650748,1.9936968000000002,0.0,0.0,0.0,0.0
8.14,191.83715760000004,-1.1387328,0.7046976,1.8400776,0.0,0.0,0.0,0.0
8.16,192.6131784,-1.1926824,0.7589520000000001,2.6069544000000002,0.0,0.0,0.0,0.0
8.18,193.3989528,-0.5422392,0.5422392,1.9168872,0.0,0.0,0.0,0.0
8.2,194.23623840000002,-1.3554456000000001,1.2469368,1.6867632000000001,0.0,0.0,0.0,0.0
8.22,195.03969120000002,-0.9759696,1.0844784,1.7635728,0.0,0.0,0.0,0.0
8.24,195.89953200000002,-0.9759696,1.4097000000000002,1.4569440000000002,0.0,0.0,0.0,0.0
8.26,196.7898528,-1.4097000000000002,0.9759696,1.6867632000000001,0.0,0.0,0.0,0.0
8.280000000000001,197.5091808,-0.37947600000000004,1.030224,1.5334488,0.0,0.0,0.0,0.0
8.3,198.32878800000003,-0.5422392,0.8674608,1.9168872,0.0,0.0,0.0,0.0
8.32,199.1237064,-0.7046976,0.9217152000000001,1.8400776,0.0,0.0,0.0,0.0
8.34,199.8829632,-0.4337304,0.5422392,1.7635728,0.0,0.0,0.0,0.0
8.36,200.57242080000003,-0.5422392,0.8674608,1.8400776,0.0,0.0,0.0,0.0
8.379999999999999,201.30119760000002,-0.2709672,0.7046976,1.6102584000000002,0.0,0.0,0.0,0.0
8.4,201.89769120000003,-0.7046976,0.8132064000000001,1.8400776,0.0,0.0,0.0,0.0
8.42,202.57190880000002,-0.5964936000000001,0.7046976,1.6102584000000002,0.0,0.0,0.0,0.0
8.44,203.15011440000004,-0.4879848,0.5964936000000001,1.6867632000000001,0.0,0.0,0.0,0.0
8.46,203.81671200000002,-0.2170176,0.7589520000000001,1.7635728,0.0,0.0,0.0,0.0
8.48,204.40863360000003,-0.7046976,0.5964936000000001,1.8400776,0.0,0.0,0.0,0.0
8.5,205.0730976,-0.8132064000000001,0.37947600000000004,1.3801344,0.0,0.0,0.0,0.0
8.52,205.8094944,-0.7046976,0.4879848,1.7635728,0.0,0.0,0.0,0.0
8.54,206.655924,-1.0844784,0.650748,1.8400776,0.0,0.0,0.0,0.0
8.559999999999999,207.47583600000002,-0.9217152000000001,0.7046976,1.6867632000000001,0.0,0.0,0.0,0.0
8.58,208.16316000000003,-0.7589520000000001,0.5422392,1.2268200000000002,0.0,0.0,0.0,0.0
8.6,208.852008,-0.7046976,1.1387328,1.5334488,0.0,0.0,0.0,0.0
8.620000000000001,209.4363096,-0.4337304,0.8674608,1.6102584000000002,0.0,0.0,0.0,0.0
8.64,209.9620896,-0.5964936000000001,1.2469368,1.5334488,0.0,0.0,0.0,0.0
8.66,210.4351392,-0.1085088,0.650748,1.3036296,0.0,0.0,0.0,0.0
8.68,210.9630528,-0.16276320000000002,0.8132064000000001,1.2268200000000002,0.0,0.0,0.0,0.0
8.7,211.4787744,0.0,0.7589520000000001,1.2268200000000002,0.0,0.0,0.0,0.0
8.719999999999999,211.9493856,-0.1085088,0.7589520000000001,1.3801344,0.0,0.0,0.0,0.0
8.74,212.40231840000004,-0.3252216,0.9759696,1.4569440000000002,0.0,0.0,0.0,0.0
8.76,213.08385120000003,-0.0542544,0.7046976,1.3801344,0.0,0.0,0.0,0.0
8.780000000000001,213.6648,-0.0542544,0.7046976,1.1500104,0.0,0.0,0.0,0.0
8.8,214.20185760000004,-0.16276320000000002,0.8132064000000001,1.3801344,0.0,0.0,0.0,0.0
8.82,214.76208000000003,-0.2170176,0.5422392,1.1500104,0.0,0.0,0.0,0.0
8.84,215.2860312,-0.2170176,0.650748,1.3036296,0.0,0.0,0.0,0.0
8.86,215.7868176,-0.2709672,0.7046976,1.4569440000000002,0.0,0.0,0.0,0.0
8.879999999999999,216.28150800000003,-0.37947600000000004,0.5964936000000001,1.0735056,0.0,0.0,0.0,0.0
8.9,216.75638640000003,-0.650748,0.7589520000000001,1.3036296,0.0,0.0,0.0,0.0
8.92,217.331544,-0.650748,0.650748,1.1500104,0.0,0.0,0.0,0.0
8.940000000000001,217.98412080000003,-0.8132064000000001,0.7046976,1.3036296,0.0,0.0,0.0,0.0
8.96,218.53885680000002,-0.8132064000000001,0.7046976,0.996696,0.0,0.0,0.0,0.0
8.98,219.25452720000004,-0.8132064000000001,0.7046976,0.996696,0.0,0.0,0.0,0.0
9.0,219.870528,-0.7589520000000001,0.650748,0.8433816000000001,0.0,0.0,0.0,0.0
9.02,220.46824080000002,-0.7046976,0.5964936000000001,1.0735056,0.0,0.0,0.0,0.0
9.04,220.98213360000003,-0.4879848,0.8132064000000001,0.9201912000000001,0.0,0.0,0.0,0.0
9.059999999999999,221.52041040000003,-0.5964936000000001,0.5964936000000001,0.7668768,0.0,0.0,0.0,0.0
9.08,222.1162944,-0.5964936000000001,0.7046976,0.9201912000000001,0.0,0.0,0.0,0.0
9.1,222.65731440000002,-0.37947600000000004,0.5964936000000001,0.8433816000000001,0.0,0.0,0.0,0.0
9.120000000000001,223.11451440000002,-0.37947600000000004,0.5964936000000001,0.7668768,0.0,0.0,0.0,0.0
9.14,223.53788160000002,-0.2709672,0.37947600000000004,0.8433816000000001,0.0,0.0,0.0,0.0
9.16,224.04628800000003,-0.3252216,0.4337304,1.0735056,0.0,0.0,0.0,0.0
9.18,224.4931248,-0.37947600000000004,0.37947600000000004,0.8433816000000001,0.0,0.0,0.0,0.0
9.2,224.96708880000003,-0.4879848,0.37947600000000004,0.7668768,0.0,0.0,0.0,0.0
9.219999999999999,225.4761048,-0.37947600000000004,0.2709672,0.9201912000000001,0.0,0.0,0.0,0.0
9.24,225.94824,-0.3252216,0.4337304,0.7668768,0.0,0.0,0.0,0.0
9.26,226.4170224,-0.4879848,0.2709672,0.7668768,0.0,0.0,0.0,0.0
9.280000000000001,226.9211616,-0.37947600000000004,0.2709672,0.6900672,0.0,0.0,0.0,0.0
9.3,227.43292080000003,-0.37947600000000004,0.37947600000000004,0.8433816000000001,0.0,0.0,0.0,0.0
9.32,227.8834152,-0.3252216,0.4337304,0.7668768,0.0,0.0,0.0,0.0
9.34,228.406452,-0.37947600000000004,0.37947600000000004,0.6900672,0.0,0.0,0.0,0.0
9.36,228.8200656,-0.37947600000000004,0.37947600000000004,0.8433816000000001,0.0,0.0,0.0,0.0
9.379999999999999,229.2242304,-0.4337304,0.3252216,0.7668768,0.0,0.0,0.0,0.0
9.4,229.68386880000003,-0.3252216,0.3252216,0.7668768,0.0,0.0,0.0,0.0
9.42,230.14746960000002,-0.3252216,0.3252216,0.8433816000000001,0.0,0.0,0.0,0.0
9.440000000000001,230.6708112,-0.3252216,0.3252216,0.7668768,0.0,0.0,0.0,0.0
9.46,231.1459944,-0.3252216,0.3252216,0.6900672,0.0,0.0,0.0,0.0
9.48,231.6059376,-0.2709672,0.37947600000000004,0.7668768,0.0,0.0,0.0,0.0
9.5,232.083864,-0.3252216,0.3252216,0.6135624,0.0,0.0,0.0,0.0
9.52,232.4895528,-0.5422392,0.3252216,0.6135624,0.0,0.0,0.0,0.0
9.54,232.91627280000003,-0.3252216,0.4337304,0.5367528,0.0,0.0,0.0,0.0
9.559999999999999,233.31952320000002,-0.2709672,0.4879848,0.6135624,0.0,0.0,0.0,0.0
9.58,233.77093200000002,-0.37947600000000004,0.37947600000000004,0.5367528,0.0,0.0,0.0,0.0
9.6,234.2467248,-0.37947600000000004,0.37947600000000004,0.5367528,0.0,0.0,0.0,0.0
9.620000000000001,234.6783216,-0.3252216,0.4337304,0.5367528,0.0,0.0,0.0,0.0
9.64,235.04194800000002,-0.2170176,0.5422392,0.4599432,0.0,0.0,0.0,0.0
9.66,235.53755280000001,-0.2709672,0.4879848,0.4599432,0.0,0.0,0.0,0.0
9.68,235.93044,-0.2709672,0.5964936000000001,0.4599432,0.0,0.0,0.0,0.0
9.7,236.3126592,-0.2709672,0.4879848,0.23012400000000002,0.0,0.0,0.0,0.0
9.719999999999999,236.68146720000001,-0.2170176,0.5422392,0.30662880000000003,0.0,0.0,0.0,0.0
9.74,236.972856,-0.2709672,0.5964936000000001,0.30662880000000003,0.0,0.0,0.0,0.0
9.76,237.29990640000003,-0.2709672,0.5964936000000001,0.15331440000000002,0.0,0.0,0.0,0.0
9.780000000000001,237.71291040000003,-0.2170176,0.5422392,0.15331440000000002,0.0,0.0,0.0,0.0
9.8,238.0942152,-0.2709672,0.4879848,0.23012400000000002,0.0,0.0,0.0,0.0
9.82,238.50569520000002,-0.2170176,0.5422392,0.15331440000000002,0.0,0.0,0.0,0.0
9.84,238.82725920000001,-0.2170176,0.5422392,0.0768096,0.0,0.0,0.0,0.0
9.86,239.2713528,-0.16276320000000002,0.4879848,0.23012400000000002,0.0,0.0,0.0,0.0
9.879999999999999,239.700816,-0.16276320000000002,0.4879848,0.30662880000000003,0.0,0.0,0.0,0.0
9.9,240.0754152,-0.2709672,0.4879848,0.30662880000000003,0.0,0.0,0.0,0.0
9.92,240.423192,-0.2170176,0.5422392,0.30662880000000003,0.0,0.0,0.0,0.0
9.940000000000001,240.76487280000003,-0.2170176,0.4337304,0.4599432,0.0,0.0,0.0,0.0
9.96,241.12545120000001,-0.0542544,0.5964936000000001,0.15331440000000002,0.0,0.0,0.0,0.0
9.98,241.43695680000002,-0.16276320000000002,0.4879848,0.15331440000000002,0.0,0.0,0.0,0.0
10.0,241.7387088,-0.2170176,0.4337304,0.30662880000000003,0.0,0.0,0.0,0.0
10.02,242.0160768,-0.16276320000000002,0.4879848,0.23012400000000002,0.0,0.0,0.0,0.0
10.04,242.32697280000002,-0.16276320000000002,0.37947600000000004,0.0768096,0.0,0.0,0.0,0.0
10.059999999999999,242.63604,-0.1085088,0.5422392,0.30662880000000003,0.0,0.0,0.0,0.0
10.08,242.8713456,-0.16276320000000002,0.4879848,0.0768096,0.0,0.0,0.0,0.0
10.1,243.1295112,-0.2709672,0.37947600000000004,0.0,0.0,0.0,0.0,0.0
10.120000000000001,243.43705440000002,-0.3252216,0.3252216,0.15331440000000002,0.0,0.0,0.0,0.0
10.14,243.6818088,-0.16276320000000002,0.4879848,0.0768096,0.0,0.0,0.0,0.0
10.16,244.00002,-0.2709672,0.37947600000000004,0.23012400000000002,0.0,0.0,0.0,0.0
10.18,244.2417264,-0.2709672,0.4879848,0.15331440000000002,0.0,0.0,0.0,0.0
10.2,244.5992568,-0.2170176,0.3252216,0.15331440000000002,0.0,0.0,0.0,0.0
10.219999999999999,244.8025584,-0.2709672,0.4879848,0.0768096,0.0,0.0,0.0,0.0
10.24,245.1006528,-0.2170176,0.4337304,0.0768096,0.0,0.0,0.0,0.0
10.26,245.3478456,-0.16276320000000002,0.5964936000000001,0.15331440000000002,0.0,0.0,0.0,0.0
10.280000000000001,245.5627296,-0.2170176,0.4337304,-0.0768096,0.0,0.0,0.0,0.0
10.3,245.77974720000003,-0.2170176,0.4337304,-0.0768096,0.0,0.0,0.0,0.0
10.32,246.07875600000003,-0.2170176,0.5422392,-0.0768096,0.0,0.0,0.0,0.0
10.34,246.295164,-0.2170176,0.5422392,0.0,0.0,0.0,0.0,0.0
10.36,246.5408328,-0.2170176,0.4337304,0.0,0.0,0.0,0.0,0.0
10.379999999999999,246.8450232,-0.2709672,0.37947600000000004,0.0,0.0,0.0,0.0,0.0
10.4,247.03613280000002,-0.3252216,0.4337304,-0.0768096,0.0,0.0,0.0,0.0
10.42,247.25833200000002,-0.2170176,0.4337304,0.0,0.0,0.0,0.0,0.0
10.440000000000001,247.48479840000002,-0.2170176,0.4337304,-0.0768096,0.0,0.0,0.0,0.0
10.46,247.77527280000004,-0.2170176,0.4337304,0.0,0.0,0.0,0.0,0.0
10.48,248.07458640000002,-0.2170176,0.5422392,-0.30662880000000003,0.0,0.0,0.0,0.0
10.5,248.27423040000002,-0.16276320000000002,0.4879848,0.0,0.0,0.0,0.0,0.0
10.52,248.4476616,-0.2170176,0.5422392,-0.15331440000000002,0.0,0.0,0.0,0.0
10.54,248.62231200000002,-0.2170176,0.4337304,-0.0768096,0.0,0.0,0.0,0.0
10.559999999999999,248.92436880000002,-0.16276320000000002,0.4879848,-0.23012400000000002,0.0,0.0,0.0,0.0
10.58,249.1194408,-0.2170176,0.4337304,-0.23012400000000002,0.0,0.0,0.0,0.0
10.6,249.39071280000002,-0.2709672,0.4879848,-0.23012400000000002,0.0,0.0,0.0,0.0
10.620000000000001,249.5452464,-0.2709672,0.37947600000000004,-0.15331440000000002,0.0,0.0,0.0,0.0
10.64,249.84730320000003,-0.2170176,0.5422392,-0.23012400000000002,0.0,0.0,0.0,0.0
10.66,250.0420704,-0.2709672,0.37947600000000004,-0.30662880000000003,0.0,0.0,0.0,0.0
10.68,250.27097520000004,-0.2170176,0.4337304,-0.15331440000000002,0.0,0.0,0.0,0.0
10.7,250.4239848,-0.16276320000000002,0.4879848,-0.15331440000000002,0.0,0.0,0.0,0.0
10.719999999999999,250.62027600000002,-0.16276320000000002,0.5964936000000001,-0.0768096,0.0,0.0,0.0,0.0
10.74,250.7674944,-0.2170176,0.4337304,-0.15331440000000002,0.0,0.0,0.0,0.0
10.76,250.99365600000002,-0.2170176,0.4337304,0.0,0.0,0.0,0.0,0.0
10.780000000000001,251.12685360000003,-0.2709672,0.4879848,0.0,0.0,0.0,0.0,0.0
10.8,251.40818400000003,-0.2709672,0.37947600000000004,-0.15331440000000002,0.0,0.0,0.0,0.0
10.82,251.53467600000002,-0.16276320000000002,0.37947600000000004,-0.0768096,0.0,0.0,0.0,0.0
10.84,251.71633680000002,-0.2709672,0.4879848,-0.15331440000000002,0.0,0.0,0.0,0.0
10.86,251.8720896,-0.16276320000000002,0.4879848,-0.0768096,0.0,0.0,0.0,0.0
10.879999999999999,252.04917840000002,-0.16276320000000002,0.4879848,-0.15331440000000002,0.0,0.0,0.0,0.0
10.9,252.1765848,-0.1085088,0.4337304,-0.15331440000000002,0.0,0.0,0.0,0.0
10.92,252.31374480000002,-0.16276320000000002,0.37947600000000004,-0.15331440000000002,0.0,0.0,0.0,0.0
10.940000000000001,252.40000320000004,-0.2170176,0.4337304,-0.23012400000000002,0.0,0.0,0.0,0.0
10.96,252.47528880000002,-0.0542544,0.4879848,-0.15331440000000002,0.0,0.0,0.0,0.0
10.98,252.6011712,-0.16276320000000002,0.4879848,-0.0768096,0.0,0.0,0.0,0.0
11.0,252.6383568,-0.16276320000000002,0.4879848,-0.23012400000000002,0.0,0.0,0.0,0.0
11.02,252.6999264,-0.1085088,0.4337304,-0.15331440000000002,0.0,0.0,0.0,0.0
11.04,252.8291616,-0.1085088,0.4337304,-0.15331440000000002,0.0,0.0,0.0,0.0
11.059999999999999,253.0196616,-0.1085088,0.4337304,-0.15331440000000002,0.0,0.0,0.0,0.0
11.08,253.1720616,-0.16276320000000002,0.4879848,-0.23012400000000002,0.0,0.0,0.0,0.0
11.1,253.2406416,-0.1085088,0.4337304,-0.0768096,0.0,0.0,0.0,0.0
11.120000000000001,253.28361840000002,-0.16276320000000002,0.37947600000000004,-0.15331440000000002,0.0,0.0,0.0,0.0
11.14,253.4055384,-0.1085088,0.4337304,-0.15331440000000002,0.0,0.0,0.0,0.0
11.16,253.58872320000003,-0.1085088,0.4337304,-0.0768096,0.0,0.0,0.0,0.0
11.18,253.6716288,-0.0542544,0.4879848,-0.15331440000000002,0.0,0.0,0.0,0.0
11.2,253.78775760000002,-0.1085088,0.5422392,-0.15331440000000002,0.0,0.0,0.0,0.0
11.219999999999999,253.915164,-0.1085088,0.4337304,-0.23012400000000002,0.0,0.0,0.0,0.0
11.24,253.96819920000002,-0.1085088,0.5422392,-0.15331440000000002,0.0,0.0,0.0,0.0
11.26,254.06543040000003,-0.0542544,0.4879848,-0.15331440000000002,0.0,0.0,0.0,0.0
11.280000000000001,254.03556000000003,-0.1085088,0.4337304,0.0,0.0,0.0,0.0,0.0
11.3,254.10596880000003,-0.1085088,0.5422392,-0.15331440000000002,0.0,0.0,0.0,0.0
11.32,254.19832320000003,-0.0542544,0.5964936000000001,-0.0768096,0.0,0.0,0.0,0.0
11.34,254.320548,-0.1085088,0.5422392,-0.0768096,0.0,0.0,0.0,0.0
11.36,254.2726944,-0.0542544,0.5964936000000001,-0.0768096,0.0,0.0,0.0,0.0
11.379999999999999,254.31536640000002,-0.0542544,0.5964936000000001,-0.0768096,0.0,0.0,0.0,0.0
11.4,254.47111920000003,-0.0542544,0.5964936000000001,-0.0768096,0.0,0.0,0.0,0.0
11.42,254.47843440000003,-0.0542544,0.5964936000000001,-0.0768096,0.0,0.0,0.0,0.0
11.440000000000001,254.51287680000002,0.0,0.5422392,-0.15331440000000002,0.0,0.0,0.0,0.0
11.46,254.54579520000001,0.0,0.650748,-0.0768096,0.0,0.0,0.0,0.0
11.48,254.55189120000003,0.0542544,0.7046976,-0.0768096,0.0,0.0,0.0,0.0
11.5,254.5503672,-0.0542544,0.7046976,0.0,0.0,0.0,0.0,0.0
11.52,254.6140704,0.0,0.650748,0.0,0.0,0.0,0.0,0.0
11.54,254.63784480000004,0.0,0.650748,-0.0768096,0.0,0.0,0.0,0.0
11.559999999999999,254.6433312,0.0542544,0.7046976,-0.0768096,0.0,0.0,0.0,0.0
11.58,254.65247520000003,0.0542544,0.7046976,0.0,0.0,0.0,0.0,0.0
11.6,254.738124,0.0,0.7589520000000001,-0.15331440000000002,0.0,0.0,0.0,0.0
11.620000000000001,254.7250176,0.0,0.7589520000000001,0.0,0.0,0.0,0.0,0.0
11.64,254.7119112,0.0542544,0.8132064000000001,0.0,0.0,0.0,0.0,0.0
11.66,254.692404,0.0542544,0.7046976,-0.0768096,0.0,0.0,0.0,0.0
11.68,254.669544,0.0542544,0.8132064000000001,-0.0768096,0.0,0.0,0.0,0.0
11.7,254.6911848,0.0542544,0.9217152000000001,0.0,0.0,0.0,0.0,0.0
11.719999999999999,254.61468000000002,0.1085088,0.8674608,-0.0768096,0.0,0.0,0.0,0.0
11.74,254.59578240000002,-0.0542544,1.030224,-0.0768096,0.0,0.0,0.0,0.0
11.76,254.5683504,0.2170176,0.8674608,0.0,0.0,0.0,0.0,0.0
11.780000000000001,254.63632080000002,0.2170176,0.8674608,0.0,0.0,0.0,0.0,0.0
11.8,254.59852560000002,0.2709672,1.030224,0.6135624,0.0,0.0,0.0,0.0
11.82,254.5464048,-0.1085088,0.7589520000000001,-0.3834384,0.0,0.0,0.0,0.0
11.84,254.5829808,-0.4337304,0.9759696,-0.0768096,0.0,0.0,0.0,0.0
11.86,254.49916080000003,-0.3252216,0.8674608,-0.4599432,0.0,0.0,0.0,0.0
11.879999999999999,254.53665120000002,-0.1085088,0.8674608,0.0,0.0,0.0,0.0,0.0
11.9,254.50251360000001,-0.2170176,0.8674608,0.15331440000000002,0.0,0.0,0.0,0.0
11.92,254.41351200000003,-0.2709672,0.8132064000000001,-0.4599432,0.0,0.0,0.0,0.0
11.940000000000001,254.32847280000004,-0.5964936000000001,3.198876,0.4599432,0.0,0.0,0.0,0.0
11.96,254.2528824,-0.7589520000000001,0.5422392,-0.6135624,0.0,0.0,0.0,0.0
11.98,254.14224,-0.37947600000000004,0.37947600000000004,-0.6135624,0.0,0.0,0.0,0.0
12.0,254.0581152,-0.650748,1.0844784,-0.30662880000000003,0.0,0.0,0.0,0.0
12.02,253.980696,-1.4097000000000002,1.4097000000000002,0.0768096,0.0,0.0,0.0,0.0
12.04,253.8139704,0.5964936000000001,0.8132064000000001,-0.23012400000000002,0.0,0.0,0.0,0.0
12.059999999999999,253.71308160000004,-0.3252216,0.3252216,-0.4599432,0.0,0.0,0.0,0.0
12.08,253.64724480000004,-0.7589520000000001,0.5422392,-0.5367528,0.0,0.0,0.0,0.0
12.1,253.66187520000003,-4.2291,7.6989432,0.7668768,0.0,0.0,0.0,0.0
12.120000000000001,253.581408,-1.4097000000000002,0.8674608,-0.7668768,0.0,0.0,0.0,0.0
12.14,253.45979280000003,-0.5422392,0.650748,-0.0768096,0.0,0.0,0.0,0.0
12.16,253.3201944,-0.4337304,0.3252216,-0.4599432,0.0,0.0,0.0,0.0
12.18,253.22692560000002,-0.7046976,1.030224,0.0,0.0,0.0,0.0,0.0
12.2,253.1787672,-0.4879848,0.7046976,0.15331440000000002,0.0,0.0,0.0,0.0
12.219999999999999,253.03246320000002,-0.650748,0.8674608,0.23012400000000002,0.0,0.0,0.0,0.0
12.24,252.9273072,-0.650748,0.8674608,0.15331440000000002,0.0,0.0,0.0,0.0
12.26,252.7977672,-0.5964936000000001,1.030224,0.30662880000000003,0.0,0.0,0.0,0.0
12.280000000000001,252.64049040000003,-0.5964936000000001,0.8132064000000001,0.30662880000000003,0.0,0.0,0.0,0.0
12.3,252.46462080000003,-0.650748,0.9759696,0.3834384,0.0,0.0,0.0,0.0
12.32,252.35976960000002,-0.5964936000000001,0.9217152000000001,0.3834384,0.0,0.0,0.0,0.0
12.34,252.29027520000002,-0.5964936000000001,0.9217152000000001,0.3834384,0.0,0.0,0.0,0.0
12.36,252.18603360000003,-0.5964936000000001,1.2469368,0.8433816000000001,0.0,0.0,0.0,0.0
12.379999999999999,251.97297840000002,-0.5964936000000001,0.9217152000000001,0.8433816000000001,0.0,0.0,0.0,0.0
12.4,251.81692080000002,-0.5422392,0.8674608,0.6135624,0.0,0.0,0.0,0.0
12.42,251.66574,-0.5422392,0.8674608,0.7668768,0.0,0.0,0.0,0.0
12.440000000000001,251.5871016,-0.650748,0.8674608,0.6900672,0.0,0.0,0.0,0.0
12.46,251.38044720000002,-0.650748,0.7589520000000001,0.6135624,0.0,0.0,0.0,0.0
12.48,251.20640640000002,-0.7046976,0.7046976,0.7668768,0.0,0.0,0.0,0.0
12.5,251.01042,-0.5964936000000001,0.7046976,0.7668768,0.0,0.0,0.0,0.0
12.52,250.7333568,-0.5964936000000001,0.7046976,0.7668768,0.0,0.0,0.0,0.0
12.54,250.49713680000002,-0.650748,0.5422392,0.8433816000000001,0.0,0.0,0.0,0.0
12.559999999999999,250.2539064,-0.7046976,0.4879848,0.8433816000000001,0.0,0.0,0.0,0.0
12.579999999999998,250.03658400000003,-0.650748,0.4337304,0.8433816000000001,0.0,0.0,0.0,0.0
12.600000000000001,249.91374960000002,-0.650748,0.4337304,0.8433816000000001,0.0,0.0,0.0,0.0
12.620000000000001,249.78390480000002,-0.650748,0.3252216,0.7668768,0.0,0.0,0.0,0.0
12.64,249.4952592,-0.7589520000000001,0.4337304,0.9201912000000001,0.0,0.0,0.0,0.0
12.66,249.3489552,-0.650748,0.2170176,0.6900672,0.0,0.0,0.0,0.0
12.68,249.2587344,-0.7046976,0.2709672,0.7668768,0.0,0.0,0.0,0.0
12.7,249.09810480000002,-0.650748,0.2170176,0.6135624,0.0,0.0,0.0,0.0
12.719999999999999,248.940828,-0.5422392,0.2170176,0.6900672,0.0,0.0,0.0,0.0
12.739999999999998,248.7052176,-0.650748,0.2170176,0.5367528,0.0,0.0,0.0,0.0
12.760000000000002,248.39096880000002,-0.5964936000000001,0.2709672,0.30662880000000003,0.0,0.0,0.0,0.0
12.780000000000001,248.1806568,-0.5964936000000001,0.16276320000000002,0.4599432,0.0,0.0,0.0,0.0
12.8,247.9925952,-0.5422392,0.1085088,0.4599432,0.0,0.0,0.0,0.0
12.82,247.7777112,-0.5964936000000001,0.16276320000000002,0.30662880000000003,0.0,0.0,0.0,0.0
12.84,247.5314328,-0.5964936000000001,0.16276320000000002,0.30662880000000003,0.0,0.0,0.0,0.0
12.86,247.33148400000002,-0.5964936000000001,0.16276320000000002,0.3834384,0.0,0.0,0.0,0.0
12.879999999999999,247.1388504,-0.5422392,0.1085088,0.23012400000000002,0.0,0.0,0.0,0.0
12.899999999999999,246.9492648,-0.5964936000000001,0.16276320000000002,0.30662880000000003,0.0,0.0,0.0,0.0
12.920000000000002,246.79991280000002,-0.4879848,0.16276320000000002,0.23012400000000002,0.0,0.0,0.0,0.0
12.940000000000001,246.62373840000004,-0.5964936000000001,0.16276320000000002,0.30662880000000003,0.0,0.0,0.0,0.0
12.96,246.37380240000002,-0.5964936000000001,0.16276320000000002,0.23012400000000002,0.0,0.0,0.0,0.0
12.98,246.1025304,-0.4879848,0.16276320000000002,0.15331440000000002,0.0,0.0,0.0,0.0
13.0,245.85411840000003,-0.5964936000000001,0.16276320000000002,0.15331440000000002,0.0,0.0,0.0,0.0
13.02,245.56394880000002,-0.4879848,0.16276320000000002,0.3834384,0.0,0.0,0.0,0.0
13.04,245.27896080000002,-0.5422392,0.1085088,0.30662880000000003,0.0,0.0,0.0,0.0
13.059999999999999,244.98513360000004,-0.4337304,0.2170176,0.30662880000000003,0.0,0.0,0.0,0.0
13.079999999999998,244.58218800000003,-0.2170176,0.2170176,0.3834384,0.0,0.0,0.0,0.0
13.100000000000001,244.32585120000002,-0.4337304,0.2170176,0.30662880000000003,0.0,0.0,0.0,0.0
13.120000000000001,244.1304744,-0.2709672,0.37947600000000004,0.6135624,0.0,0.0,0.0,0.0
13.14,243.76349520000002,-0.37947600000000004,0.2709672,0.5367528,0.0,0.0,0.0,0.0
13.16,243.48795600000003,-0.3252216,0.3252216,0.4599432,0.0,0.0,0.0,0.0
13.18,243.1249392,-0.2170176,0.3252216,0.3834384,0.0,0.0,0.0,0.0
13.2,242.83568400000001,-0.0542544,0.37947600000000004,0.30662880000000003,0.0,0.0,0.0,0.0
13.219999999999999,242.5698984,0.0542544,0.2709672,0.4599432,0.0,0.0,0.0,0.0
13.239999999999998,242.25961200000003,-0.1085088,0.4337304,0.5367528,0.0,0.0,0.0,0.0
13.260000000000002,241.99047360000003,0.0542544,0.4879848,0.3834384,0.0,0.0,0.0,0.0
13.280000000000001,241.640868,0.0542544,0.4879848,0.30662880000000003,0.0,0.0,0.0,0.0
13.3,241.41287760000003,0.0542544,0.4879848,0.5367528,0.0,0.0,0.0,0.0
13.32,241.15105440000002,0.1085088,0.4337304,0.4599432,0.0,0.0,0.0,0.0
13.34,240.90447120000002,0.0,0.5422392,0.3834384,0.0,0.0,0.0,0.0
13.36,240.64203840000002,0.0542544,0.5964936000000001,0.15331440000000002,0.0,0.0,0.0,0.0
13.379999999999999,240.35217360000001,0.0542544,0.4879848,0.5367528,0.0,0.0,0.0,0.0
13.399999999999999,239.9906808,0.0542544,0.5964936000000001,0.3834384,0.0,0.0,0.0,0.0
13.420000000000002,239.67643200000003,0.0,0.650748,0.5367528,0.0,0.0,0.0,0.0
13.440000000000001,239.39936880000002,0.0,0.650748,0.4599432,0.0,0.0,0.0,0.0
13.46,239.0046528,-0.0542544,0.5964936000000001,0.4599432,0.0,0.0,0.0,0.0
13.48,238.6727256,-0.0542544,0.7046976,0.6135624,0.0,0.0,0.0,0.0
13.5,238.3935288,0.0,0.7589520000000001,0.5367528,0.0,0.0,0.0,0.0
13.52,238.07196480000002,-0.1085088,0.650748,0.3834384,0.0,0.0,0.0,0.0
13.54,237.5727024,-0.16276320000000002,0.5964936000000001,0.5367528,0.0,0.0,0.0,0.0
13.559999999999999,237.19231200000002,-0.2170176,0.5422392,0.6135624,0.0,0.0,0.0,0.0
13.579999999999998,236.71377600000002,-0.37947600000000004,0.7046976,0.4599432,0.0,0.0,0.0,0.0
13.600000000000001,236.31387840000002,-0.2170176,0.5422392,0.3834384,0.0,0.0,0.0,0.0
13.620000000000001,235.91001840000004,-0.37947600000000004,0.7046976,0.3834384,0.0,0.0,0.0,0.0
13.64,235.5025008,-0.5964936000000001,0.5964936000000001,0.30662880000000003,0.0,0.0,0.0,0.0
13.66,235.09864080000003,-0.5964936000000001,0.5964936000000001,0.15331440000000002,0.0,0.0,0.0,0.0
13.68,234.60760800000003,-0.5964936000000001,0.4879848,0.4599432,0.0,0.0,0.0,0.0
13.7,234.14583600000003,-0.650748,0.4337304,0.3834384,0.0,0.0,0.0,0.0
13.719999999999999,233.77276080000001,-0.7589520000000001,0.5422392,0.15331440000000002,0.0,0.0,0.0,0.0
13.739999999999998,233.40212400000001,-0.7589520000000001,0.4337304,0.23012400000000002,0.0,0.0,0.0,0.0
13.760000000000002,232.9491912,-0.5964936000000001,0.37947600000000004,0.3834384,0.0,0.0,0.0,0.0
13.780000000000001,232.5114984,-0.7589520000000001,0.3252216,0.6135624,0.0,0.0,0.0,0.0
13.8,232.05064080000002,-0.7589520000000001,0.4337304,0.6135624,0.0,0.0,0.0,0.0
13.82,231.65562,-0.7046976,0.4879848,0.30662880000000003,0.0,0.0,0.0,0.0
13.84,231.31454880000004,-0.8132064000000001,0.37947600000000004,0.30662880000000003,0.0,0.0,0.0,0.0
13.86,230.94025440000001,-0.4879848,0.37947600000000004,0.6900672,0.0,0.0,0.0,0.0
13.879999999999999,230.4321528,-0.5964936000000001,0.37947600000000004,0.6135624,0.0,0.0,0.0,0.0
13.899999999999999,229.98562080000002,-0.4879848,0.2709672,0.6900672,0.0,0.0,0.0,0.0
13.920000000000002,229.55615760000003,-0.5422392,0.3252216,0.5367528,0.0,0.0,0.0,0.0
13.940000000000001,229.16418480000002,-0.4879848,0.4879848,0.5367528,0.0,0.0,0.0,0.0
13.96,228.724968,-0.4337304,0.3252216,0.9201912000000001,0.0,0.0,0.0,0.0
13.98,228.2766072,-0.37947600000000004,0.2709672,0.8433816000000001,0.0,0.0,0.0,0.0
14.0,227.91633360000003,-0.37947600000000004,0.37947600000000004,0.8433816000000001,0.0,0.0,0.0,0.0
14.02,227.60726640000001,-0.3252216,0.4337304,0.9201912000000001,0.0,0.0,0.0,0.0
14.04,227.1586008,-0.16276320000000002,0.4879848,0.7668768,0.0,0.0,0.0,0.0
14.059999999999999,226.67823600000003,-0.3252216,0.4337304,0.7668768,0.0,0.0,0.0,0.0
14.079999999999998,226.1942136,-0.2170176,0.4337304,0.996696,0.0,0.0,0.0,0.0
14.100000000000001,225.8113848,-0.1085088,0.5422392,0.9201912000000001,0.0,0.0,0.0,0.0
14.120000000000001,225.34046880000002,-0.3252216,0.4337304,0.7668768,0.0,0.0,0.0,0.0
14.14,224.85979920000003,-0.16276320000000002,0.5964936000000001,0.9201912000000001,0.0,0.0,0.0,0.0
14.16,224.38827360000002,-0.37947600000000004,0.4879848,0.9201912000000001,0.0,0.0,0.0,0.0
14.18,223.81494480000003,-0.4337304,0.3252216,0.8433816000000001,0.0,0.0,0.0,0.0
14.2,223.3729848,-0.37947600000000004,0.37947600000000004,0.8433816000000001,0.0,0.0,0.0,0.0
14.219999999999999,222.9953376,-0.37947600000000004,0.5964936000000001,0.996696,0.0,0.0,0.0,0.0
14.239999999999998,222.46163280000002,-0.4879848,0.5964936000000001,0.6135624,0.0,0.0,0.0,0.0
14.260000000000002,221.91604080000002,-0.4337304,0.650748,0.8433816000000001,0.0,0.0,0.0,0.0
14.280000000000001,221.41190160000002,-0.37947600000000004,0.8132064000000001,0.8433816000000001,0.0,0.0,0.0,0.0
14.3,220.9498248,-0.37947600000000004,0.7046976,0.996696,0.0,0.0,0.0,0.0
14.32,220.399356,-0.37947600000000004,0.8132064000000001,0.8433816000000001,0.0,0.0,0.0,0.0
14.34,219.9074088,-0.7046976,0.9217152000000001,0.5367528,0.0,0.0,0.0,0.0
14.36,219.35572080000003,-0.4879848,0.7046976,0.7668768,0.0,0.0,0.0,0.0
14.379999999999999,218.8101288,-0.5422392,0.5422392,0.8433816000000001,0.0,0.0,0.0,0.0
14.399999999999999,218.2620984,-0.7046976,0.9217152000000001,0.7668768,0.0,0.0,0.0,0.0
14.420000000000002,217.704924,-0.8674608,0.650748,0.6900672,0.0,0.0,0.0,0.0
14.440000000000001,217.19133600000004,-0.5422392,0.4337304,1.0735056,0.0,0.0,0.0,0.0
14.46,216.7124952,-0.8674608,0.5422392,0.996696,0.0,0.0,0.0,0.0
14.48,216.2976624,-0.8674608,0.650748,1.0735056,0.0,0.0,0.0,0.0
14.5,215.8267464,-0.5964936000000001,0.37947600000000004,1.1500104,0.0,0.0,0.0,0.0
14.52,215.45367120000003,-0.7046976,0.5964936000000001,1.2268200000000002,0.0,0.0,0.0,0.0
14.54,214.98031680000003,-0.650748,0.4337304,1.3036296,0.0,0.0,0.0,0.0
14.559999999999999,214.6075464,-0.7589520000000001,0.4337304,0.996696,0.0,0.0,0.0,0.0
14.579999999999998,214.2082584,-0.5964936000000001,0.37947600000000004,1.3801344,0.0,0.0,0.0,0.0
14.600000000000001,213.6120696,-0.5964936000000001,0.37947600000000004,1.3036296,0.0,0.0,0.0,0.0
14.620000000000001,213.07806000000002,-0.3252216,0.4337304,1.6102584000000002,0.0,0.0,0.0,0.0
14.64,212.479128,-0.4337304,0.4337304,1.3036296,0.0,0.0,0.0,0.0
14.66,211.89177840000002,-0.37947600000000004,0.5964936000000001,1.4569440000000002,0.0,0.0,0.0,0.0
14.68,211.23584880000004,-0.5422392,0.4337304,1.5334488,0.0,0.0,0.0,0.0
14.7,210.6384408,-0.4337304,0.5422392,1.4569440000000002,0.0,0.0,0.0,0.0
