time,baro_altitude,accl_x,accl_y,accl_z,gps_altitude,gyro_roll,gyro_pitch,gyro_yaw
0.0,0.0,-10.4098344,-0.3252216,-3.3738312000000006,0.0,0.0,0.0,0.0
0.019999999999999574,0.103632,-10.4640888,-0.37947600000000004,-3.3738312000000006,0.0,0.0,0.0,0.0
0.040000000000000036,0.13167360000000003,-10.355580000000002,-0.37947600000000004,-3.2970216000000003,0.0,0.0,0.0,0.0
0.05999999999999961,0.1298448,-10.4098344,-0.3252216,-3.3738312000000006,0.0,0.0,0.0,0.0
0.08000000000000007,0.1865376,-10.355580000000002,-0.37947600000000004,-3.2970216000000003,0.0,0.0,0.0,0.0
0.09999999999999964,0.2075688,-10.355580000000002,-0.37947600000000004,-3.3738312000000006,0.0,0.0,0.0,0.0
0.1200000000000001,0.0713232,-10.4098344,-0.3252216,-3.3738312000000006,0.0,0.0,0.0,0.0
0.13999999999999968,-0.15605760000000002,-10.3013256,-0.5422392,-3.3738312000000006,0.0,0.0,0.0,0.0
0.16000000000000014,-0.04236720000000001,-10.4098344,-0.4337304,-3.2970216000000003,0.0,0.0,0.0,0.0
0.17999999999999972,0.01554479999999998,-10.4098344,-0.3252216,-3.3738312000000006,0.0,0.0,0.0,0.0
0.20000000000000018,-0.08503920000000001,-10.4640888,-0.2709672,-3.3738312000000006,0.0,0.0,0.0,0.0
0.21999999999999975,-0.13075920000000002,-10.4098344,-0.2170176,-3.3738312000000006,0.0,0.0,0.0,0.0
0.2400000000000002,-0.28133040000000004,-10.4098344,-0.3252216,-3.3738312000000006,0.0,0.0,0.0,0.0
0.2599999999999998,-0.24719280000000002,-10.355580000000002,-0.37947600000000004,-3.450336,0.0,0.0,0.0,0.0
0.28000000000000025,-0.1816608,-10.4098344,-0.4337304,-3.2205168000000004,0.0,0.0,0.0,0.0
0.2999999999999998,-0.1914144,-10.355580000000002,-0.37947600000000004,-3.2970216000000003,0.0,0.0,0.0,0.0
0.3200000000000003,-0.09692640000000001,-10.4098344,-0.4337304,-3.2970216000000003,0.0,0.0,0.0,0.0
0.33999999999999986,-0.0374904,-10.4640888,-0.4879848,-3.2970216000000003,0.0,0.0,0.0,0.0
0.3600000000000003,-0.02316480000000002,-10.4098344,-0.4337304,-3.2970216000000003,0.0,0.0,0.0,0.0
0.3799999999999999,0.019202399999999984,-10.4640888,-0.2709672,-3.3738312000000006,0.0,0.0,0.0,0.0
0.40000000000000036,-0.11277600000000002,-10.4098344,-0.3252216,-3.2970216000000003,0.0,0.0,0.0,0.0
0.41999999999999993,-0.16733520000000002,-10.3013256,-0.3252216,-3.3738312000000006,0.0,0.0,0.0,0.0
0.4400000000000004,-0.1932432,-10.4098344,-0.3252216,-3.3738312000000006,0.0,0.0,0.0,0.0
0.45999999999999996,-0.24444960000000002,-10.355580000000002,-0.4879848,-3.2970216000000003,0.0,0.0,0.0,0.0
0.48,-0.1353312,-10.3013256,-0.3252216,-3.3738312000000006,0.0,0.0,0.0,0.0
0.5,0.018592799999999982,-10.5725976,-0.37947600000000004,-3.3738312000000006,0.0,0.0,0.0,0.0
0.52,0.02499359999999999,-10.4640888,-0.37947600000000004,-3.2970216000000003,0.0,0.0,0.0,0.0
0.54,0.0762,-10.4098344,-0.4337304,-3.3738312000000006,0.0,0.0,0.0,0.0
0.56,0.064008,-10.4098344,-0.3252216,-3.3738312000000006,0.0,0.0,0.0,0.0
0.5800000000000001,-0.014325600000000013,-10.4640888,-0.2709672,-3.450336,0.0,0.0,0.0,0.0
0.6000000000000001,-0.11155680000000003,-10.4098344,-0.3252216,-3.2970216000000003,0.0,0.0,0.0,0.0
0.6200000000000001,-0.08991600000000001,-10.3013256,-0.3252216,-3.3738312000000006,0.0,0.0,0.0,0.0
0.6400000000000001,-0.007315200000000007,-10.3013256,-0.2170176,-3.3738312000000006,0.0,0.0,0.0,0.0
0.6600000000000001,-0.1395984,-10.4098344,-0.4337304,-3.3738312000000006,0.0,0.0,0.0,0.0
0.6800000000000002,-0.1298448,-10.4098344,-0.3252216,-3.2970216000000003,0.0,0.0,0.0,0.0
0.7000000000000002,-0.26730960000000004,-10.4098344,-0.3252216,-3.3738312000000006,0.0,0.0,0.0,0.0
0.7199999999999998,-0.307848,-10.4640888,-0.37947600000000004,-3.2970216000000003,0.0,0.0,0.0,0.0
0.7399999999999998,-0.31699200000000005,-10.4640888,-0.37947600000000004,-3.2970216000000003,0.0,0.0,0.0,0.0
0.7599999999999998,-0.254508,-10.355580000000002,-0.37947600000000004,-3.3738312000000006,0.0,0.0,0.0,0.0
0.7799999999999998,-0.10302240000000001,-10.4640888,-0.37947600000000004,-3.450336,0.0,0.0,0.0,0.0
0.7999999999999998,-0.1944624,-10.355580000000002,-0.37947600000000004,-3.2970216000000003,0.0,0.0,0.0,0.0
0.8199999999999998,-0.1834896,-10.355580000000002,-0.37947600000000004,-3.2970216000000003,0.0,0.0,0.0,0.0
0.8399999999999999,-0.20726400000000003,-10.355580000000002,-0.37947600000000004,-3.1437072,0.0,0.0,0.0,0.0
0.8599999999999999,-0.07741920000000001,-10.4098344,-0.4337304,-3.2205168000000004,0.0,0.0,0.0,0.0
0.8799999999999999,-0.20482560000000002,-10.355580000000002,-0.37947600000000004,-3.2970216000000003,0.0,0.0,0.0,0.0
0.8999999999999999,-0.20695920000000004,-10.4640888,-0.37947600000000004,-3.2205168000000004,0.0,0.0,0.0,0.0
0.9199999999999999,-0.28956,-10.3013256,-0.4337304,-3.2970216000000003,0.0,0.0,0.0,0.0
0.94,-0.2883408,-10.355580000000002,-0.4879848,-3.2970216000000003,0.0,0.0,0.0,0.0
0.96,-0.1530096,-10.4098344,-0.3252216,-3.3738312000000006,0.0,0.0,0.0,0.0
0.98,-0.22616160000000002,-10.4098344,-0.3252216,-3.3738312000000006,0.0,0.0,0.0,0.0
1.0,-0.23408640000000003,-10.4098344,-0.3252216,-3.2970216000000003,0.0,0.0,0.0,0.0
1.02,-0.2557272,-10.4640888,-0.2709672,-3.2970216000000003,0.0,0.0,0.0,0.0
1.04,-0.2569464,-10.355580000000002,-0.2709672,-3.3738312000000006,0.0,0.0,0.0,0.0
1.06,-0.30571440000000005,-10.4640888,-0.37947600000000004,-3.2970216000000003,0.0,0.0,0.0,0.0
1.08,-0.21092160000000004,-10.4640888,-0.37947600000000004,-3.2205168000000004,0.0,0.0,0.0,0.0
1.1,-0.1353312,-10.4098344,-0.3252216,-3.2205168000000004,0.0,0.0,0.0,0.0
1.12,-0.16002000000000002,-10.355580000000002,-0.4879848,-3.3738312000000006,0.0,0.0,0.0,0.0
1.1400000000000001,-0.2627376,-10.355580000000002,-0.4879848,-3.2970216000000003,0.0,0.0,0.0,0.0
1.1600000000000001,-0.1149096,-10.4098344,-0.2170176,-3.450336,0.0,0.0,0.0,0.0
1.1800000000000002,-0.1298448,-10.4098344,-0.3252216,-3.450336,0.0,0.0,0.0,0.0
1.2000000000000002,-0.225552,-10.4640888,-0.2709672,-3.3738312000000006,0.0,0.0,0.0,0.0
1.2199999999999998,-0.17129760000000002,-10.355580000000002,-0.37947600000000004,-3.3738312000000006,0.0,0.0,0.0,0.0
1.2399999999999998,-0.24384000000000003,-10.4098344,-0.3252216,-3.450336,0.0,0.0,0.0,0.0
1.2599999999999998,-0.30114240000000003,-10.4098344,-0.3252216,-3.2205168000000004,0.0,0.0,0.0,0.0
1.2799999999999998,-0.21427440000000003,-10.4098344,-0.3252216,-3.2970216000000003,0.0,0.0,0.0,0.0
1.2999999999999998,-0.24231600000000003,-10.4098344,-0.3252216,-3.2970216000000003,0.0,0.0,0.0,0.0
1.3199999999999998,-0.34594800000000003,-10.4098344,-0.3252216,-3.3738312000000006,0.0,0.0,0.0,0.0
1.3399999999999999,-0.2624328,-10.355580000000002,-0.37947600000000004,-3.3738312000000006,0.0,0.0,0.0,0.0
1.3599999999999999,-0.29230320000000004,-10.4098344,-0.3252216,-3.3738312000000006,0.0,0.0,0.0,0.0
1.38,-0.33040320000000006,-10.355580000000002,-0.2709672,-3.2970216000000003,0.0,0.0,0.0,0.0
1.4,-0.34290000000000004,-10.355580000000002,-0.37947600000000004,-3.3738312000000006,0.0,0.0,0.0,0.0
1.42,-0.12100560000000002,-10.355580000000002,-0.37947600000000004,-3.2970216000000003,0.0,0.0,0.0,0.0
1.44,-0.06187440000000001,-10.4098344,-0.3252216,-3.2970216000000003,0.0,0.0,0.0,0.0
1.46,-0.1496568,-10.4098344,-0.4337304,-3.2205168000000004,0.0,0.0,0.0,0.0
1.48,-0.12405360000000001,-10.4098344,-0.4337304,-3.2970216000000003,0.0,0.0,0.0,0.0
1.5,-0.07223760000000001,-10.4640888,-0.2709672,-3.2205168000000004,0.0,0.0,0.0,0.0
1.52,-0.08412480000000001,-10.4640888,-0.37947600000000004,-3.3738312000000006,0.0,0.0,0.0,0.0
1.54,-0.014020800000000014,-10.4098344,-0.3252216,-3.2970216000000003,0.0,0.0,0.0,0.0
1.56,-0.027127200000000025,-10.4098344,-0.2170176,-3.3738312000000006,0.0,0.0,0.0,0.0
1.58,-0.05852160000000001,-10.355580000000002,-0.37947600000000004,-3.2970216000000003,0.0,0.0,0.0,0.0
1.6,-0.004572000000000004,-10.4098344,-0.3252216,-3.2970216000000003,0.0,0.0,0.0,0.0
1.62,-0.04754880000000001,-10.355580000000002,-0.37947600000000004,-3.2970216000000003,0.0,0.0,0.0,0.0
1.6400000000000001,-0.017678400000000018,-10.4640888,-0.37947600000000004,-3.2970216000000003,0.0,0.0,0.0,0.0
1.6600000000000001,-0.11186160000000002,-10.4098344,-0.3252216,-3.2205168000000004,0.0,0.0,0.0,0.0
1.6800000000000002,-0.33497520000000003,-10.4640888,-0.37947600000000004,-3.3738312000000006,0.0,0.0,0.0,0.0
1.7000000000000002,-0.37673280000000003,-10.4640888,-0.2709672,-3.3738312000000006,0.0,0.0,0.0,0.0
1.7199999999999998,-0.6166104000000001,-10.4098344,-0.3252216,-3.3738312000000006,0.0,0.0,0.0,0.0
1.7399999999999998,-0.5038344,-10.4098344,-0.4337304,-3.450336,0.0,0.0,0.0,0.0
1.7599999999999998,-0.6345936,-10.355580000000002,-0.37947600000000004,-3.450336,0.0,0.0,0.0,0.0
1.7799999999999998,-0.40020240000000007,-10.3013256,-0.4337304,-3.3738312000000006,0.0,0.0,0.0,0.0
1.7999999999999998,-0.30571440000000005,-10.355580000000002,-0.2709672,-3.2970216000000003,0.0,0.0,0.0,0.0
1.8199999999999998,-0.24505920000000003,-10.4640888,-0.37947600000000004,-3.2205168000000004,0.0,0.0,0.0,0.0
1.8399999999999999,-0.22860000000000003,-10.355580000000002,-0.37947600000000004,-3.3738312000000006,0.0,0.0,0.0,0.0
1.8599999999999999,-0.1499616,-10.4640888,-0.4879848,-3.2970216000000003,0.0,0.0,0.0,0.0
1.88,-0.09204960000000002,-10.4098344,-0.3252216,-3.3738312000000006,0.0,0.0,0.0,0.0
1.9,0.1146048,-10.4098344,-0.3252216,-3.3738312000000006,0.0,0.0,0.0,0.0
1.92,0.00975360000000001,-10.355580000000002,-0.37947600000000004,-3.3738312000000006,0.0,0.0,0.0,0.0
1.94,-0.0316992,-10.3013256,-0.4337304,-3.2970216000000003,0.0,0.0,0.0,0.0
1.96,-0.0371856,-10.4640888,-0.2709672,-3.3738312000000006,0.0,0.0,0.0,0.0
1.98,0.08473440000000002,-10.4098344,-0.4337304,-3.450336,0.0,0.0,0.0,0.0
2.0,0.011887199999999978,-10.3013256,-0.3252216,-3.3738312000000006,0.0,0.0,0.0,0.0
2.02,0.013715999999999978,-10.4098344,-0.3252216,-3.2970216000000003,0.0,0.0,0.0,0.0
2.04,-0.05486400000000002,-10.355580000000002,-0.37947600000000004,-3.2970216000000003,0.0,0.0,0.0,0.0
2.06,0.05273039999999998,-10.4098344,-0.3252216,-3.3738312000000006,0.0,0.0,0.0,0.0
2.08,0.004267200000000004,-10.4098344,-0.3252216,-3.2970216000000003,0.0,0.0,0.0,0.0
2.1,-0.08595360000000002,-10.3013256,-0.4337304,-3.3738312000000006,0.0,0.0,0.0,0.0
2.12,-0.192024,-10.4098344,-0.4337304,-3.2970216000000003,0.0,0.0,0.0,0.0
2.14,-0.20909280000000002,-10.4098344,-0.4337304,-3.2970216000000003,0.0,0.0,0.0,0.0
2.16,-0.3496056,-10.3013256,-0.3252216,-3.2970216000000003,0.0,0.0,0.0,0.0
2.18,-0.39044880000000004,-10.355580000000002,-0.2709672,-3.450336,0.0,0.0,0.0,0.0
2.2,-0.1524,-10.355580000000002,-0.37947600000000004,-3.450336,0.0,0.0,0.0,0.0
2.2199999999999998,-0.12496800000000001,-10.4098344,-0.3252216,-3.3738312000000006,0.0,0.0,0.0,0.0
2.2399999999999998,-0.036576,-10.5183432,-0.3252216,-3.2970216000000003,0.0,0.0,0.0,0.0
2.26,0.0996696,-10.4640888,-0.4879848,-3.2205168000000004,0.0,0.0,0.0,0.0
2.28,0.08808719999999998,-10.4098344,-0.4337304,-3.3738312000000006,0.0,0.0,0.0,0.0
2.3,0.041757600000000006,-10.355580000000002,-0.37947600000000004,-3.450336,0.0,0.0,0.0,0.0
2.32,-0.031394399999999996,-10.355580000000002,-0.37947600000000004,-3.3738312000000006,0.0,0.0,0.0,0.0
2.34,-0.12435840000000002,-10.355580000000002,-0.37947600000000004,-3.2970216000000003,0.0,0.0,0.0,0.0
2.36,-0.06583680000000001,-10.4098344,-0.3252216,-3.2970216000000003,0.0,0.0,0.0,0.0
2.38,-0.20025360000000003,-10.355580000000002,-0.37947600000000004,-3.2970216000000003,0.0,0.0,0.0,0.0
2.4,-0.15727680000000002,-10.355580000000002,-0.37947600000000004,-3.2970216000000003,0.0,0.0,0.0,0.0
2.42,-0.23561040000000003,-10.5183432,-0.3252216,-3.2970216000000003,0.0,0.0,0.0,0.0
2.44,-0.2279904,-10.355580000000002,-0.37947600000000004,-3.3738312000000006,0.0,0.0,0.0,0.0
2.46,-0.20360640000000002,-10.4098344,-0.3252216,-3.3738312000000006,0.0,0.0,0.0,0.0
2.48,-0.19781520000000002,-10.4098344,-0.3252216,-3.3738312000000006,0.0,0.0,0.0,0.0
2.5,-0.37155119999999997,-10.4640888,-0.2709672,-3.2970216000000003,0.0,0.0,0.0,0.0
2.52,-0.45476160000000004,-10.355580000000002,-0.37947600000000004,-3.3738312000000006,0.0,0.0,0.0,0.0
2.54,-0.3355848,-10.4640888,-0.37947600000000004,-3.2205168000000004,0.0,0.0,0.0,0.0
2.56,-0.1374648,-10.4640888,-0.2709672,-3.2970216000000003,0.0,0.0,0.0,0.0
2.58,-0.20909280000000002,-10.5183432,-0.3252216,-3.2970216000000003,0.0,0.0,0.0,0.0
2.5999999999999996,-0.1999488,-10.4098344,-0.3252216,-3.2205168000000004,0.0,0.0,0.0,0.0
2.62,-0.19354800000000003,-10.4640888,-0.2709672,-3.2970216000000003,0.0,0.0,0.0,0.0
2.6399999999999997,-0.2526792,-10.4640888,-0.37947600000000004,-3.3738312000000006,0.0,0.0,0.0,0.0
2.66,-0.08564880000000001,-10.4640888,-0.37947600000000004,-3.2970216000000003,0.0,0.0,0.0,0.0
2.6799999999999997,-0.2685288,-10.3013256,-0.4337304,-3.3738312000000006,0.0,0.0,0.0,0.0
2.7,-0.1502664,-10.4098344,-0.3252216,-3.3738312000000006,0.0,0.0,0.0,0.0
2.7199999999999998,-0.15605760000000002,-10.4640888,-0.37947600000000004,-3.3738312000000006,0.0,0.0,0.0,0.0
2.74,-0.19537680000000002,-10.4098344,-0.4337304,-3.2970216000000003,0.0,0.0,0.0,0.0
2.76,-0.1944624,-10.5725976,-0.37947600000000004,-3.2970216000000003,0.0,0.0,0.0,0.0
2.7800000000000002,-0.11247120000000002,-10.4098344,-0.3252216,-3.2970216000000003,0.0,0.0,0.0,0.0
2.8,-0.08229600000000001,-10.3013256,-0.3252216,-3.2970216000000003,0.0,0.0,0.0,0.0
2.8200000000000003,-0.027127200000000025,-10.5725976,-0.37947600000000004,-3.1437072,0.0,0.0,0.0,0.0
2.84,0.1755648,-10.4640888,-0.37947600000000004,-3.3738312000000006,0.0,0.0,0.0,0.0
2.86,0.0353568,-10.4098344,-0.4337304,-3.2970216000000003,0.0,0.0,0.0,0.0
2.88,-0.015849600000000016,-10.355580000000002,-0.37947600000000004,-3.3738312000000006,0.0,0.0,0.0,0.0
2.9,-0.06096000000000001,-10.4098344,-0.3252216,-3.450336,0.0,0.0,0.0,0.0
2.92,-0.13136880000000004,-10.5725976,-0.37947600000000004,-3.3738312000000006,0.0,0.0,0.0,0.0
2.94,-0.07284720000000001,-10.4640888,-0.37947600000000004,-3.2970216000000003,0.0,0.0,0.0,0.0
2.96,-0.041757600000000006,-10.355580000000002,-0.2709672,-3.3738312000000006,0.0,0.0,0.0,0.0
2.98,-0.05120640000000001,-10.355580000000002,-0.2709672,-3.3738312000000006,0.0,0.0,0.0,0.0
3.0,-0.12496800000000001,-10.4098344,-0.4337304,-3.2970216000000003,0.0,0.0,0.0,0.0
3.02,-0.24902160000000004,-10.5183432,-0.3252216,-3.3738312000000006,0.0,0.0,0.0,0.0
3.04,-0.18044160000000004,-10.4640888,-0.2709672,-3.3738312000000006,0.0,0.0,0.0,0.0
3.06,-0.1880616,-10.4098344,-0.3252216,-3.2970216000000003,0.0,0.0,0.0,0.0
3.08,-0.24170640000000002,-10.5183432,-0.3252216,-3.2970216000000003,0.0,0.0,0.0,0.0
3.0999999999999996,-0.3136392,-10.355580000000002,-0.37947600000000004,-3.3738312000000006,0.0,0.0,0.0,0.0
3.12,-0.36545520000000004,-10.4640888,-0.2709672,-3.2970216000000003,0.0,0.0,0.0,0.0
3.1399999999999997,-0.17221200000000003,-10.355580000000002,-0.37947600000000004,-3.2970216000000003,0.0,0.0,0.0,0.0
3.16,-0.16459200000000002,-10.4098344,-0.4337304,-3.2970216000000003,0.0,0.0,0.0,0.0
3.1799999999999997,-0.1905,-10.4640888,-0.2709672,-3.3738312000000006,0.0,0.0,0.0,0.0
3.2,-0.1286256,-10.4098344,-0.3252216,-3.2970216000000003,0.0,0.0,0.0,0.0
3.2199999999999998,-0.1932432,-10.5183432,-0.4337304,-3.2970216000000003,0.0,0.0,0.0,0.0
3.24,-0.3422904,-10.355580000000002,-0.2709672,-3.2970216000000003,0.0,0.0,0.0,0.0
3.26,-0.361188,-10.355580000000002,-0.37947600000000004,-3.2970216000000003,0.0,0.0,0.0,0.0
3.2800000000000002,-0.25542240000000005,-10.4098344,-0.3252216,-3.2970216000000003,0.0,0.0,0.0,0.0
3.3,-0.1216152,-10.3013256,-0.3252216,-3.450336,0.0,0.0,0.0,0.0
3.3200000000000003,0.0006096000000000006,-10.355580000000002,-0.37947600000000004,-3.450336,0.0,0.0,0.0,0.0
3.34,-0.005486400000000005,-10.4098344,-0.3252216,-3.3738312000000006,0.0,0.0,0.0,0.0
3.36,-0.014630400000000014,-10.4098344,-0.3252216,-3.2970216000000003,0.0,0.0,0.0,0.0
3.38,-0.1901952,-10.4098344,-0.3252216,-3.2970216000000003,0.0,0.0,0.0,0.0
3.4,-0.31455360000000004,-10.355580000000002,-0.37947600000000004,-3.2970216000000003,0.0,0.0,0.0,0.0
3.42,-0.1487424,-10.4640888,-0.2709672,-3.2970216000000003,0.0,0.0,0.0,0.0
3.44,-0.21366480000000004,-10.4640888,-0.2709672,-3.3738312000000006,0.0,0.0,0.0,0.0
3.46,-0.06918960000000002,-10.355580000000002,-0.37947600000000004,-3.3738312000000006,0.0,0.0,0.0,0.0
3.48,-0.10302240000000001,-10.4640888,-0.2709672,-3.3738312000000006,0.0,0.0,0.0,0.0
3.5,-0.049682400000000015,-10.3013256,-0.4337304,-3.2970216000000003,0.0,0.0,0.0,0.0
3.52,-0.17343120000000004,-10.355580000000002,-0.4879848,-3.2970216000000003,0.0,0.0,0.0,0.0
3.54,-0.2721864,-10.4640888,-0.37947600000000004,-3.2205168000000004,0.0,0.0,0.0,0.0
3.56,-0.21793200000000004,-10.4098344,-0.3252216,-3.2970216000000003,0.0,0.0,0.0,0.0
3.58,-0.2877312,-10.4098344,-0.2170176,-3.3738312000000006,0.0,0.0,0.0,0.0
3.6,-0.029565599999999994,-10.4098344,-0.4337304,-3.2970216000000003,0.0,0.0,0.0,0.0
3.62,-0.07132320000000002,-10.4640888,-0.37947600000000004,-3.450336,0.0,0.0,0.0,0.0
3.64,0.02590799999999999,-10.355580000000002,-0.4879848,-3.450336,0.0,0.0,0.0,0.0
3.66,-0.1807464,-10.4640888,-0.37947600000000004,-3.3738312000000006,0.0,0.0,0.0,0.0
3.6799999999999997,-0.31242,-10.3013256,-0.3252216,-3.2970216000000003,0.0,0.0,0.0,0.0
3.7,-0.332232,-10.4098344,-0.4337304,-3.3738312000000006,0.0,0.0,0.0,0.0
3.7199999999999998,-0.24536400000000003,-10.355580000000002,-0.37947600000000004,-3.2205168000000004,0.0,0.0,0.0,0.0
3.74,-0.1905,-10.4098344,-0.4337304,-3.2205168000000004,0.0,0.0,0.0,0.0
3.76,-0.1621536,-10.355580000000002,-0.37947600000000004,-3.2970216000000003,0.0,0.0,0.0,0.0
3.78,-0.18836640000000002,-10.355580000000002,-0.37947600000000004,-3.3738312000000006,0.0,0.0,0.0,0.0
3.8,-0.11003280000000001,-10.355580000000002,-0.37947600000000004,-3.2205168000000004,0.0,0.0,0.0,0.0
3.82,-0.1149096,-10.355580000000002,-0.37947600000000004,-3.3738312000000006,0.0,0.0,0.0,0.0
3.84,-0.23469600000000002,-10.4098344,-0.4337304,-3.2970216000000003,0.0,0.0,0.0,0.0
3.86,-0.39532560000000005,-10.4098344,-0.3252216,-3.2970216000000003,0.0,0.0,0.0,0.0
3.88,-0.4529328,-10.355580000000002,-0.37947600000000004,-3.1437072,0.0,0.0,0.0,0.0
3.9,-0.3462528,-10.4098344,-0.4337304,-3.3738312000000006,0.0,0.0,0.0,0.0
3.92,-0.25786080000000006,-10.4640888,-0.37947600000000004,-3.2970216000000003,0.0,0.0,0.0,0.0
3.94,-0.2670048,-10.355580000000002,-0.37947600000000004,-3.3738312000000006,0.0,0.0,0.0,0.0
3.96,-0.3060192,-10.4098344,-0.3252216,-3.450336,0.0,0.0,0.0,0.0
3.98,-0.288036,-10.4640888,-0.2709672,-3.3738312000000006,0.0,0.0,0.0,0.0
4.0,-0.3861816,-10.4640888,-0.37947600000000004,-3.2970216000000003,0.0,0.0,0.0,0.0
4.02,-0.381,-10.4640888,-0.37947600000000004,-3.3738312000000006,0.0,0.0,0.0,0.0
4.04,-0.2764536,-10.4098344,-0.3252216,-3.450336,0.0,0.0,0.0,0.0
4.06,-0.22494240000000001,-10.4098344,-0.3252216,-3.2970216000000003,0.0,0.0,0.0,0.0
4.08,-0.2657856,-10.355580000000002,-0.37947600000000004,-3.450336,0.0,0.0,0.0,0.0
4.1,-0.1840992,-10.4098344,-0.4337304,-3.3738312000000006,0.0,0.0,0.0,0.0
4.12,-0.2212848,-10.4098344,-0.4337304,-3.450336,0.0,0.0,0.0,0.0
4.14,-0.318516,-10.355580000000002,-0.2709672,-3.2970216000000003,0.0,0.0,0.0,0.0
4.16,-0.24566880000000002,-10.3013256,-0.3252216,-3.3738312000000006,0.0,0.0,0.0,0.0
4.18,-0.2883408,-10.4640888,-0.2709672,-3.2205168000000004,0.0,0.0,0.0,0.0
4.2,-0.17495520000000003,-10.5725976,-0.16276320000000002,-3.3738312000000006,0.0,0.0,0.0,0.0
4.22,-0.21732240000000003,-10.4098344,-0.3252216,-3.2970216000000003,0.0,0.0,0.0,0.0
4.24,-0.13898880000000002,-10.247376,-0.37947600000000004,-3.3738312000000006,0.0,0.0,0.0,0.0
4.26,0.019507199999999985,-10.3013256,-0.3252216,-3.450336,0.0,0.0,0.0,0.0
4.28,0.12374880000000002,-10.5725976,-0.2709672,-3.3738312000000006,0.0,0.0,0.0,0.0
4.3,-0.06370320000000002,-10.355580000000002,-0.37947600000000004,-3.2970216000000003,0.0,0.0,0.0,0.0
4.32,-0.08686800000000001,-10.247376,-0.37947600000000004,-3.2205168000000004,0.0,0.0,0.0,0.0
4.34,-0.1566672,-10.4098344,-0.3252216,-3.2970216000000003,0.0,0.0,0.0,0.0
4.36,-0.27858720000000003,-10.4098344,-0.3252216,-3.2205168000000004,0.0,0.0,0.0,0.0
4.38,-0.3087624,-10.843564800000001,-0.4337304,-3.3738312000000006,0.0,0.0,0.0,0.0
4.4,-0.1819656,-10.4098344,-0.2170176,-3.2970216000000003,0.0,0.0,0.0,0.0
4.42,-0.3755136,-10.4640888,-0.2709672,-3.2970216000000003,0.0,0.0,0.0,0.0
4.44,-0.3438144000000001,-10.4640888,-0.37947600000000004,-3.2205168000000004,0.0,0.0,0.0,0.0
4.46,-0.16794480000000003,-10.5183432,-0.3252216,-3.450336,0.0,0.0,0.0,0.0
4.4799999999999995,-0.11003280000000001,-10.4098344,-0.3252216,-3.3738312000000006,0.0,0.0,0.0,0.0
4.5,-0.11430000000000001,-10.789310400000002,-0.2709672,-3.3738312000000006,0.0,0.0,0.0,0.0
4.52,-0.005181600000000005,-10.355580000000002,-0.37947600000000004,-3.2970216000000003,0.0,0.0,0.0,0.0
4.54,-0.10180320000000001,-34.9709232,-8.186928,-9.6612456,0.0,0.0,0.0,0.0
4.56,-0.1146048,-213.7827576,0.7046976,-25.993344,0.0,0.0,0.0,0.0
4.58,-0.0591312,-77.3695176,-36.2721144,-26.913230400000003,0.0,0.0,0.0,0.0
4.6,0.0804672,-98.24344080000002,-23.856086400000002,-22.1595696,0.0,0.0,0.0,0.0
4.62,0.0722376,-139.99159200000003,19.6269864,-14.951964,0.0,0.0,0.0,0.0
4.64,0.109728,-88.3758456,38.7117336,-5.597347200000001,0.0,0.0,0.0,0.0
4.66,-0.029260799999999993,-75.0923568,-25.753771200000003,-43.01550960000001,0.0,0.0,0.0,0.0
4.68,0.1688592,-50.151792,-16.319601600000002,32.5873872,0.0,0.0,0.0,0.0
4.7,0.4364736,-98.78568000000001,-29.061156,-58.964169600000005,0.0,0.0,0.0,0.0
4.72,0.6891527999999999,-114.0753624,-23.0971344,-16.178784,0.0,0.0,0.0,0.0
4.74,1.3008864,-119.4971448,-15.614904,-19.398996,0.0,0.0,0.0,0.0
4.76,1.63068,-118.358412,-15.235428,-16.6387272,0.0,0.0,0.0,0.0
4.78,1.9577304000000002,-115.430808,-18.054828,-25.763220000000004,0.0,0.0,0.0,0.0
4.8,2.4929592,-113.8040904,-17.9463192,-27.6801072,0.0,0.0,0.0,0.0
4.82,3.1007304,-109.7377536,-10.626852000000001,-14.491716000000002,0.0,0.0,0.0,0.0
4.84,3.7106352000000005,-104.42448000000002,-13.8799824,-9.967874400000001,0.0,0.0,0.0,0.0
4.86,4.2452544,-105.454704,-14.693188800000001,-13.418210400000001,0.0,0.0,0.0,0.0
4.88,5.073396,-102.47254080000002,-14.5304256,-23.846332800000003,0.0,0.0,0.0,0.0
4.9,5.634228,-100.19538000000001,-15.506395200000002,-27.603602400000003,0.0,0.0,0.0,0.0
4.92,6.4837055999999995,-99.76164960000001,-12.4702824,-17.942356800000002,0.0,0.0,0.0,0.0
4.9399999999999995,7.2908159999999995,-97.64725200000001,-10.5725976,-7.8208632,0.0,0.0,0.0,0.0
4.96,8.367064800000001,-98.026728,-13.012521600000001,-12.958267200000002,0.0,0.0,0.0,0.0
4.98,9.2174568,-94.55658000000001,-13.8799824,-23.30958,0.0,0.0,0.0,0.0
5.0,9.8810064,-96.07478880000001,-14.5304256,-24.3830856,0.0,0.0,0.0,0.0
5.02,10.9017816,-97.80971040000001,-13.554456,-12.651638400000001,0.0,0.0,0.0,0.0
5.04,11.9356632,-98.1352368,-11.277295200000001,-11.3480088,0.0,0.0,0.0,0.0
5.06,13.0366008,-91.08673680000001,-11.385804,-16.101974400000003,0.0,0.0,0.0,0.0
5.08,14.020495200000001,-92.5506912,-12.0908064,-19.5523104,0.0,0.0,0.0,0.0
5.1,15.0699216,-107.352084,-12.4702824,-21.5460072,0.0,0.0,0.0,0.0
5.12,16.5890448,-89.189052,-8.729167200000001,-15.1817832,0.0,0.0,0.0,0.0
5.14,18.011851200000002,-91.62897600000001,-7.156704,-13.341705600000001,0.0,0.0,0.0,0.0
5.16,19.296278400000002,-86.4239064,-9.7593912,-14.8751544,0.0,0.0,0.0,0.0
5.18,20.839785600000003,-87.779352,-10.789310400000002,-18.785738400000003,0.0,0.0,0.0,0.0
5.2,22.1994984,-86.58666960000001,-9.1628976,-21.5460072,0.0,0.0,0.0,0.0
5.22,23.586033600000004,-89.13479760000001,-9.4338648,-20.165872800000002,0.0,0.0,0.0,0.0
5.24,24.939650399999998,-78.18272400000001,-9.7593912,-12.1913904,0.0,0.0,0.0,0.0
5.26,26.179272,-83.550252,-7.753197600000001,-9.4311216,0.0,0.0,0.0,0.0
5.28,27.6069552,-83.821524,-8.7834216,-10.1979984,0.0,0.0,0.0,0.0
5.3,29.228491200000004,-78.2369784,-9.379915200000001,-15.335402400000001,0.0,0.0,0.0,0.0
5.32,30.751272,-81.4358544,-10.0846128,-19.629120000000004,0.0,0.0,0.0,0.0
5.34,32.502348000000005,-81.652872,-5.5302912,-12.2682,0.0,0.0,0.0,0.0
5.36,34.5743784,-76.8815328,-8.7834216,-11.501323200000002,0.0,0.0,0.0,0.0
5.38,36.3126528,-81.5986176,-7.970215200000001,-11.7314472,0.0,0.0,0.0,0.0
5.4,37.9744224,-75.25512,-8.566404,-11.3480088,0.0,0.0,0.0,0.0
5.42,39.43868160000001,-72.5981784,-9.813645600000001,-14.645030400000001,0.0,0.0,0.0,0.0
5.4399999999999995,40.86057360000001,-65.9837136,-11.006328,-18.8622432,0.0,0.0,0.0,0.0
5.46,42.18553920000001,-65.658492,-9.9218496,-15.335402400000001,0.0,0.0,0.0,0.0
5.48,43.78543440000001,-69.6705744,-6.777228,-9.5079312,0.0,0.0,0.0,0.0
5.5,45.684948000000006,-66.0922224,-7.8617064,-13.8016488,0.0,0.0,0.0,0.0
5.52,47.68656960000001,-63.7608072,-9.867595200000002,-11.654637600000001,0.0,0.0,0.0,0.0
5.54,49.149,-56.7665616,-4.2833544,-8.4344256,0.0,0.0,0.0,0.0
5.5600000000000005,50.61478320000001,-44.4590424,-10.5183432,-10.428122400000001,0.0,0.0,0.0,0.0
5.58,52.433220000000006,-43.862548800000006,-4.7170848,-9.967874400000001,0.0,0.0,0.0,0.0
5.6,54.08340720000001,-36.4888272,-4.933797600000001,-8.5109304,0.0,0.0,0.0,0.0
5.62,55.73115600000001,-23.964595199999998,-1.8434304000000001,-7.8208632,0.0,0.0,0.0,0.0
5.64,57.443522400000006,-17.783556,-0.7589520000000001,-3.7572696000000003,0.0,0.0,0.0,0.0
5.66,59.256472800000004,-13.988186400000002,-0.7589520000000001,-3.2970216000000003,0.0,0.0,0.0,0.0
5.68,61.2455976,-6.397752,1.1926824,-1.9936968000000002,0.0,0.0,0.0,0.0
5.7,63.22009200000001,-4.7170848,1.6806672000000002,-2.1470112,0.0,0.0,0.0,0.0
5.72,64.31798160000001,-2.4941784,1.6264128000000002,-1.7635728,0.0,0.0,0.0,0.0
5.74,65.650872,-0.7046976,1.4639544,-0.6900672,0.0,0.0,0.0,0.0
5.76,67.18096800000001,-0.7046976,1.2469368,-4.6006512,0.0,0.0,0.0,0.0
5.78,69.06249840000001,-0.1085088,1.4097000000000002,-0.23012400000000002,0.0,0.0,0.0,0.0
5.8,70.75627200000001,-16.2653472,-205.81254240000004,-157.03296000000003,0.0,0.0,0.0,0.0
5.82,72.33848880000001,-41.7481512,39.57949920000001,-16.5622224,0.0,0.0,0.0,0.0
5.84,73.9432608,6.5605152,-1.1387328,-2.0702016,0.0,0.0,0.0,0.0
5.859999999999999,75.4023384,7.3737216000000005,1.4097000000000002,0.23012400000000002,0.0,0.0,0.0,0.0
5.88,76.811124,3.4158936000000004,-1.6806672000000002,0.0768096,0.0,0.0,0.0,0.0
5.9,78.239112,9.488119200000002,3.198876,2.8370784000000002,0.0,0.0,0.0,0.0
5.92,79.56712560000001,9.488119200000002,-0.9217152000000001,-0.23012400000000002,0.0,0.0,0.0,0.0
5.9399999999999995,80.884776,9.217152,-1.4097000000000002,-0.6900672,0.0,0.0,0.0,0.0
5.96,82.0893456,9.3256608,1.4097000000000002,1.4569440000000002,0.0,0.0,0.0,0.0
5.98,83.3091552,10.952073600000002,2.6023824,0.8433816000000001,0.0,0.0,0.0,0.0
6.0,84.56980800000001,7.2652128,-0.9759696,-0.15331440000000002,0.0,0.0,0.0,0.0
6.02,85.82131680000002,6.343497600000001,1.8976848000000002,3.910584,0.0,0.0,0.0,0.0
6.04,87.05667120000001,8.6749128,1.4097000000000002,0.996696,0.0,0.0,0.0,0.0
6.0600000000000005,88.3179336,11.873788800000002,0.16276320000000002,2.5304496,0.0,0.0,0.0,0.0
6.08,89.6038848,5.964021600000001,0.2170176,0.7668768,0.0,0.0,0.0,0.0
6.1,90.87703440000001,9.1628976,2.3314152,0.4599432,0.0,0.0,0.0,0.0
6.12,92.08190880000001,8.566404,0.2170176,-1.5334488,0.0,0.0,0.0,0.0
6.14,93.26819040000001,7.6989432,-0.7589520000000001,0.23012400000000002,0.0,0.0,0.0,0.0
6.16,94.46209200000001,8.3496912,2.6023824,0.3834384,0.0,0.0,0.0,0.0
6.18,95.67885360000001,5.259324,0.37947600000000004,-0.7668768,0.0,0.0,0.0,0.0
6.2,96.90536880000002,9.4338648,-0.8674608,0.23012400000000002,0.0,0.0,0.0,0.0
6.22,98.2254576,6.0725304,2.9279088,-0.23012400000000002,0.0,0.0,0.0,0.0
6.24,99.50531280000001,8.3496912,2.2771608000000003,1.2268200000000002,0.0,0.0,0.0,0.0
6.26,100.9546368,11.4943128,5.3132736,-0.30662880000000003,0.0,0.0,0.0,0.0
6.28,102.22870080000001,6.4520064,-1.5724632,0.9201912000000001,0.0,0.0,0.0,0.0
6.3,103.45643520000002,9.596628,1.6806672000000002,0.0768096,0.0,0.0,0.0,0.0
6.32,104.76616080000001,3.2531304000000003,-2.2771608000000003,-0.3834384,0.0,0.0,0.0,0.0
6.34,106.20512160000001,5.421782400000001,1.6264128000000002,0.5367528,0.0,0.0,0.0,0.0
6.359999999999999,107.52795360000002,4.012082400000001,-1.5182088,1.2268200000000002,0.0,0.0,0.0,0.0
6.38,108.78555840000001,7.2652128,1.5182088,0.5367528,0.0,0.0,0.0,0.0
6.4,110.1559392,7.3737216000000005,2.8194000000000004,0.9201912000000001,0.0,0.0,0.0,0.0
6.42,111.50010720000002,4.554321600000001,-0.5422392,-0.0768096,0.0,0.0,0.0,0.0
6.4399999999999995,112.77478080000002,5.5302912,1.1926824,1.4569440000000002,0.0,0.0,0.0,0.0
6.46,114.01409760000001,8.3496912,0.0,1.4569440000000002,0.0,0.0,0.0,0.0
6.48,115.34180640000001,7.915960800000001,1.4097000000000002,1.0735056,0.0,0.0,0.0,0.0
6.5,116.5927056,3.1446216000000002,0.8674608,0.23012400000000002,0.0,0.0,0.0,0.0
6.52,117.8338512,6.7229735999999995,0.8674608,0.8433816000000001,0.0,0.0,0.0,0.0
6.54,119.05670880000001,6.4520064,1.1387328,1.5334488,0.0,0.0,0.0,0.0
6.5600000000000005,120.26188800000001,7.1024496,1.030224,0.8433816000000001,0.0,0.0,0.0,0.0
6.58,121.50486240000002,7.6446888,0.5964936000000001,0.30662880000000003,0.0,0.0,0.0,0.0
6.6,122.71888080000002,4.5000672,-0.37947600000000004,0.4599432,0.0,0.0,0.0,0.0
6.62,123.95575920000002,5.367528,1.3554456000000001,-0.0768096,0.0,0.0,0.0,0.0
6.640000000000001,125.10516,7.915960800000001,-0.9759696,0.23012400000000002,0.0,0.0,0.0,0.0
6.66,126.1814088,3.8496240000000004,0.5964936000000001,-1.3036296,0.0,0.0,0.0,0.0
6.68,127.18420080000001,4.608576,-0.4879848,-0.23012400000000002,0.0,0.0,0.0,0.0
6.7,128.2714224,5.259324,3.0903671999999998,2.9135831999999997,0.0,0.0,0.0,0.0
6.72,129.3598632,4.7170848,-1.5724632,0.5367528,0.0,0.0,0.0,0.0
6.74,130.4632392,6.5605152,1.030224,0.5367528,0.0,0.0,0.0,0.0
6.76,131.6287944,6.7229735999999995,2.8194000000000004,2.6069544000000002,0.0,0.0,0.0,0.0
6.779999999999999,132.88426560000002,5.5302912,-1.3011912,1.1500104,0.0,0.0,0.0,0.0
6.8,133.96508640000002,5.3132736,3.0361128,1.3036296,0.0,0.0,0.0,0.0
6.82,135.1026,6.885736800000001,1.5724632,0.30662880000000003,0.0,0.0,0.0,0.0
6.84,136.17854400000002,4.7170848,0.7046976,0.6135624,0.0,0.0,0.0,0.0
6.859999999999999,137.37244560000002,4.445812800000001,0.3252216,1.0735056,0.0,0.0,0.0,0.0
6.88,138.40327920000001,7.156704,1.0844784,0.5367528,0.0,0.0,0.0,0.0
6.9,139.5118368,7.156704,1.1926824,0.5367528,0.0,0.0,0.0,0.0
6.92,140.66398080000002,6.343497600000001,4.3915584,1.5334488,0.0,0.0,0.0,0.0
6.9399999999999995,141.7950936,6.8314824000000005,2.1686520000000002,0.4599432,0.0,0.0,0.0,0.0
6.96,142.84543440000002,5.638800000000001,0.4337304,0.4599432,0.0,0.0,0.0,0.0
6.98,143.912844,5.638800000000001,0.650748,0.0,0.0,0.0,0.0,0.0
7.0,144.9250848,7.1024496,2.7651456,1.1500104,0.0,0.0,0.0,0.0
7.02,145.8784992,5.096560800000001,1.3011912,0.4599432,0.0,0.0,0.0,0.0
7.04,146.8788528,5.096560800000001,1.1926824,0.6135624,0.0,0.0,0.0,0.0
7.0600000000000005,147.88499760000002,4.7170848,0.4879848,1.2268200000000002,0.0,0.0,0.0,0.0
7.08,148.7299032,4.2833544,1.1387328,0.7668768,0.0,0.0,0.0,0.0
7.1,149.70343440000002,4.6628304,3.0361128,0.9201912000000001,0.0,0.0,0.0,0.0
7.12,150.77572080000002,3.8496240000000004,0.0542544,0.0768096,0.0,0.0,0.0,0.0
7.140000000000001,151.8022872,4.3915584,0.9217152000000001,-0.23012400000000002,0.0,0.0,0.0,0.0
7.16,152.7660648,4.7713392,1.4097000000000002,-0.30662880000000003,0.0,0.0,0.0,0.0
7.18,153.7359384,6.506260800000001,0.1085088,-1.0735056,0.0,0.0,0.0,0.0
7.2,154.8448008,5.638800000000001,2.0601432,1.6102584000000002,0.0,0.0,0.0,0.0
7.22,155.9161728,3.0903671999999998,0.9217152000000001,0.3834384,0.0,0.0,0.0,0.0
7.24,157.0747176,4.0663368,-0.37947600000000004,0.15331440000000002,0.0,0.0,0.0,0.0
7.26,158.1168288,4.2291,1.0844784,0.8433816000000001,0.0,0.0,0.0,0.0
7.279999999999999,159.20161199999998,4.933797600000001,2.548128,1.1500104,0.0,0.0,0.0,0.0
7.3,160.16630399999997,3.8496240000000004,0.4879848,0.6135624,0.0,0.0,0.0,0.0
7.32,161.18555519999998,2.9818584,1.1387328,0.6135624,0.0,0.0,0.0,0.0
7.34,162.155124,4.8252888,0.5964936000000001,0.5367528,0.0,0.0,0.0,0.0
7.359999999999999,163.08415440000002,3.7411152,0.7046976,-0.9201912000000001,0.0,0.0,0.0,0.0
7.38,164.10919679999998,4.0663368,0.4879848,0.15331440000000002,0.0,0.0,0.0,0.0
7.4,165.134544,4.3915584,1.5724632,0.6135624,0.0,0.0,0.0,0.0
7.42,166.1108184,4.6628304,1.3011912,0.8433816000000001,0.0,0.0,0.0,0.0
7.4399999999999995,167.0218656,5.0423064,0.7046976,0.996696,0.0,0.0,0.0,0.0
7.46,167.8783536,3.6868608000000003,1.0844784,0.7668768,0.0,0.0,0.0,0.0
7.48,168.677844,3.9035736000000005,0.1085088,0.8433816000000001,0.0,0.0,0.0,0.0
7.5,169.4898312,3.6326064,0.7046976,0.23012400000000002,0.0,0.0,0.0,0.0
7.52,170.4118512,4.3376088,2.2771608000000003,-0.23012400000000002,0.0,0.0,0.0,0.0
7.54,171.4039752,4.933797600000001,-0.4879848,0.30662880000000003,0.0,0.0,0.0,0.0
7.5600000000000005,172.22937359999997,3.8496240000000004,0.2709672,-0.4599432,0.0,0.0,0.0,0.0
7.58,173.21296320000002,2.6023824,-0.4337304,0.6135624,0.0,0.0,0.0,0.0
7.6,174.19899120000002,4.554321600000001,1.5182088,0.5367528,0.0,0.0,0.0,0.0
7.62,175.11765839999998,2.2771608000000003,1.9519392,0.5367528,0.0,0.0,0.0,0.0
7.640000000000001,176.0018832,3.8496240000000004,0.37947600000000004,0.6900672,0.0,0.0,0.0,0.0
7.66,176.9641368,3.2531304000000003,0.7589520000000001,0.3834384,0.0,0.0,0.0,0.0
7.68,178.0059432,2.3314152,0.37947600000000004,-1.7635728,0.0,0.0,0.0,0.0
7.7,178.9240008,2.6566368,2.3314152,0.0,0.0,0.0,0.0,0.0
7.72,179.7341592,4.2291,-0.3252216,0.5367528,0.0,0.0,0.0,0.0
7.74,180.6110688,2.9818584,-0.5964936000000001,0.3834384,0.0,0.0,0.0,0.0
7.76,181.42458,2.4399240000000004,0.37947600000000004,0.0,0.0,0.0,0.0,0.0
7.779999999999999,182.23077600000002,3.3073848000000003,1.4639544,-0.5367528,0.0,0.0,0.0,0.0
7.8,183.0013104,4.5000672,1.4639544,-1.3036296,0.0,0.0,0.0,0.0
7.82,183.91814879999998,3.578352,2.8194000000000004,1.0735056,0.0,0.0,0.0,0.0
7.84,184.7252592,3.0361128,0.5422392,-0.5367528,0.0,0.0,0.0,0.0
7.859999999999999,185.4729336,2.4941784,1.0844784,0.23012400000000002,0.0,0.0,0.0,0.0
7.88,186.2428584,4.2833544,0.9217152000000001,1.6102584000000002,0.0,0.0,0.0,0.0
7.9,186.90214079999998,3.0361128,1.4097000000000002,0.3834384,0.0,0.0,0.0,0.0
7.92,187.68456239999998,4.0663368,2.1143976,0.5367528,0.0,0.0,0.0,0.0
7.9399999999999995,188.2130856,2.4399240000000004,0.4879848,0.30662880000000003,0.0,0.0,0.0,0.0
7.96,188.8998,3.198876,0.2709672,-0.4599432,0.0,0.0,0.0,0.0
7.98,189.591696,3.0903671999999998,0.5964936000000001,0.9201912000000001,0.0,0.0,0.0,0.0
8.0,190.4238,2.9818584,1.5724632,-0.30662880000000003,0.0,0.0,0.0,0.0
8.02,191.26626720000002,2.2771608000000003,0.9759696,-0.9201912000000001,0.0,0.0,0.0,0.0
8.04,192.11848799999999,2.3314152,1.789176,0.30662880000000003,0.0,0.0,0.0,0.0
8.06,192.918588,2.6566368,0.7046976,-0.6135624,0.0,0.0,0.0,0.0
8.08,193.7449008,2.1686520000000002,1.9519392,0.0,0.0,0.0,0.0,0.0
8.1,194.5709088,2.3314152,1.030224,0.6135624,0.0,0.0,0.0,0.0
8.120000000000001,195.3240696,2.2229064000000003,-0.7046976,1.2268200000000002,0.0,0.0,0.0,0.0
8.14,196.18269120000002,1.4639544,1.030224,-0.6900672,0.0,0.0,0.0,0.0
8.16,197.10806399999998,1.9519392,1.6264128000000002,-0.15331440000000002,0.0,0.0,0.0,0.0
8.18,197.9551032,1.7349216,1.5182088,0.4599432,0.0,0.0,0.0,0.0
8.2,198.747888,2.6023824,1.9519392,0.0768096,0.0,0.0,0.0,0.0
8.219999999999999,199.517508,3.0361128,1.6264128000000002,-0.30662880000000003,0.0,0.0,0.0,0.0
8.24,200.3041968,2.8736544000000004,1.1387328,0.5367528,0.0,0.0,0.0,0.0
8.26,201.1414824,2.0601432,-0.4337304,1.1500104,0.0,0.0,0.0,0.0
8.28,201.890376,2.3856696,0.5422392,1.3801344,0.0,0.0,0.0,0.0
8.3,202.4783352,2.3314152,0.5964936000000001,0.5367528,0.0,0.0,0.0,0.0
8.32,203.1104904,1.7349216,1.8434304000000001,-0.0768096,0.0,0.0,0.0,0.0
8.34,203.75910480000002,1.9519392,2.1686520000000002,-0.15331440000000002,0.0,0.0,0.0,0.0
8.36,204.5430504,2.0601432,2.9279088,-0.15331440000000002,0.0,0.0,0.0,0.0
8.379999999999999,205.261464,1.5182088,1.3011912,-1.7635728,0.0,0.0,0.0,0.0
8.4,205.97408639999998,1.8434304000000001,0.4337304,0.23012400000000002,0.0,0.0,0.0,0.0
8.42,206.7558984,2.1143976,0.7046976,0.4599432,0.0,0.0,0.0,0.0
8.44,207.5218608,1.5724632,0.5964936000000001,-0.30662880000000003,0.0,0.0,0.0,0.0
8.46,208.2036984,1.9519392,1.5182088,-1.2268200000000002,0.0,0.0,0.0,0.0
8.48,208.8864504,1.4639544,1.3554456000000001,0.23012400000000002,0.0,0.0,0.0,0.0
8.5,209.58048,1.3011912,1.5182088,-0.30662880000000003,0.0,0.0,0.0,0.0
8.52,210.2863968,1.789176,1.1387328,0.0768096,0.0,0.0,0.0,0.0
8.54,210.8841096,1.4097000000000002,1.5182088,-0.6900672,0.0,0.0,0.0,0.0
8.559999999999999,211.68908639999998,2.1143976,1.5724632,-0.30662880000000003,0.0,0.0,0.0,0.0
8.58,212.4203016,1.3554456000000001,1.1387328,0.30662880000000003,0.0,0.0,0.0,0.0
8.6,213.1478592,1.8434304000000001,1.3011912,0.5367528,0.0,0.0,0.0,0.0
8.620000000000001,213.8236008,2.1143976,0.9217152000000001,0.30662880000000003,0.0,0.0,0.0,0.0
8.64,214.4438688,1.030224,0.37947600000000004,-0.4599432,0.0,0.0,0.0,0.0
8.66,215.077548,1.7349216,1.0844784,-0.23012400000000002,0.0,0.0,0.0,0.0
8.68,215.6389896,1.6264128000000002,1.0844784,0.15331440000000002,0.0,0.0,0.0,0.0
8.7,216.2257296,1.9519392,1.1926824,0.30662880000000003,0.0,0.0,0.0,0.0
8.719999999999999,216.8700768,1.6264128000000002,0.5422392,-0.3834384,0.0,0.0,0.0,0.0
8.74,217.4223744,0.16276320000000002,-3.957828,-3.0672024,0.0,0.0,0.0,0.0
8.76,217.95638399999999,1.4097000000000002,0.2170176,-0.5367528,0.0,0.0,0.0,0.0
8.780000000000001,218.5361136,1.6806672000000002,0.2709672,-0.23012400000000002,0.0,0.0,0.0,0.0
8.8,219.26367119999998,1.0844784,0.4337304,1.0735056,0.0,0.0,0.0,0.0
8.82,219.9022272,1.0844784,0.1085088,0.0768096,0.0,0.0,0.0,0.0
8.84,220.5840648,1.6264128000000002,0.9759696,0.3834384,0.0,0.0,0.0,0.0
8.86,221.1836064,0.8674608,0.7589520000000001,-0.0768096,0.0,0.0,0.0,0.0
8.879999999999999,221.738952,0.8674608,1.1926824,-0.0768096,0.0,0.0,0.0,0.0
8.9,222.29094479999998,0.5964936000000001,0.7046976,-0.15331440000000002,0.0,0.0,0.0,0.0
8.92,222.8761608,0.9759696,0.9759696,0.30662880000000003,0.0,0.0,0.0,0.0
8.940000000000001,223.3617072,1.3011912,0.8674608,0.4599432,0.0,0.0,0.0,0.0
8.96,223.95180000000002,0.650748,0.5422392,-0.0768096,0.0,0.0,0.0,0.0
8.98,224.5388448,1.030224,1.3554456000000001,0.0,0.0,0.0,0.0,0.0
9.0,225.0865704,0.8132064000000001,1.030224,0.0,0.0,0.0,0.0,0.0
9.02,225.7327464,0.3252216,0.2170176,-0.0768096,0.0,0.0,0.0,0.0
9.04,226.3453944,0.650748,0.4337304,-0.23012400000000002,0.0,0.0,0.0,0.0
9.059999999999999,226.95286080000002,0.7046976,0.7046976,-0.15331440000000002,0.0,0.0,0.0,0.0
9.08,227.40884160000002,0.7589520000000001,0.7589520000000001,0.0,0.0,0.0,0.0,0.0
9.1,227.96693040000002,0.37947600000000004,0.37947600000000004,0.23012400000000002,0.0,0.0,0.0,0.0
9.120000000000001,228.5286768,0.7589520000000001,0.4337304,-0.0768096,0.0,0.0,0.0,0.0
9.14,229.1187696,0.5422392,0.8674608,0.0,0.0,0.0,0.0,0.0
9.16,229.63540559999998,0.5964936000000001,0.8132064000000001,-0.15331440000000002,0.0,0.0,0.0,0.0
9.18,230.1505176,0.650748,0.4337304,-0.23012400000000002,0.0,0.0,0.0,0.0
9.2,230.57083680000002,0.650748,1.0844784,0.5367528,0.0,0.0,0.0,0.0
9.219999999999999,231.1706832,0.8674608,0.8674608,0.6900672,0.0,0.0,0.0,0.0
9.24,231.86898,0.7046976,0.4879848,-0.0768096,0.0,0.0,0.0,0.0
9.26,232.38531120000002,0.8674608,0.7589520000000001,-0.0768096,0.0,0.0,0.0,0.0
9.280000000000001,232.8650664,1.030224,1.2469368,0.30662880000000003,0.0,0.0,0.0,0.0
9.3,233.2546008,0.37947600000000004,0.9217152000000001,-0.15331440000000002,0.0,0.0,0.0,0.0
9.32,233.7014376,0.5422392,1.0844784,-0.15331440000000002,0.0,0.0,0.0,0.0
9.34,234.1967376,0.8674608,1.3011912,-0.23012400000000002,0.0,0.0,0.0,0.0
9.36,234.6521088,0.4337304,0.650748,0.30662880000000003,0.0,0.0,0.0,0.0
9.379999999999999,235.09711679999998,0.2170176,0.9759696,0.4599432,0.0,0.0,0.0,0.0
9.4,235.60735200000002,0.650748,1.5182088,0.15331440000000002,0.0,0.0,0.0,0.0
9.42,236.1364848,0.5422392,0.9759696,0.23012400000000002,0.0,0.0,0.0,0.0
9.440000000000001,236.6348328,0.16276320000000002,1.030224,0.15331440000000002,0.0,0.0,0.0,0.0
9.46,237.1795104,0.8132064000000001,0.7046976,0.15331440000000002,0.0,0.0,0.0,0.0
9.48,237.75162,0.4879848,0.9217152000000001,-0.3834384,0.0,0.0,0.0,0.0
9.5,238.2481392,0.4879848,0.7046976,-0.3834384,0.0,0.0,0.0,0.0
9.52,238.8144576,0.3252216,1.1926824,-0.23012400000000002,0.0,0.0,0.0,0.0
9.54,239.23569120000002,0.7589520000000001,-0.3252216,0.15331440000000002,0.0,0.0,0.0,0.0
9.559999999999999,239.7392208,0.0,0.2170176,0.0768096,0.0,0.0,0.0,0.0
9.58,240.1653312,0.8132064000000001,0.2709672,0.23012400000000002,0.0,0.0,0.0,0.0
9.6,240.6344184,0.2170176,-0.2170176,0.23012400000000002,0.0,0.0,0.0,0.0
9.620000000000001,241.01145599999998,0.8674608,0.2170176,0.0768096,0.0,0.0,0.0,0.0
9.64,241.5363216,-0.0542544,0.7046976,0.0768096,0.0,0.0,0.0,0.0
9.66,242.096544,0.0542544,0.9217152000000001,0.3834384,0.0,0.0,0.0,0.0
9.68,242.489736,0.2709672,-0.0542544,-1.3036296,0.0,0.0,0.0,0.0
9.7,242.98259760000002,0.0542544,0.8132064000000001,0.30662880000000003,0.0,0.0,0.0,0.0
9.719999999999999,243.4641816,0.2170176,1.7349216,0.0768096,0.0,0.0,0.0,0.0
9.74,244.0079448,0.2170176,-0.1085088,-0.0768096,0.0,0.0,0.0,0.0
9.76,244.460268,0.0542544,0.16276320000000002,0.30662880000000003,0.0,0.0,0.0,0.0
9.780000000000001,244.7873184,0.4879848,0.16276320000000002,0.5367528,0.0,0.0,0.0,0.0
9.8,245.2350696,-0.0542544,0.8132064000000001,0.0,0.0,0.0,0.0,0.0
9.82,245.6340528,0.0,0.5422392,0.15331440000000002,0.0,0.0,0.0,0.0
9.84,246.0144432,0.2709672,0.8132064000000001,0.5367528,0.0,0.0,0.0,0.0
9.86,246.4740816,0.2170176,0.4337304,0.23012400000000002,0.0,0.0,0.0,0.0
9.879999999999999,246.906288,-0.1085088,0.650748,0.30662880000000003,0.0,0.0,0.0,0.0
9.9,247.37750880000002,0.0542544,0.8132064000000001,0.23012400000000002,0.0,0.0,0.0,0.0
9.92,247.89292559999998,0.1085088,0.650748,0.15331440000000002,0.0,0.0,0.0,0.0
9.940000000000001,248.31324479999998,0.2709672,0.9217152000000001,0.15331440000000002,0.0,0.0,0.0,0.0
9.96,248.689368,0.1085088,1.4097000000000002,0.5367528,0.0,0.0,0.0,0.0
9.98,249.0618336,0.1085088,0.7589520000000001,0.23012400000000002,0.0,0.0,0.0,0.0
10.0,249.3998568,0.1085088,0.7589520000000001,-0.30662880000000003,0.0,0.0,0.0,0.0
10.02,249.683016,-0.2170176,0.7589520000000001,0.15331440000000002,0.0,0.0,0.0,0.0
10.04,250.0414608,-0.7046976,0.37947600000000004,0.3834384,0.0,0.0,0.0,0.0
10.059999999999999,249.9820248,-119.4428904,-102.635304,-91.09130880000001,0.0,0.0,0.0,0.0
10.08,251.12990159999998,-19.789749600000004,-35.2961448,-24.5364,0.0,0.0,0.0,0.0
10.1,251.31186720000002,-2.548128,-0.5964936000000001,8.6645496,0.0,0.0,0.0,0.0
10.120000000000001,251.67000720000001,-10.0846128,-17.6750472,15.105278400000001,0.0,0.0,0.0,0.0
10.14,252.3344712,-49.9893336,-45.9772512,-17.0986704,0.0,0.0,0.0,0.0
10.16,253.1421912,15.506395200000002,-8.024164800000001,1.3036296,0.0,0.0,0.0,0.0
10.18,254.01849120000003,53.404922400000004,-23.584814400000003,-91.01480400000001,0.0,0.0,0.0,0.0
10.2,255.0816336,25.591008,-6.0725304,-22.236074400000003,0.0,0.0,0.0,0.0
10.219999999999999,256.0941792,26.4042144,-3.5240976,-5.903976000000001,0.0,0.0,0.0,0.0
10.24,257.347212,31.500775200000003,6.5605152,-8.2811112,0.0,0.0,0.0,0.0
10.26,258.9559464,19.6812408,11.1148368,-16.3320984,0.0,0.0,0.0,0.0
10.280000000000001,260.4235584,45.3807576,7.3194672,-47.84598,0.0,0.0,0.0,0.0
10.3,261.57448320000003,60.670135200000004,39.416736,-49.992991200000006,0.0,0.0,0.0,0.0
10.32,262.0124808,221.2107336,0.7589520000000001,-48.3059232,0.0,0.0,0.0,0.0
10.34,261.1401432,169.70319120000002,-1.1926824,29.213556,0.0,0.0,0.0,0.0
10.36,260.5149984,63.977520000000005,13.8799824,-32.894016,0.0,0.0,0.0,0.0
10.379999999999999,260.1279024,63.489535200000006,39.8504664,-140.62435680000002,0.0,0.0,0.0,0.0
10.4,259.5076344,49.5556032,49.6638072,-155.88294960000002,0.0,0.0,0.0,0.0
10.42,259.4024784,23.04288,34.53719280000001,-88.4843544,0.0,0.0,0.0,0.0
10.440000000000001,258.8873664,43.7000904,36.976812,-56.1270912,0.0,0.0,0.0,0.0
10.46,258.446016,35.458908,9.976104,-19.7059296,0.0,0.0,0.0,0.0
10.48,257.8946328,63.8150616,-40.6094184,52.1400024,0.0,0.0,0.0,0.0
10.5,257.310636,16.4281104,-11.873788800000002,21.5460072,0.0,0.0,0.0,0.0
10.52,256.9363416,6.614769600000001,5.205069600000001,-4.6006512,0.0,0.0,0.0,0.0
10.54,256.6803096,-40.3927056,-6.777228,-13.341705600000001,0.0,0.0,0.0,0.0
10.559999999999999,256.4803608,-1.789176,-2.548128,40.0251168,0.0,0.0,0.0,0.0
10.58,256.1664168,-2.1143976,-1.8976848000000002,14.338401600000001,0.0,0.0,0.0,0.0
10.6,255.9286728,19.464223200000003,-17.1870624,-14.108277600000001,0.0,0.0,0.0,0.0
10.620000000000001,255.74884079999998,-0.5964936000000001,-0.4879848,3.1437072,0.0,0.0,0.0,0.0
10.64,255.6101568,7.4822304,0.1085088,3.5271456,0.0,0.0,0.0,0.0
10.66,255.4583664,-4.445812800000001,0.2170176,-20.625816,0.0,0.0,0.0,0.0
10.68,255.47939760000003,0.4879848,-61.8631224,-71.6155032,0.0,0.0,0.0,0.0
10.7,255.6348456,-26.566977600000005,-102.47254080000002,-157.03296000000003,0.0,0.0,0.0,0.0
10.719999999999999,255.7738344,108.382308,49.7180616,-157.03296000000003,0.0,0.0,0.0,0.0
10.74,256.0140168,-22.5548952,39.145464000000004,-157.03296000000003,0.0,0.0,0.0,0.0
10.76,256.26761039999997,-60.2364048,51.561492,-157.03296000000003,0.0,0.0,0.0,0.0
10.780000000000001,256.4672544,50.856794400000005,53.350668,-65.8648416,0.0,0.0,0.0,0.0
10.8,256.4934672,82.5203328,12.4702824,-65.1747744,0.0,0.0,0.0,0.0
10.82,256.348992,58.1762616,1.789176,0.5367528,0.0,0.0,0.0,0.0
10.84,256.3102824,45.2179944,-2.2771608000000003,-23.6162088,0.0,0.0,0.0,0.0
10.86,256.4212296,45.4892664,32.8019664,-60.4208088,0.0,0.0,0.0,0.0
10.879999999999999,256.682748,14.421916800000002,8.241182400000001,-84.19063680000001,0.0,0.0,0.0,0.0
10.9,257.0229048,-0.2709672,-11.5485672,-79.5899856,0.0,0.0,0.0,0.0
10.92,257.4130488,19.193256,6.7229735999999995,-95.7687696,0.0,0.0,0.0,0.0
10.940000000000001,257.80685040000003,25.4824992,8.1326736,-65.3280888,0.0,0.0,0.0,0.0
10.96,258.79988879999996,16.373856,-2.4941784,-24.229771200000002,0.0,0.0,0.0,0.0
10.98,259.6094376,17.2413168,-5.638800000000001,-9.6612456,0.0,0.0,0.0,0.0
11.0,260.130036,20.3859384,1.8434304000000001,-34.810903200000006,0.0,0.0,0.0,0.0
11.02,260.1809376,7.427976000000001,11.2230408,-25.0731528,0.0,0.0,0.0,0.0
11.04,260.09285040000003,-5.205069600000001,3.578352,-23.1562656,0.0,0.0,0.0,0.0
11.059999999999999,260.20227359999996,-12.795504,6.7229735999999995,4.1404032,0.0,0.0,0.0,0.0
11.08,260.180328,13.5005064,31.3922664,-9.4311216,0.0,0.0,0.0,0.0
11.1,260.2638432,-23.422356,-20.277734400000003,-49.992991200000006,0.0,0.0,0.0,0.0
11.120000000000001,260.2705488,-15.6691584,3.0903671999999998,-24.3830856,0.0,0.0,0.0,0.0
11.14,260.29584719999997,-15.994380000000001,-0.9217152000000001,-24.3830856,0.0,0.0,0.0,0.0
11.16,260.533896,5.096560800000001,0.650748,-28.9837368,0.0,0.0,0.0,0.0
11.18,260.6500248,-0.37947600000000004,6.885736800000001,-20.7026256,0.0,0.0,0.0,0.0
11.2,260.6734944,-13.283488800000002,0.37947600000000004,-10.5046272,0.0,0.0,0.0,0.0
11.219999999999999,260.5494408,-28.247644800000003,22.9343712,-20.625816,0.0,0.0,0.0,0.0
11.24,260.468364,-20.006462400000004,5.6930544,-4.1404032,0.0,0.0,0.0,0.0
11.26,260.3202312,4.8795432000000005,-14.096695200000001,-63.9479544,0.0,0.0,0.0,0.0
11.280000000000001,260.2129416,-22.7173536,30.958536,102.5161272,0.0,0.0,0.0,0.0
11.3,260.145276,19.0304928,-6.4520064,17.405604,0.0,0.0,0.0,0.0
11.32,260.0291472,1.2469368,17.40408,10.121188800000002,0.0,0.0,0.0,0.0
11.34,259.9581288,-3.578352,10.5183432,4.370527200000001,0.0,0.0,0.0,0.0
11.36,259.8212736,-16.4281104,22.392132000000004,-1.2268200000000002,0.0,0.0,0.0,0.0
11.379999999999999,259.6877712,-1.8434304000000001,-0.4337304,-8.050987200000002,0.0,0.0,0.0,0.0
11.4,259.5612792,-17.783556,135.3287616,37.3413528,0.0,0.0,0.0,0.0
11.42,259.4299104,13.283488800000002,74.8753392,-1.9936968000000002,0.0,0.0,0.0,0.0
11.440000000000001,259.31195280000003,21.0366864,2.4941784,-34.4277696,0.0,0.0,0.0,0.0
11.46,259.26440399999996,6.018276,7.427976000000001,3.5271456,0.0,0.0,0.0,0.0
11.48,259.1824128,2.6023824,5.096560800000001,-7.6675488,0.0,0.0,0.0,0.0
11.5,259.060188,4.7713392,1.9519392,-9.047683200000002,0.0,0.0,0.0,0.0
11.52,258.9285144,8.94588,2.2229064000000003,-8.817864,0.0,0.0,0.0,0.0
11.54,259.043424,10.626852000000001,5.5302912,-8.58774,0.0,0.0,0.0,0.0
11.559999999999999,259.0208688,7.807452,6.1807343999999995,-5.750661600000001,0.0,0.0,0.0,0.0
11.58,259.1671728,4.8252888,6.668719200000001,-3.2970216000000003,0.0,0.0,0.0,0.0
11.6,259.3982112,39.8504664,17.0788584,-11.3480088,0.0,0.0,0.0,0.0
11.620000000000001,259.6140096,9.0543888,8.5121496,7.0542912,0.0,0.0,0.0,0.0
11.64,259.6822848,-1.7349216,8.024164800000001,-9.047683200000002,0.0,0.0,0.0,0.0
11.66,259.6322976,4.7713392,6.0725304,-13.264896000000002,0.0,0.0,0.0,0.0
11.68,259.5307992,-0.5422392,3.7953696000000003,-26.069848800000003,0.0,0.0,0.0,0.0
11.7,259.4314344,-27.380184,-11.5485672,-104.4330144,0.0,0.0,0.0,0.0
11.719999999999999,259.2543456,8.837676,-3.957828,-9.6612456,0.0,0.0,0.0,0.0
11.74,259.1193192,-1.1387328,0.5964936000000001,-18.4791096,0.0,0.0,0.0,0.0
11.76,258.9849024,-3.0361128,-1.9519392,-14.491716000000002,0.0,0.0,0.0,0.0
11.780000000000001,258.8876712,-1.6264128000000002,-2.2771608000000003,-8.1277968,0.0,0.0,0.0,0.0
11.8,258.7883064,-1.1926824,0.7589520000000001,-7.130796,0.0,0.0,0.0,0.0
11.82,258.699,2.7108912000000003,0.650748,-5.137404,0.0,0.0,0.0,0.0
11.84,258.534408,8.1326736,1.5182088,-9.2778072,0.0,0.0,0.0,0.0
11.86,258.3554904,4.1748456,2.6566368,-1.8400776,0.0,0.0,0.0,0.0
11.879999999999999,258.3198288,2.1686520000000002,1.5182088,-3.68046,0.0,0.0,0.0,0.0
11.9,258.290568,1.3011912,2.4941784,-0.9201912000000001,0.0,0.0,0.0,0.0
11.92,258.177792,4.8795432000000005,-6.614769600000001,-5.903976000000001,0.0,0.0,0.0,0.0
11.940000000000001,258.04581360000003,-1.8976848000000002,-5.6930544,-11.8082568,0.0,0.0,0.0,0.0
11.96,257.8598856,-0.8132064000000001,25.3200408,-21.699321599999998,0.0,0.0,0.0,0.0
11.98,257.7717984,10.4098344,8.024164800000001,-6.594043200000001,0.0,0.0,0.0,0.0
12.0,257.615436,3.3616392,3.9035736000000005,6.6708528000000005,0.0,0.0,0.0,0.0
12.02,257.5431984,8.5121496,2.4399240000000004,-12.2682,0.0,0.0,0.0,0.0
12.04,257.5075368,10.5183432,3.3616392,-10.044684,0.0,0.0,0.0,0.0
12.059999999999999,257.46456,10.952073600000002,2.3856696,-10.044684,0.0,0.0,0.0,0.0
12.08,257.513328,9.867595200000002,2.7108912000000003,-9.047683200000002,0.0,0.0,0.0,0.0
12.1,257.49412559999996,10.0303584,1.5724632,-7.2841104,0.0,0.0,0.0,0.0
12.120000000000001,257.4886392,12.5787912,-6.7229735999999995,-3.9870888,0.0,0.0,0.0,0.0
12.14,257.458464,8.5121496,1.2469368,-0.23012400000000002,0.0,0.0,0.0,0.0
12.16,257.4176208,10.681106400000001,0.0542544,0.15331440000000002,0.0,0.0,0.0,0.0
12.18,257.3316672,5.7470040000000004,2.4941784,2.8370784000000002,0.0,0.0,0.0,0.0
12.2,257.3033208,8.186928,1.3554456000000001,1.3036296,0.0,0.0,0.0,0.0
12.219999999999999,257.2484568,4.3915584,1.8976848000000002,1.6102584000000002,0.0,0.0,0.0,0.0
12.24,257.11434479999997,13.7172192,-1.4639544,1.6867632000000001,0.0,0.0,0.0,0.0
12.26,257.080512,6.614769600000001,5.421782400000001,3.450336,0.0,0.0,0.0,0.0
12.280000000000001,256.9988256,-5.638800000000001,4.445812800000001,3.68046,0.0,0.0,0.0,0.0
12.3,257.01955200000003,-11.1690912,12.5787912,0.0,0.0,0.0,0.0,0.0
12.32,257.0107128,-3.957828,6.777228,1.7635728,0.0,0.0,0.0,0.0
12.34,256.9976064,3.4158936000000004,3.3073848000000003,1.8400776,0.0,0.0,0.0,0.0
12.36,257.0658816,5.476036800000001,2.7651456,-2.0702016,0.0,0.0,0.0,0.0
12.379999999999999,257.1874968,5.421782400000001,-0.650748,-3.9870888,0.0,0.0,0.0,0.0
12.4,257.2850328,-11.1690912,24.3983256,14.645030400000001,0.0,0.0,0.0,0.0
12.42,257.2731456,2.1686520000000002,5.205069600000001,-5.6741568000000004,0.0,0.0,0.0,0.0
12.440000000000001,257.383788,6.8314824000000005,4.7713392,2.9135831999999997,0.0,0.0,0.0,0.0
12.46,257.2118808,6.668719200000001,-1.3554456000000001,-24.996343200000002,0.0,0.0,0.0,0.0
12.48,257.027172,7.210958400000001,0.4879848,-14.338401600000001,0.0,0.0,0.0,0.0
12.5,256.7613864,6.777228,8.6206584,-14.108277600000001,0.0,0.0,0.0,0.0
12.52,256.502916,5.3132736,5.964021600000001,-17.8655472,0.0,0.0,0.0,0.0
12.54,256.3983696,5.6930544,4.608576,-27.373478400000003,0.0,0.0,0.0,0.0
12.559999999999999,256.1822664,2.1686520000000002,8.241182400000001,-30.2870616,0.0,0.0,0.0,0.0
12.579999999999998,255.9472656,0.9759696,6.397752,-21.9294456,0.0,0.0,0.0,0.0
12.600000000000001,255.817116,15.1269192,15.343632000000001,-12.2682,0.0,0.0,0.0,0.0
12.620000000000001,255.6580104,23.801832,8.837676,-31.5138816,0.0,0.0,0.0,0.0
12.64,255.7055592,27.8139144,24.8863104,-4.907280000000001,0.0,0.0,0.0,0.0
12.66,255.8686272,8.8919304,5.964021600000001,-14.72184,0.0,0.0,0.0,0.0
12.68,255.96921120000002,6.8314824000000005,-6.0725304,-23.1562656,0.0,0.0,0.0,0.0
12.7,256.22067119999997,3.1446216000000002,3.1446216000000002,-4.6006512,0.0,0.0,0.0,0.0
12.719999999999999,256.5879552,13.9342368,21.4161624,4.8304704,0.0,0.0,0.0,0.0
12.739999999999998,256.5763728,17.3498256,67.6643808,55.3602144,0.0,0.0,0.0,0.0
12.760000000000002,256.1316696,-13.3919976,12.3075192,0.15331440000000002,0.0,0.0,0.0,0.0
12.780000000000001,256.3462488,-4.2833544,13.0664712,-21.5460072,0.0,0.0,0.0,0.0
12.8,256.676652,-2.6566368,4.8252888,-4.370527200000001,0.0,0.0,0.0,0.0
12.82,256.5215088,4.933797600000001,3.0903671999999998,-36.267847200000006,0.0,0.0,0.0,0.0
12.84,256.2295104,30.308092800000004,-8.729167200000001,-7.8976728000000005,0.0,0.0,0.0,0.0
12.86,256.163064,48.362615999999996,3.7953696000000003,39.1814304,0.0,0.0,0.0,0.0
12.879999999999999,255.7902936,13.3919976,1.3554456000000001,-2.9903928,0.0,0.0,0.0,0.0
12.899999999999999,255.318768,5.964021600000001,28.8441384,-6.9009768,0.0,0.0,0.0,0.0
12.920000000000002,254.87497919999998,-67.2849048,17.40408,51.6797544,0.0,0.0,0.0,0.0
12.940000000000001,254.38912799999997,-13.174980000000001,4.2833544,22.08276,0.0,0.0,0.0,0.0
12.96,253.83347759999998,-17.2955712,3.957828,-16.178784,0.0,0.0,0.0,0.0
12.98,253.2348504,-5.259324,-2.7651456,-3.1437072,0.0,0.0,0.0,0.0
13.0,252.7395504,73.1404176,10.8978192,17.5589184,0.0,0.0,0.0,0.0
13.02,252.45943920000002,-19.3560192,23.368101600000003,3.7572696000000003,0.0,0.0,0.0,0.0
13.04,252.218952,6.9942456,17.729301600000003,-21.469502400000003,0.0,0.0,0.0,0.0
13.059999999999999,251.999496,5.421782400000001,18.1087776,-3.9870888,0.0,0.0,0.0,0.0
13.079999999999998,251.7654096,2.8194000000000004,3.2531304000000003,-12.038076,0.0,0.0,0.0,0.0
13.100000000000001,251.52979919999999,-93.20113440000002,11.1148368,34.8877128,0.0,0.0,0.0,0.0
13.120000000000001,251.1015552,29.928616800000004,-5.7470040000000004,-16.4854128,0.0,0.0,0.0,0.0
13.14,250.82235839999998,-16.9160952,30.362347200000002,52.0631928,0.0,0.0,0.0,0.0
13.16,250.7583504,12.7412496,11.2230408,-7.744358400000001,0.0,0.0,0.0,0.0
13.18,250.6315536,3.957828,6.018276,-3.68046,0.0,0.0,0.0,0.0
13.2,250.52487359999998,6.777228,9.0543888,3.2205168000000004,0.0,0.0,0.0,0.0
13.219999999999999,250.4093544,3.4698432,8.4582,1.3801344,0.0,0.0,0.0,0.0
13.239999999999998,250.0661496,-23.0971344,-6.0725304,-37.6479816,0.0,0.0,0.0,0.0
13.260000000000002,249.8799168,-0.7589520000000001,-4.6628304,-48.842676000000004,0.0,0.0,0.0,0.0
13.280000000000001,249.6699096,-29.386377600000003,-0.3252216,16.3320984,0.0,0.0,0.0,0.0
13.3,249.51080399999998,-12.8497584,0.2709672,-16.945356,0.0,0.0,0.0,0.0
13.32,249.347736,13.554456,0.650748,-10.888065600000001,0.0,0.0,0.0,0.0
13.34,249.2651352,14.5304256,-0.5422392,-3.68046,0.0,0.0,0.0,0.0
13.36,249.3404208,17.458334400000002,5.5302912,-9.814560000000002,0.0,0.0,0.0,0.0
13.379999999999999,249.0974952,-14.58468,14.693188800000001,-49.7628672,0.0,0.0,0.0,0.0
13.399999999999999,248.9380848,-4.988052,-5.964021600000001,-21.086064000000004,0.0,0.0,0.0,0.0
13.420000000000002,248.8378056,-25.3200408,-24.1270536,-41.0983176,0.0,0.0,0.0,0.0
13.440000000000001,248.5479408,-42.5613576,-24.235562400000003,-121.9151232,0.0,0.0,0.0,0.0
13.46,248.39462640000002,18.976543200000002,-5.8555128,-20.165872800000002,0.0,0.0,0.0,0.0
13.48,248.3354952,15.4521408,-1.1387328,-15.948660000000002,0.0,0.0,0.0,0.0
13.5,248.2221096,14.205204,3.2531304000000003,-10.5046272,0.0,0.0,0.0,0.0
13.52,248.1709032,14.367967200000002,0.9217152000000001,-9.967874400000001,0.0,0.0,0.0,0.0
13.54,248.1084192,12.795504,2.6023824,-8.357616,0.0,0.0,0.0,0.0
13.559999999999999,248.0956176,10.8978192,4.8252888,-6.4407288000000005,0.0,0.0,0.0,0.0
13.579999999999998,248.00448240000003,8.4039456,5.6930544,-4.8304704,0.0,0.0,0.0,0.0
13.600000000000001,247.7969136,7.3194672,5.367528,-7.36092,0.0,0.0,0.0,0.0
13.620000000000001,247.5960504,7.210958400000001,5.1508152,-10.044684,0.0,0.0,0.0,0.0
13.64,247.2723528,8.3496912,4.445812800000001,-11.04138,0.0,0.0,0.0,0.0
13.66,247.09709279999998,10.247376,3.3073848000000003,-9.1244928,0.0,0.0,0.0,0.0
13.68,247.10776080000002,9.9218496,6.2349888,-14.0317728,0.0,0.0,0.0,0.0
13.7,247.10897999999997,10.735360799999999,6.614769600000001,-8.58774,0.0,0.0,0.0,0.0
13.719999999999999,247.1979816,13.0664712,6.343497600000001,-6.8241672,0.0,0.0,0.0,0.0
13.739999999999998,247.2001152,13.5005064,5.6930544,-7.437729600000001,0.0,0.0,0.0,0.0
13.760000000000002,247.2244992,18.163032,3.957828,-10.888065600000001,0.0,0.0,0.0,0.0
13.780000000000001,247.10897999999997,18.6510168,3.7953696000000003,-8.8943688,0.0,0.0,0.0,0.0
13.8,246.86270159999998,17.9463192,4.3915584,-10.3513128,0.0,0.0,0.0,0.0
13.82,246.6371496,14.58468,4.0663368,-6.594043200000001,0.0,0.0,0.0,0.0
13.84,246.4195224,17.1331128,2.0601432,-4.677156,0.0,0.0,0.0,0.0
13.86,246.37745999999999,15.506395200000002,0.0,-6.9009768,0.0,0.0,0.0,0.0
13.879999999999999,246.295164,14.8016976,-0.16276320000000002,-4.2172128,0.0,0.0,0.0,0.0
13.899999999999999,246.3661824,15.994380000000001,-1.1387328,-2.3768304000000002,0.0,0.0,0.0,0.0
13.920000000000002,246.41556,16.6993824,0.4337304,1.1500104,0.0,0.0,0.0,0.0
13.940000000000001,246.4411632,20.0607168,-0.5422392,1.8400776,0.0,0.0,0.0,0.0
13.96,246.47133839999998,20.982432000000003,-0.37947600000000004,0.15331440000000002,0.0,0.0,0.0,0.0
13.98,246.4664616,19.6269864,4.3376088,-3.2205168000000004,0.0,0.0,0.0,0.0
14.0,246.4439064,21.4161624,4.5000672,-2.8370784000000002,0.0,0.0,0.0,0.0
14.02,246.3798984,15.506395200000002,11.277295200000001,-6.5175384,0.0,0.0,0.0,0.0
14.04,246.28266720000002,19.4102736,5.205069600000001,-6.8241672,0.0,0.0,0.0,0.0
14.059999999999999,246.10649279999998,17.5668432,5.3132736,-8.5109304,0.0,0.0,0.0,0.0
14.079999999999998,245.7821856,17.3498256,5.964021600000001,-10.888065600000001,0.0,0.0,0.0,0.0
14.100000000000001,245.4405048,18.217286400000003,4.988052,-9.5079312,0.0,0.0,0.0,0.0
14.120000000000001,245.18172959999998,16.319601600000002,2.6566368,-11.7314472,0.0,0.0,0.0,0.0
14.14,244.8415728,16.8075864,3.6868608000000003,-7.591044000000001,0.0,0.0,0.0,0.0
14.16,244.6989264,16.8075864,3.2531304000000003,-11.654637600000001,0.0,0.0,0.0,0.0
14.18,244.7281872,15.994380000000001,3.198876,-11.3480088,0.0,0.0,0.0,0.0
14.2,244.81779840000002,16.6993824,6.8314824000000005,-8.817864,0.0,0.0,0.0,0.0
14.219999999999999,245.075964,18.488558400000002,6.018276,-8.6645496,0.0,0.0,0.0,0.0
14.239999999999998,245.38106879999998,17.1870624,6.343497600000001,-8.2043016,0.0,0.0,0.0,0.0
14.260000000000002,245.6517312,18.2715408,6.777228,-7.437729600000001,0.0,0.0,0.0,0.0
14.280000000000001,245.80047359999998,15.235428,5.801258400000001,-9.2778072,0.0,0.0,0.0,0.0
14.3,245.72214,14.205204,6.9399912,-8.6645496,0.0,0.0,0.0,0.0
14.32,245.4389808,15.3978864,3.4698432,-8.357616,0.0,0.0,0.0,0.0
14.34,245.2088568,15.0726648,2.4941784,-7.2841104,0.0,0.0,0.0,0.0
14.36,244.7870136,15.3978864,3.0361128,-7.437729600000001,0.0,0.0,0.0,0.0
14.379999999999999,244.384068,14.909901600000001,3.6326064,-5.827471200000001,0.0,0.0,0.0,0.0
14.399999999999999,244.0024584,16.5366192,3.957828,-4.2172128,0.0,0.0,0.0,0.0
14.420000000000002,243.5583648,17.9463192,4.933797600000001,-2.0702016,0.0,0.0,0.0,0.0
14.440000000000001,243.20845440000002,16.645128,2.2229064000000003,-5.750661600000001,0.0,0.0,0.0,0.0
