time,baro_altitude,accl_x,accl_y,accl_z,gps_altitude,gyro_roll,gyro_pitch,gyro_yaw
0.0,0.0,-4.2833544,5.476036800000001,-7.437729600000001,0.0,0.0,0.0,0.0
0.019999999999999574,-0.011887199999999978,-4.3376088,5.421782400000001,-7.2076056,0.0,0.0,0.0,0.0
0.040000000000000036,-0.0908304,-4.2833544,5.367528,-7.36092,0.0,0.0,0.0,0.0
0.05999999999999961,-0.0774192,-4.3376088,5.421782400000001,-7.2841104,0.0,0.0,0.0,0.0
0.08000000000000007,-0.12039599999999999,-4.3376088,5.421782400000001,-7.2841104,0.0,0.0,0.0,0.0
0.09999999999999964,-0.15483840000000001,-4.3376088,5.421782400000001,-7.2841104,0.0,0.0,0.0,0.0
0.1200000000000001,-0.2740152,-4.3376088,5.421782400000001,-7.2841104,0.0,0.0,0.0,0.0
0.13999999999999968,-0.2721864,-4.3915584,5.367528,-7.2841104,0.0,0.0,0.0,0.0
0.16000000000000014,-0.2258568,-4.2833544,5.367528,-7.2841104,0.0,0.0,0.0,0.0
0.17999999999999972,-0.16459200000000002,-4.2833544,5.367528,-7.2076056,0.0,0.0,0.0,0.0
0.20000000000000018,-0.2770632,-4.3915584,5.476036800000001,-7.36092,0.0,0.0,0.0,0.0
0.21999999999999975,-0.3898392,-4.3376088,5.421782400000001,-7.36092,0.0,0.0,0.0,0.0
0.23999999999999977,-0.27919679999999997,-4.3376088,5.3132736,-7.2841104,0.0,0.0,0.0,0.0
0.2599999999999998,-0.3557016,-4.3376088,5.421782400000001,-7.2841104,0.0,0.0,0.0,0.0
0.2799999999999998,-0.2715768,-4.3376088,5.421782400000001,-7.2841104,0.0,0.0,0.0,0.0
0.2999999999999998,-0.3919728,-4.2833544,5.367528,-7.2841104,0.0,0.0,0.0,0.0
0.31999999999999984,-0.4882896,-4.3376088,5.421782400000001,-7.2076056,0.0,0.0,0.0,0.0
0.33999999999999986,-0.32766,-4.3376088,5.421782400000001,-7.36092,0.0,0.0,0.0,0.0
0.3599999999999999,-0.1716024,-4.2833544,5.367528,-7.2076056,0.0,0.0,0.0,0.0
0.3799999999999999,-0.1286256,-4.3376088,5.421782400000001,-7.2841104,0.0,0.0,0.0,0.0
0.3999999999999999,-0.0673608,-4.3915584,5.476036800000001,-7.2841104,0.0,0.0,0.0,0.0
0.41999999999999993,-0.0710184,-4.3376088,5.421782400000001,-7.36092,0.0,0.0,0.0,0.0
0.43999999999999995,-0.3060192,-4.3915584,5.367528,-7.2076056,0.0,0.0,0.0,0.0
0.45999999999999996,-0.3233928,-4.3376088,5.421782400000001,-7.2841104,0.0,0.0,0.0,0.0
0.47999999999999954,-0.33588959999999995,-4.2833544,5.367528,-7.2841104,0.0,0.0,0.0,0.0
0.49999999999999956,-0.2523744,-4.3376088,5.421782400000001,-7.36092,0.0,0.0,0.0,0.0
0.5199999999999996,-0.179832,-4.3376088,5.421782400000001,-7.2841104,0.0,0.0,0.0,0.0
0.5399999999999996,-0.0938784,-4.2833544,5.367528,-7.2841104,0.0,0.0,0.0,0.0
0.5599999999999996,0.031089599999999995,-4.3376088,5.421782400000001,-7.36092,0.0,0.0,0.0,0.0
0.5799999999999996,0.05516880000000002,-4.3376088,5.421782400000001,-7.2841104,0.0,0.0,0.0,0.0
0.5999999999999996,-0.04236720000000001,-4.3915584,5.367528,-7.2841104,0.0,0.0,0.0,0.0
0.6199999999999997,-0.1100328,-4.3376088,5.421782400000001,-7.2841104,0.0,0.0,0.0,0.0
0.6399999999999997,-0.11429999999999998,-4.3915584,5.367528,-7.2841104,0.0,0.0,0.0,0.0
0.6599999999999997,-0.10149839999999999,-4.2833544,5.367528,-7.36092,0.0,0.0,0.0,0.0
0.6799999999999997,-0.04297680000000001,-4.3376088,5.421782400000001,-7.2841104,0.0,0.0,0.0,0.0
0.6999999999999997,-0.04846319999999998,-4.3376088,5.421782400000001,-7.36092,0.0,0.0,0.0,0.0
0.7199999999999998,-0.0710184,-4.2291,5.421782400000001,-7.36092,0.0,0.0,0.0,0.0
0.7399999999999998,0.043586400000000004,-4.2291,5.421782400000001,-7.2841104,0.0,0.0,0.0,0.0
0.7599999999999998,-0.11399519999999999,-4.2291,5.3132736,-7.2841104,0.0,0.0,0.0,0.0
0.7799999999999998,-0.1100328,-4.2833544,5.367528,-7.2841104,0.0,0.0,0.0,0.0
0.7999999999999998,-0.0743712,-4.2833544,5.367528,-7.2841104,0.0,0.0,0.0,0.0
0.8199999999999998,-0.1420368,-4.3376088,5.421782400000001,-7.2841104,0.0,0.0,0.0,0.0
0.8399999999999999,-0.1408176,-4.3376088,5.421782400000001,-7.2841104,0.0,0.0,0.0,0.0
0.8599999999999999,-0.15849600000000003,-4.3376088,5.421782400000001,-7.2841104,0.0,0.0,0.0,0.0
0.8799999999999999,-0.17068799999999998,-4.3915584,5.367528,-7.2841104,0.0,0.0,0.0,0.0
0.8999999999999999,-0.1642872,-4.2833544,5.367528,-7.2841104,0.0,0.0,0.0,0.0
0.9199999999999999,-0.1414272,-4.2833544,5.367528,-7.2841104,0.0,0.0,0.0,0.0
0.94,-0.19964400000000002,-4.2833544,5.367528,-7.437729600000001,0.0,0.0,0.0,0.0
0.96,-0.0402336,-4.3915584,5.476036800000001,-7.36092,0.0,0.0,0.0,0.0
0.9799999999999995,-0.15179040000000002,-4.3915584,5.367528,-7.2841104,0.0,0.0,0.0,0.0
0.9999999999999996,-0.19781520000000002,-4.3376088,5.421782400000001,-7.2076056,0.0,0.0,0.0,0.0
1.0199999999999996,-0.2426208,-4.2833544,5.367528,-7.2841104,0.0,0.0,0.0,0.0
1.0399999999999996,-0.20970239999999998,-4.3915584,5.476036800000001,-7.2841104,0.0,0.0,0.0,0.0
1.0599999999999996,-0.2993136,-4.2833544,5.367528,-7.2841104,0.0,0.0,0.0,0.0
1.0799999999999996,-0.2993136,-4.3376088,5.421782400000001,-7.36092,0.0,0.0,0.0,0.0
1.0999999999999996,-0.249936,-4.3376088,5.421782400000001,-7.36092,0.0,0.0,0.0,0.0
1.1199999999999997,-0.1786128,-4.2833544,5.367528,-7.36092,0.0,0.0,0.0,0.0
1.1399999999999997,-0.227076,-4.3376088,5.421782400000001,-7.36092,0.0,0.0,0.0,0.0
1.1599999999999997,-0.060959999999999986,-4.2833544,5.367528,-7.36092,0.0,0.0,0.0,0.0
1.1799999999999997,-0.138684,-4.3915584,5.476036800000001,-7.2841104,0.0,0.0,0.0,0.0
1.1999999999999997,-0.0862584,-4.3376088,5.421782400000001,-7.2841104,0.0,0.0,0.0,0.0
1.2199999999999998,-0.0667512,-4.3376088,5.421782400000001,-7.2841104,0.0,0.0,0.0,0.0
1.2399999999999998,0.049987200000000016,-4.2833544,5.476036800000001,-7.2841104,0.0,0.0,0.0,0.0
1.2599999999999998,0.10210800000000003,-4.2291,5.421782400000001,-7.2841104,0.0,0.0,0.0,0.0
1.2799999999999998,0.08778239999999998,-4.3376088,5.421782400000001,-7.36092,0.0,0.0,0.0,0.0
1.2999999999999998,0.0707136,-4.2833544,5.367528,-7.2841104,0.0,0.0,0.0,0.0
1.3199999999999998,0.10820400000000004,-4.3376088,5.3132736,-7.36092,0.0,0.0,0.0,0.0
1.3399999999999999,0.13898880000000002,-4.3376088,5.421782400000001,-7.2841104,0.0,0.0,0.0,0.0
1.3599999999999999,-0.09875519999999999,-4.3915584,5.367528,-7.2841104,0.0,0.0,0.0,0.0
1.38,-0.124968,-4.3376088,5.421782400000001,-7.2841104,0.0,0.0,0.0,0.0
1.4,-0.1764792,-4.3376088,5.3132736,-7.2841104,0.0,0.0,0.0,0.0
1.42,-0.280416,-4.2291,5.421782400000001,-7.2841104,0.0,0.0,0.0,0.0
1.44,-0.1347216,-4.3376088,5.421782400000001,-7.130796,0.0,0.0,0.0,0.0
1.46,-0.173736,-4.3376088,5.421782400000001,-7.2841104,0.0,0.0,0.0,0.0
1.4799999999999995,-0.2538984,-4.2833544,5.367528,-7.36092,0.0,0.0,0.0,0.0
1.4999999999999996,-0.353568,-4.2833544,5.367528,-7.2841104,0.0,0.0,0.0,0.0
1.5199999999999996,-0.30906720000000004,-4.3376088,5.421782400000001,-7.2841104,0.0,0.0,0.0,0.0
1.5399999999999996,-0.409956,-4.3376088,5.421782400000001,-7.130796,0.0,0.0,0.0,0.0
1.5599999999999996,-0.5096256,-4.3376088,5.3132736,-7.2841104,0.0,0.0,0.0,0.0
1.5799999999999996,-0.5172456000000001,-4.3376088,5.421782400000001,-7.36092,0.0,0.0,0.0,0.0
1.5999999999999996,-0.41696639999999996,-4.3376088,5.421782400000001,-7.2841104,0.0,0.0,0.0,0.0
1.6199999999999997,-0.32004000000000005,-4.3376088,5.421782400000001,-7.2841104,0.0,0.0,0.0,0.0
1.6399999999999997,-0.15819119999999998,-4.2833544,5.367528,-7.2841104,0.0,0.0,0.0,0.0
1.6599999999999997,-0.082296,-4.3376088,5.421782400000001,-7.2841104,0.0,0.0,0.0,0.0
1.6799999999999997,-0.0877824,-4.3376088,5.421782400000001,-7.2076056,0.0,0.0,0.0,0.0
1.6999999999999997,-0.1499616,-4.3376088,5.421782400000001,-7.2841104,0.0,0.0,0.0,0.0
1.7199999999999998,-0.1466088,-4.2833544,5.367528,-7.2841104,0.0,0.0,0.0,0.0
1.7399999999999998,-0.0850392,-4.3376088,5.421782400000001,-7.2076056,0.0,0.0,0.0,0.0
1.7599999999999998,-0.01584959999999998,-4.2833544,5.367528,-7.2841104,0.0,0.0,0.0,0.0
1.7799999999999998,0.0399288,-4.3376088,5.421782400000001,-7.2076056,0.0,0.0,0.0,0.0
1.7999999999999998,0.05242560000000002,-4.3376088,5.421782400000001,-7.437729600000001,0.0,0.0,0.0,0.0
1.8199999999999998,-0.033832799999999996,-4.2833544,5.367528,-7.2841104,0.0,0.0,0.0,0.0
1.8399999999999999,0.029260799999999993,-4.2291,5.421782400000001,-7.2841104,0.0,0.0,0.0,0.0
1.8599999999999999,-0.0688848,-4.2833544,5.367528,-7.2841104,0.0,0.0,0.0,0.0
1.88,-0.2810256,-4.2833544,5.367528,-7.36092,0.0,0.0,0.0,0.0
1.9,-0.4197096,-4.2833544,5.367528,-7.2841104,0.0,0.0,0.0,0.0
1.92,-0.4584192,-4.3376088,5.421782400000001,-7.36092,0.0,0.0,0.0,0.0
1.94,-0.4002024,-4.3376088,5.421782400000001,-7.2841104,0.0,0.0,0.0,0.0
1.96,-0.37368480000000004,-4.3376088,5.421782400000001,-7.2841104,0.0,0.0,0.0,0.0
1.9799999999999995,-0.20970239999999998,-4.2833544,5.367528,-7.2841104,0.0,0.0,0.0,0.0
1.9999999999999996,-0.23530560000000003,-4.2833544,5.367528,-7.36092,0.0,0.0,0.0,0.0
2.0199999999999996,-0.2106168,-4.3376088,5.421782400000001,-7.2841104,0.0,0.0,0.0,0.0
2.0399999999999996,-0.10668,-4.2833544,5.367528,-7.2841104,0.0,0.0,0.0,0.0
2.0599999999999996,0.08412480000000001,-4.3376088,5.421782400000001,-7.2841104,0.0,0.0,0.0,0.0
2.0799999999999996,0.0765048,-4.3915584,5.367528,-7.2841104,0.0,0.0,0.0,0.0
2.0999999999999996,-0.01584959999999998,-4.3376088,5.421782400000001,-7.2841104,0.0,0.0,0.0,0.0
2.1199999999999997,0.06644640000000003,-4.2833544,5.367528,-7.2841104,0.0,0.0,0.0,0.0
2.1399999999999997,0.08442960000000001,-4.2833544,5.367528,-7.2841104,0.0,0.0,0.0,0.0
2.1599999999999997,-0.09601199999999999,-4.3376088,5.421782400000001,-7.2841104,0.0,0.0,0.0,0.0
2.1799999999999997,-0.20543519999999998,-4.3376088,5.421782400000001,-7.2841104,0.0,0.0,0.0,0.0
2.1999999999999997,-0.219456,-4.3376088,5.421782400000001,-7.2841104,0.0,0.0,0.0,0.0
2.2199999999999998,-0.1365504,-4.2291,5.421782400000001,-7.36092,0.0,0.0,0.0,0.0
2.2399999999999998,-0.23530560000000003,-4.2833544,5.367528,-7.2841104,0.0,0.0,0.0,0.0
2.26,-0.2654808,-4.3376088,5.421782400000001,-7.36092,0.0,0.0,0.0,0.0
2.28,-0.3995928,-4.3376088,5.421782400000001,-7.2841104,0.0,0.0,0.0,0.0
2.3,-0.43494960000000005,-4.3376088,5.421782400000001,-7.2841104,0.0,0.0,0.0,0.0
2.32,-0.492252,-4.3915584,5.476036800000001,-7.2841104,0.0,0.0,0.0,0.0
2.34,-0.3023616,-4.2291,5.421782400000001,-7.36092,0.0,0.0,0.0,0.0
2.3599999999999994,-0.48707039999999996,-4.3915584,5.476036800000001,-7.2076056,0.0,0.0,0.0,0.0
2.38,-0.5602224,-4.2833544,5.367528,-7.2841104,0.0,0.0,0.0,0.0
2.3999999999999995,-0.6129528000000001,-4.2833544,5.367528,-7.2841104,0.0,0.0,0.0,0.0
2.42,-0.547116,-4.3915584,5.367528,-7.2841104,0.0,0.0,0.0,0.0
2.4399999999999995,-0.5541264,-4.3376088,5.421782400000001,-7.2841104,0.0,0.0,0.0,0.0
2.46,-0.5385816,-4.3376088,5.421782400000001,-7.36092,0.0,0.0,0.0,0.0
2.4799999999999995,-0.5754624,-4.3376088,5.421782400000001,-7.2841104,0.0,0.0,0.0,0.0
2.5,-0.4849368,-4.3915584,5.476036800000001,-7.2076056,0.0,0.0,0.0,0.0
2.5199999999999996,-0.356616,-4.3376088,5.421782400000001,-7.2841104,0.0,0.0,0.0,0.0
2.54,-0.2953512,-4.3376088,5.421782400000001,-7.2841104,0.0,0.0,0.0,0.0
2.5599999999999996,-0.26182320000000003,-4.3376088,5.421782400000001,-7.2076056,0.0,0.0,0.0,0.0
2.58,-0.219456,-4.3376088,5.421782400000001,-7.2841104,0.0,0.0,0.0,0.0
2.5999999999999996,-0.112776,-4.3376088,5.421782400000001,-7.2841104,0.0,0.0,0.0,0.0
2.6199999999999997,-0.1429512,-4.3915584,5.367528,-7.2076056,0.0,0.0,0.0,0.0
2.6399999999999997,-0.10149839999999999,-4.3376088,5.421782400000001,-7.2841104,0.0,0.0,0.0,0.0
2.6599999999999997,0.043891200000000005,-4.3376088,5.421782400000001,-7.2841104,0.0,0.0,0.0,0.0
2.6799999999999997,0.14478,-4.3376088,5.421782400000001,-7.2841104,0.0,0.0,0.0,0.0
2.6999999999999997,0.09997439999999999,-4.3915584,5.367528,-7.2841104,0.0,0.0,0.0,0.0
2.7199999999999998,-0.11460479999999999,-4.2291,5.3132736,-7.2841104,0.0,0.0,0.0,0.0
2.7399999999999998,-0.2843784,-4.3915584,5.367528,-7.36092,0.0,0.0,0.0,0.0
2.76,-0.0780288,-4.2833544,5.367528,-7.2841104,0.0,0.0,0.0,0.0
2.78,-0.008229600000000007,-4.2833544,5.367528,-7.2841104,0.0,0.0,0.0,0.0
2.8,-0.17190719999999998,-4.3915584,5.476036800000001,-7.2841104,0.0,0.0,0.0,0.0
2.82,-0.2173224,-4.2833544,5.367528,-7.2841104,0.0,0.0,0.0,0.0
2.84,-0.1563624,-4.2833544,5.367528,-7.2841104,0.0,0.0,0.0,0.0
2.8599999999999994,-0.1789176,-4.2833544,5.367528,-7.2841104,0.0,0.0,0.0,0.0
2.88,-0.1959864,-4.2833544,5.367528,-7.2841104,0.0,0.0,0.0,0.0
2.8999999999999995,-0.1179576,-4.3376088,5.421782400000001,-7.36092,0.0,0.0,0.0,0.0
2.92,-0.0917448,-4.3376088,5.421782400000001,-7.2841104,0.0,0.0,0.0,0.0
2.9399999999999995,-0.053339999999999985,-4.3376088,5.3132736,-7.36092,0.0,0.0,0.0,0.0
2.96,-0.1496568,-4.3376088,5.421782400000001,-7.2841104,0.0,0.0,0.0,0.0
2.9799999999999995,-0.07833359999999999,-4.445812800000001,5.421782400000001,-7.36092,0.0,0.0,0.0,0.0
3.0,-0.0755904,-4.3376088,5.5302912,-7.2841104,0.0,0.0,0.0,0.0
3.0199999999999996,-0.1002792,-4.2833544,5.476036800000001,-7.36092,0.0,0.0,0.0,0.0
3.04,-0.1298448,-4.2833544,5.367528,-7.36092,0.0,0.0,0.0,0.0
3.0599999999999996,-0.19903440000000003,-4.2833544,5.367528,-7.2076056,0.0,0.0,0.0,0.0
3.08,-0.23195280000000001,-4.3376088,5.421782400000001,-7.2841104,0.0,0.0,0.0,0.0
3.0999999999999996,-0.26182320000000003,-4.3376088,5.421782400000001,-7.2841104,0.0,0.0,0.0,0.0
3.1199999999999997,-0.2481072,-4.3915584,5.367528,-7.2841104,0.0,0.0,0.0,0.0
3.1399999999999997,-0.313944,-4.3376088,5.421782400000001,-7.2841104,0.0,0.0,0.0,0.0
3.1599999999999997,-0.2508504,-4.2833544,5.367528,-7.2841104,0.0,0.0,0.0,0.0
3.1799999999999997,-0.32979359999999996,-4.2833544,5.367528,-7.2841104,0.0,0.0,0.0,0.0
3.1999999999999997,-0.2170176,-4.2833544,5.367528,-7.36092,0.0,0.0,0.0,0.0
3.2199999999999998,-0.1959864,-4.2833544,5.367528,-7.437729600000001,0.0,0.0,0.0,0.0
3.2399999999999998,-0.2365248,-4.3376088,5.421782400000001,-7.2841104,0.0,0.0,0.0,0.0
3.26,-0.224028,-4.2833544,5.367528,-7.36092,0.0,0.0,0.0,0.0
3.28,-0.21336,-4.3915584,5.367528,-7.36092,0.0,0.0,0.0,0.0
3.3,-0.1551432,-4.3376088,5.421782400000001,-7.2076056,0.0,0.0,0.0,0.0
3.32,-0.12374879999999999,-4.3915584,5.367528,-7.36092,0.0,0.0,0.0,0.0
3.34,-0.11887199999999999,-4.3376088,5.421782400000001,-7.2841104,0.0,0.0,0.0,0.0
3.36,-0.2667,-4.2833544,5.367528,-7.2076056,0.0,0.0,0.0,0.0
3.38,-0.256032,-4.445812800000001,5.421782400000001,-7.2841104,0.0,0.0,0.0,0.0
3.4,-0.2785872,-4.445812800000001,5.421782400000001,-7.2841104,0.0,0.0,0.0,0.0
3.42,-0.1496568,-4.3376088,5.421782400000001,-7.2841104,0.0,0.0,0.0,0.0
3.4399999999999995,-0.2535936,-4.2833544,5.367528,-7.130796,0.0,0.0,0.0,0.0
3.46,-0.339852,-4.3376088,5.3132736,-7.2841104,0.0,0.0,0.0,0.0
3.4799999999999995,-0.46817280000000006,-4.3376088,5.421782400000001,-7.36092,0.0,0.0,0.0,0.0
3.5,-0.48524160000000005,-4.445812800000001,5.421782400000001,-7.2841104,0.0,0.0,0.0,0.0
3.5199999999999996,-0.36576000000000003,-4.3376088,5.421782400000001,-7.2841104,0.0,0.0,0.0,0.0
3.5399999999999996,-0.263652,-4.2833544,5.476036800000001,-7.2841104,0.0,0.0,0.0,0.0
3.5599999999999996,-0.24749759999999998,-4.3915584,5.367528,-7.2841104,0.0,0.0,0.0,0.0
3.5799999999999996,-0.16763999999999998,-4.3376088,5.421782400000001,-7.2076056,0.0,0.0,0.0,0.0
3.5999999999999996,-0.1481328,-4.2833544,5.367528,-7.2841104,0.0,0.0,0.0,0.0
3.6199999999999997,-0.181356,-4.2833544,5.367528,-7.2841104,0.0,0.0,0.0,0.0
3.6399999999999997,-0.2581656,-4.3376088,5.3132736,-7.2076056,0.0,0.0,0.0,0.0
3.6599999999999997,-0.11643359999999998,-4.3376088,5.421782400000001,-7.2841104,0.0,0.0,0.0,0.0
3.6799999999999997,-0.224028,-4.2291,5.3132736,-7.36092,0.0,0.0,0.0,0.0
3.6999999999999997,-0.32735519999999996,-4.3376088,5.421782400000001,-7.2076056,0.0,0.0,0.0,0.0
3.7199999999999998,-0.2667,-4.2833544,5.367528,-7.2841104,0.0,0.0,0.0,0.0
3.7399999999999998,-0.2679192,-4.3915584,5.476036800000001,-7.2841104,0.0,0.0,0.0,0.0
3.76,-0.086868,-4.3915584,5.476036800000001,-7.2841104,0.0,0.0,0.0,0.0
3.78,-0.057911999999999984,-4.3376088,5.421782400000001,-7.2841104,0.0,0.0,0.0,0.0
3.8,-0.15849600000000003,-4.3376088,5.421782400000001,-7.2841104,0.0,0.0,0.0,0.0
3.82,-0.2526792,-4.3376088,5.421782400000001,-7.2841104,0.0,0.0,0.0,0.0
3.84,-0.3755136,-5.205069600000001,5.5302912,-8.5109304,0.0,0.0,0.0,0.0
3.86,-0.37825680000000006,-4.1748456,4.933797600000001,-6.4407288000000005,0.0,0.0,0.0,0.0
3.88,-0.3233928,-4.445812800000001,5.638800000000001,-7.9744824,0.0,0.0,0.0,0.0
3.9,-0.39075360000000003,-4.988052,5.205069600000001,-7.36092,0.0,0.0,0.0,0.0
3.92,-0.4255008,-4.445812800000001,5.5302912,-7.9744824,0.0,0.0,0.0,0.0
3.9399999999999995,-0.2551176,-4.608576,4.5000672,-8.1277968,0.0,0.0,0.0,0.0
3.96,-0.0691896,-4.5000672,5.476036800000001,-8.741054400000001,0.0,0.0,0.0,0.0
3.9799999999999995,-0.1200912,-3.957828,5.9097672,-6.1341,0.0,0.0,0.0,0.0
3.9999999999999996,-0.06217919999999999,-4.0663368,5.0423064,-6.1341,0.0,0.0,0.0,0.0
4.02,-0.153924,-4.2833544,5.476036800000001,-7.0542912,0.0,0.0,0.0,0.0
4.04,-0.11765279999999999,-4.554321600000001,5.421782400000001,-7.8208632,0.0,0.0,0.0,0.0
4.06,-0.37703760000000003,-4.2291,5.421782400000001,-7.744358400000001,0.0,0.0,0.0,0.0
4.08,-0.405384,-4.988052,5.205069600000001,-8.58774,0.0,0.0,0.0,0.0
4.1,-0.376428,-4.5000672,5.476036800000001,-8.1277968,0.0,0.0,0.0,0.0
4.12,-0.3160776,-4.8252888,5.801258400000001,-7.9744824,0.0,0.0,0.0,0.0
4.14,-0.397764,-4.7713392,5.638800000000001,-6.9774816,0.0,0.0,0.0,0.0
4.16,-0.3380232,-4.554321600000001,5.7470040000000004,-7.130796,0.0,0.0,0.0,0.0
4.18,-0.30449519999999997,-7.3737216000000005,8.566404,-10.5046272,0.0,0.0,0.0,0.0
4.2,-0.23469600000000002,-9.108643200000001,9.867595200000002,-13.6483344,0.0,0.0,0.0,0.0
4.22,-0.2173224,-11.6028216,12.795504,-16.7920416,0.0,0.0,0.0,0.0
4.239999999999999,-0.1551432,-12.2532648,14.096695200000001,-19.0923672,0.0,0.0,0.0,0.0
4.26,-0.1578864,-14.58468,15.560649600000001,-21.852636,0.0,0.0,0.0,0.0
4.279999999999999,-0.1908048,-14.421916800000002,16.9160952,-23.539704000000004,0.0,0.0,0.0,0.0
4.3,-0.1271016,-17.6750472,19.7354952,-23.0029512,0.0,0.0,0.0,0.0
4.319999999999999,-0.16916399999999998,-19.1390016,9.813645600000001,-36.421161600000005,0.0,0.0,0.0,0.0
4.34,-0.09509759999999999,-18.3257952,24.181307999999998,-30.593690400000003,0.0,0.0,0.0,0.0
4.359999999999999,0.10027920000000003,-23.856086400000002,22.9886256,-32.894016,0.0,0.0,0.0,0.0
4.38,0.1255776,-34.5911424,29.603090400000003,-31.360567200000002,0.0,0.0,0.0,0.0
4.3999999999999995,0.08808720000000002,-30.2538384,32.964729600000005,-32.7407016,0.0,0.0,0.0,0.0
4.42,0.23134320000000003,-22.771608,21.687434400000004,-45.4691496,0.0,0.0,0.0,0.0
4.4399999999999995,-0.8683752000000001,-26.133247200000003,28.518916800000003,-41.4052512,0.0,0.0,0.0,0.0
4.46,-2.3686008000000003,-42.34434,44.6218056,-51.756564000000004,0.0,0.0,0.0,0.0
4.4799999999999995,-1.7483328,-38.4407664,30.199584,-47.46254160000001,0.0,0.0,0.0,0.0
4.5,-0.8189976,-30.796077600000004,41.7481512,-43.8588912,0.0,0.0,0.0,0.0
4.52,0.006096000000000006,-32.964729600000005,30.036820800000005,-39.7949928,0.0,0.0,0.0,0.0
4.54,0.7595616000000001,-27.4344384,34.5911424,-40.254936,0.0,0.0,0.0,0.0
4.56,1.5355824000000002,-27.380184,28.5731712,-36.421161600000005,0.0,0.0,0.0,0.0
4.58,2.3402544,-26.4042144,30.7418232,-34.581084000000004,0.0,0.0,0.0,0.0
4.6,2.9913072,-26.7836904,27.8681688,-36.0377232,0.0,0.0,0.0,0.0
4.62,3.4616136,-25.3200408,28.4646624,-33.4307688,0.0,0.0,0.0,0.0
4.64,4.088282400000001,-24.9405648,27.109216800000002,-32.5873872,0.0,0.0,0.0,0.0
4.66,4.5058584,-24.072799200000002,27.109216800000002,-32.4340728,0.0,0.0,0.0,0.0
4.68,4.877409600000001,-24.072799200000002,25.6995168,-31.590691200000002,0.0,0.0,0.0,0.0
4.699999999999999,5.221224000000001,-23.151084,26.2960104,-31.437376800000003,0.0,0.0,0.0,0.0
4.72,5.565648,-22.9343712,25.753771200000003,-30.5171856,0.0,0.0,0.0,0.0
4.74,6.0216288,-22.392132000000004,25.86228,-29.980432800000003,0.0,0.0,0.0,0.0
4.76,6.3389256000000005,-22.0669104,25.4282448,-29.827118400000003,0.0,0.0,0.0,0.0
4.779999999999999,6.767474400000001,-21.849892800000003,24.560784,-28.9837368,0.0,0.0,0.0,0.0
4.8,7.205472,-21.958401600000002,24.560784,-29.1370512,0.0,0.0,0.0,0.0
4.819999999999999,7.348728000000001,-21.741384,24.235562400000003,-29.1370512,0.0,0.0,0.0,0.0
4.84,7.818120000000001,-21.1451952,24.2898168,-27.603602400000003,0.0,0.0,0.0,0.0
4.859999999999999,8.4341208,-20.6572104,23.6933232,-27.526792800000003,0.0,0.0,0.0,0.0
4.88,8.958376800000002,-20.982432000000003,23.6933232,-26.8367256,0.0,0.0,0.0,0.0
4.8999999999999995,9.297924000000002,-20.8199736,24.5065296,-27.220164000000004,0.0,0.0,0.0,0.0
4.92,9.8063304,-20.9281776,24.2898168,-27.1433544,0.0,0.0,0.0,0.0
4.9399999999999995,10.346131200000002,-20.1149712,23.4766104,-27.066849600000005,0.0,0.0,0.0,0.0
4.96,10.947806400000001,-20.440192800000002,23.04288,-26.5300968,0.0,0.0,0.0,0.0
4.9799999999999995,11.467795200000001,-20.6572104,23.801832,-26.299972800000003,0.0,0.0,0.0,0.0
5.0,11.9850408,-19.518477600000004,23.747577600000003,-26.6066016,0.0,0.0,0.0,0.0
5.02,12.5955552,-18.8680344,23.2053384,-25.8400296,0.0,0.0,0.0,0.0
5.04,13.2414264,-19.0847472,23.5308648,-26.069848800000003,0.0,0.0,0.0,0.0
5.06,13.87602,-18.5967624,23.04288,-25.303276800000003,0.0,0.0,0.0,0.0
5.08,14.606625600000003,-18.7595256,22.012656,-25.3797816,0.0,0.0,0.0,0.0
5.1,15.331440000000002,-18.542508,22.4463864,-25.609905600000005,0.0,0.0,0.0,0.0
5.12,16.0867344,-17.9463192,22.9343712,-24.996343200000002,0.0,0.0,0.0,0.0
5.14,16.867936800000003,-18.000573600000003,22.337877600000002,-26.759916,0.0,0.0,0.0,0.0
5.16,17.5890936,-17.9463192,22.2836232,-24.6132096,0.0,0.0,0.0,0.0
5.18,18.1855872,-17.837810400000002,22.5006408,-24.1529616,0.0,0.0,0.0,0.0
5.199999999999999,18.7662312,-18.2715408,21.958401600000002,-25.1496576,0.0,0.0,0.0,0.0
5.22,19.3950336,-17.6210976,21.849892800000003,-23.4628944,0.0,0.0,0.0,0.0
5.24,20.126248800000003,-17.8920648,22.1211648,-23.693018400000003,0.0,0.0,0.0,0.0
5.26,20.9729832,-17.3498256,21.7956384,-23.30958,0.0,0.0,0.0,0.0
5.279999999999999,21.72462,-17.8920648,21.5789256,-24.076456800000003,0.0,0.0,0.0,0.0
5.3,22.5314256,-17.5668432,20.711464799999998,-22.08276,0.0,0.0,0.0,0.0
5.32,23.330001600000003,-17.9463192,21.4161624,-23.2327704,0.0,0.0,0.0,0.0
5.34,24.1352832,-17.1870624,21.4161624,-22.6195128,0.0,0.0,0.0,0.0
5.359999999999999,24.941479200000003,-17.2955712,21.63318,-22.8496368,0.0,0.0,0.0,0.0
5.38,25.7863848,-15.8858712,20.982432000000003,-21.622816800000003,0.0,0.0,0.0,0.0
5.3999999999999995,26.6236704,-16.1571432,20.3859384,-22.389388800000003,0.0,0.0,0.0,0.0
5.42,27.2671032,-16.102888800000002,20.8739232,-22.8496368,0.0,0.0,0.0,0.0
5.4399999999999995,28.0754328,-15.6691584,20.765719200000003,-22.772827200000002,0.0,0.0,0.0,0.0
5.46,28.844748000000003,-16.1571432,21.253704000000003,-21.852636,0.0,0.0,0.0,0.0
5.4799999999999995,29.696664000000002,-15.0726648,20.9281776,-22.08276,0.0,0.0,0.0,0.0
5.5,30.5888136,-15.3978864,20.9281776,-21.622816800000003,0.0,0.0,0.0,0.0
5.52,31.405068,-15.560649600000001,20.3319888,-21.5460072,0.0,0.0,0.0,0.0
5.54,32.357263200000006,-15.235428,20.1149712,-20.932749600000005,0.0,0.0,0.0,0.0
5.56,33.2134464,-15.018410400000002,19.247510400000003,-21.1625688,0.0,0.0,0.0,0.0
5.58,34.0053168,-15.343632000000001,20.440192800000002,-20.3959968,0.0,0.0,0.0,0.0
5.6,34.9221552,-16.102888800000002,20.3319888,-20.779130400000003,0.0,0.0,0.0,0.0
5.619999999999999,35.786872800000005,-14.909901600000001,20.22348,-21.086064000000004,0.0,0.0,0.0,0.0
5.64,36.6412272,-15.0726648,19.952208,-20.242377600000005,0.0,0.0,0.0,0.0
5.66,37.4367552,-15.6691584,19.6812408,-19.935748800000002,0.0,0.0,0.0,0.0
5.68,38.302387200000005,-13.988186400000002,20.711464799999998,-20.089063200000002,0.0,0.0,0.0,0.0
5.699999999999999,39.236903999999996,-13.608710400000001,20.765719200000003,-20.7026256,0.0,0.0,0.0,0.0
5.72,40.063521599999994,-14.909901600000001,19.789749600000004,-20.319187200000002,0.0,0.0,0.0,0.0
5.74,41.001695999999995,-13.8799824,20.0607168,-19.935748800000002,0.0,0.0,0.0,0.0
5.76,41.8755576,-13.229234400000001,19.844004,-20.0125584,0.0,0.0,0.0,0.0
5.779999999999999,42.7658784,-13.608710400000001,20.006462400000004,-20.319187200000002,0.0,0.0,0.0,0.0
5.8,43.734227999999995,-13.554456,19.952208,-20.242377600000005,0.0,0.0,0.0,0.0
5.82,44.6833752,-13.554456,19.0847472,-19.4758056,0.0,0.0,0.0,0.0
5.84,45.67488959999999,-13.9342368,19.898258400000003,-20.165872800000002,0.0,0.0,0.0,0.0
5.859999999999999,46.8617808,-12.0908064,20.22348,-19.0158624,0.0,0.0,0.0,0.0
5.88,47.9048064,-13.3377432,19.518477600000004,-19.4758056,0.0,0.0,0.0,0.0
5.8999999999999995,48.8179872,-12.5787912,18.1087776,-19.859244,0.0,0.0,0.0,0.0
5.92,49.8747288,-12.4702824,18.976543200000002,-18.708928800000002,0.0,0.0,0.0,0.0
5.9399999999999995,50.9156208,-11.4943128,18.6510168,-19.1691768,0.0,0.0,0.0,0.0
5.96,51.935786400000005,-12.7412496,18.81378,-18.785738400000003,0.0,0.0,0.0,0.0
5.9799999999999995,53.047696800000004,-13.012521600000001,19.6269864,-17.405604,0.0,0.0,0.0,0.0
6.0,54.0221424,-12.524536800000002,18.705271200000002,-18.3254904,0.0,0.0,0.0,0.0
6.02,54.936847199999995,-12.6327408,17.6210976,-18.0956712,0.0,0.0,0.0,0.0
6.04,55.93110479999999,-12.361773600000001,18.7595256,-17.7887376,0.0,0.0,0.0,0.0
6.06,57.0347856,-12.4702824,17.5668432,-18.5556144,0.0,0.0,0.0,0.0
6.08,58.1140824,-11.6028216,19.193256,-16.5622224,0.0,0.0,0.0,0.0
6.1,59.044332,-12.199010400000002,17.729301600000003,-17.6354232,0.0,0.0,0.0,0.0
6.119999999999999,60.147098400000004,-11.385804,19.518477600000004,-19.0158624,0.0,0.0,0.0,0.0
6.14,61.1258112,-11.6028216,18.8680344,-16.0254696,0.0,0.0,0.0,0.0
6.16,62.1383568,-11.3315496,16.970349600000002,-17.3287944,0.0,0.0,0.0,0.0
6.18,63.171933599999996,-11.277295200000001,18.542508,-16.945356,0.0,0.0,0.0,0.0
6.199999999999999,64.3405368,-10.789310400000002,18.163032,-17.5589184,0.0,0.0,0.0,0.0
6.22,65.4853656,-11.1690912,18.542508,-17.0986704,0.0,0.0,0.0,0.0
6.24,66.57746399999999,-10.0846128,17.2413168,-16.8688512,0.0,0.0,0.0,0.0
6.26,67.7637456,-10.789310400000002,17.2955712,-16.4086032,0.0,0.0,0.0,0.0
6.279999999999999,68.886324,-10.138867200000002,17.512588800000003,-16.6387272,0.0,0.0,0.0,0.0
6.3,70.032372,-10.5183432,17.6750472,-16.3320984,0.0,0.0,0.0,0.0
6.32,71.13148079999999,-10.4640888,17.729301600000003,-16.5622224,0.0,0.0,0.0,0.0
6.34,72.41225039999999,-11.0605824,17.8920648,-16.5622224,0.0,0.0,0.0,0.0
6.359999999999999,73.7003352,-10.626852000000001,18.217286400000003,-15.1817832,0.0,0.0,0.0,0.0
6.38,74.83571520000001,-10.3013256,17.3498256,-14.8751544,0.0,0.0,0.0,0.0
6.4,76.0162056,-9.217152,16.6993824,-15.642031200000002,0.0,0.0,0.0,0.0
6.42,77.3512296,-10.193121600000001,18.7595256,-15.488716800000002,0.0,0.0,0.0,0.0
6.4399999999999995,78.5701248,-9.0543888,16.5366192,-14.108277600000001,0.0,0.0,0.0,0.0
6.46,79.7917632,-9.3256608,17.024604,-15.105278400000001,0.0,0.0,0.0,0.0
6.4799999999999995,81.06247440000001,-9.0543888,17.837810400000002,-14.8751544,0.0,0.0,0.0,0.0
6.5,82.2902088,-8.4039456,17.0788584,-14.72184,0.0,0.0,0.0,0.0
6.52,83.44296240000001,-7.5364848,16.319601600000002,-15.0284688,0.0,0.0,0.0,0.0
6.539999999999999,84.57803760000002,-10.626852000000001,18.434304,-15.4119072,0.0,0.0,0.0,0.0
6.56,85.6948248,-9.7593912,15.614904,-12.651638400000001,0.0,0.0,0.0,0.0
6.58,86.86860960000001,-7.3737216000000005,15.3978864,-14.2618968,0.0,0.0,0.0,0.0
6.6,88.088724,-8.4039456,15.994380000000001,-15.488716800000002,0.0,0.0,0.0,0.0
6.619999999999999,89.431368,-10.4098344,16.1571432,-13.49502,0.0,0.0,0.0,0.0
6.64,90.83283840000001,-8.6749128,15.506395200000002,-14.4152112,0.0,0.0,0.0,0.0
6.66,92.107512,-7.915960800000001,15.9401256,-13.264896000000002,0.0,0.0,0.0,0.0
6.68,93.3974256,-8.837676,15.994380000000001,-13.571829600000001,0.0,0.0,0.0,0.0
6.699999999999999,94.65015360000001,-7.5904344,16.590873600000002,-12.421514400000001,0.0,0.0,0.0,0.0
6.72,95.96841360000002,-6.397752,15.9401256,-13.9549632,0.0,0.0,0.0,0.0
6.74,97.24339200000001,-7.4822304,16.0486344,-10.3513128,0.0,0.0,0.0,0.0
6.76,98.49337680000001,-8.94588,16.4281104,-12.8817624,0.0,0.0,0.0,0.0
6.779999999999999,99.77140320000001,-9.4338648,16.2653472,-10.3513128,0.0,0.0,0.0,0.0
6.8,101.061012,-10.0303584,15.1269192,-14.185087200000002,0.0,0.0,0.0,0.0
6.82,102.2780784,-9.217152,16.482364800000003,-13.0350768,0.0,0.0,0.0,0.0
6.84,103.4027904,-7.4822304,14.313712800000001,-12.421514400000001,0.0,0.0,0.0,0.0
6.859999999999999,104.57688000000002,-8.0784192,15.1269192,-12.1913904,0.0,0.0,0.0,0.0
6.88,105.76651440000002,-7.8617064,14.259458400000002,-12.804952800000002,0.0,0.0,0.0,0.0
6.9,106.96620720000001,-7.8617064,13.0664712,-11.9615712,0.0,0.0,0.0,0.0
6.92,108.2015616,-7.3194672,15.8858712,-10.811256,0.0,0.0,0.0,0.0
6.9399999999999995,109.4649576,-6.9942456,15.994380000000001,-12.8817624,0.0,0.0,0.0,0.0
6.96,110.81430720000002,-7.5364848,14.367967200000002,-10.5046272,0.0,0.0,0.0,0.0
6.9799999999999995,112.08318960000001,-7.427976000000001,17.2955712,-12.8817624,0.0,0.0,0.0,0.0
7.0,113.3432328,-8.7834216,16.482364800000003,-12.1913904,0.0,0.0,0.0,0.0
7.02,114.59047440000002,-5.9097672,16.753332,-10.657941600000001,0.0,0.0,0.0,0.0
7.039999999999999,115.9008096,-8.6749128,16.590873600000002,-10.9645704,0.0,0.0,0.0,0.0
7.06,117.15506160000001,-6.343497600000001,15.777667200000002,-12.7281432,0.0,0.0,0.0,0.0
7.08,118.46143440000002,-6.343497600000001,15.235428,-12.2682,0.0,0.0,0.0,0.0
7.1,119.7431184,-7.5364848,16.5366192,-9.814560000000002,0.0,0.0,0.0,0.0
7.119999999999999,121.05589200000001,-5.964021600000001,14.747443200000001,-12.958267200000002,0.0,0.0,0.0,0.0
7.14,122.33605200000001,-6.1267848,15.343632000000001,-11.5781328,0.0,0.0,0.0,0.0
7.16,123.63907200000001,-8.241182400000001,13.988186400000002,-11.3480088,0.0,0.0,0.0,0.0
7.18,124.92441360000001,-6.018276,14.476171200000001,-12.498324000000002,0.0,0.0,0.0,0.0
7.199999999999999,126.1957344,-5.3132736,15.506395200000002,-12.8817624,0.0,0.0,0.0,0.0
7.22,127.43992800000001,-4.445812800000001,12.795504,-8.1277968,0.0,0.0,0.0,0.0
7.24,128.6505936,1.7349216,7.3737216000000005,-1.8400776,0.0,0.0,0.0,0.0
7.26,129.9889704,8.241182400000001,0.3252216,9.1244928,0.0,0.0,0.0,0.0
7.279999999999999,131.32460400000002,8.4582,-3.4698432,8.741054400000001,0.0,0.0,0.0,0.0
7.3,132.5913528,10.789310400000002,-3.8496240000000004,11.1181896,0.0,0.0,0.0,0.0
7.32,133.8431664,9.4338648,-5.421782400000001,11.8082568,0.0,0.0,0.0,0.0
7.34,135.1083912,9.5423736,-5.5302912,12.038076,0.0,0.0,0.0,0.0
7.359999999999999,136.39159920000003,9.6508824,-4.3376088,11.3480088,0.0,0.0,0.0,0.0
7.38,137.80008,8.837676,-4.3915584,11.5781328,0.0,0.0,0.0,0.0
7.4,139.2771408,9.976104,-4.120591200000001,10.5046272,0.0,0.0,0.0,0.0
7.42,140.85813840000003,9.5423736,-3.6868608000000003,11.8847616,0.0,0.0,0.0,0.0
7.4399999999999995,142.54368240000002,10.8978192,-4.933797600000001,10.3513128,0.0,0.0,0.0,0.0
7.46,144.17192400000002,9.5423736,-3.2531304000000003,10.811256,0.0,0.0,0.0,0.0
7.4799999999999995,145.76206560000003,9.7051368,-3.8496240000000004,10.1979984,0.0,0.0,0.0,0.0
7.5,147.2525376,10.5725976,-3.4158936000000004,10.734751200000002,0.0,0.0,0.0,0.0
7.52,148.7725752,9.7593912,-3.3616392,9.5079312,0.0,0.0,0.0,0.0
7.539999999999999,150.21306,8.7834216,-3.6868608000000003,10.5046272,0.0,0.0,0.0,0.0
7.56,151.4752368,8.4582,-4.2291,9.4311216,0.0,0.0,0.0,0.0
7.58,152.6584704,8.7834216,-3.578352,10.428122400000001,0.0,0.0,0.0,0.0
7.6,153.8365224,7.5364848,-3.8496240000000004,10.3513128,0.0,0.0,0.0,0.0
7.619999999999999,154.9975056,8.1326736,-3.6868608000000003,10.3513128,0.0,0.0,0.0,0.0
7.64,156.121608,7.6446888,-2.8736544000000004,9.4311216,0.0,0.0,0.0,0.0
7.66,157.23199440000002,8.0784192,-3.7411152,9.2013024,0.0,0.0,0.0,0.0
7.68,158.41218,7.3194672,-4.2833544,8.817864,0.0,0.0,0.0,0.0
7.699999999999999,159.5167752,7.8617064,-3.5240976,9.3546168,0.0,0.0,0.0,0.0
7.72,160.62807600000002,8.024164800000001,-3.2531304000000003,9.3546168,0.0,0.0,0.0,0.0
7.74,161.6067888,8.024164800000001,-3.4698432,9.4311216,0.0,0.0,0.0,0.0
7.76,162.6318312,7.753197600000001,-3.5240976,8.6645496,0.0,0.0,0.0,0.0
7.779999999999999,163.7083848,7.4822304,-3.2531304000000003,9.047683200000002,0.0,0.0,0.0,0.0
7.8,164.787072,7.3737216000000005,-3.578352,7.9744824,0.0,0.0,0.0,0.0
7.82,165.77127120000003,6.8314824000000005,-3.6868608000000003,8.5109304,0.0,0.0,0.0,0.0
7.84,166.78960800000002,6.506260800000001,-3.6868608000000003,8.050987200000002,0.0,0.0,0.0,0.0
7.859999999999999,167.6973024,7.3737216000000005,-3.3616392,7.8208632,0.0,0.0,0.0,0.0
7.88,168.6309048,6.885736800000001,-2.7651456,8.2811112,0.0,0.0,0.0,0.0
7.9,169.5629832,6.7229735999999995,-2.6023824,8.2811112,0.0,0.0,0.0,0.0
7.92,170.47646880000002,6.506260800000001,-3.3616392,7.5142344,0.0,0.0,0.0,0.0
7.9399999999999995,171.36618,6.1267848,-3.3073848000000003,7.2841104,0.0,0.0,0.0,0.0
7.96,172.2952104,5.259324,-3.4158936000000004,8.6645496,0.0,0.0,0.0,0.0
7.9799999999999995,173.2623408,6.2892432000000005,-2.9279088,7.9744824,0.0,0.0,0.0,0.0
8.0,174.3574872,6.018276,-2.3314152,7.8976728000000005,0.0,0.0,0.0,0.0
8.02,175.44105120000003,5.964021600000001,-2.1686520000000002,7.6675488,0.0,0.0,0.0,0.0
8.04,176.4484152,7.048500000000001,-2.0601432,6.9009768,0.0,0.0,0.0,0.0
8.059999999999999,177.49784160000002,6.2349888,-2.7651456,6.8241672,0.0,0.0,0.0,0.0
8.08,178.48844160000002,6.5605152,-2.4399240000000004,7.36092,0.0,0.0,0.0,0.0
8.1,179.36992320000002,6.397752,-2.7108912000000003,6.8241672,0.0,0.0,0.0,0.0
8.12,180.301392,5.096560800000001,-3.0361128,6.8241672,0.0,0.0,0.0,0.0
8.14,181.26151200000004,5.5845456,-2.8736544000000004,6.2109096,0.0,0.0,0.0,0.0
8.16,182.22742320000003,4.445812800000001,-2.1686520000000002,6.9774816,0.0,0.0,0.0,0.0
8.18,183.16285440000001,5.7470040000000004,-2.7108912000000003,6.1341,0.0,0.0,0.0,0.0
8.2,184.0845696,4.7713392,-3.3616392,6.2109096,0.0,0.0,0.0,0.0
8.219999999999999,184.94532480000004,5.0423064,-2.1143976,6.594043200000001,0.0,0.0,0.0,0.0
8.239999999999998,185.7944976,5.3132736,-2.1686520000000002,5.750661600000001,0.0,0.0,0.0,0.0
8.26,186.7046304,4.933797600000001,-2.0061936,6.594043200000001,0.0,0.0,0.0,0.0
8.28,187.50107280000003,5.1508152,-2.8736544000000004,5.4440328000000004,0.0,0.0,0.0,0.0
8.3,188.3566464,5.5302912,-2.8194000000000004,5.9807856,0.0,0.0,0.0,0.0
8.32,189.10005360000002,5.3132736,-2.6023824,5.2907184,0.0,0.0,0.0,0.0
8.34,189.89131440000003,5.259324,-3.0903671999999998,6.0572904,0.0,0.0,0.0,0.0
8.36,190.7801112,4.7170848,-1.1387328,5.4440328000000004,0.0,0.0,0.0,0.0
8.379999999999999,191.6149584,5.1508152,-2.7651456,4.984089600000001,0.0,0.0,0.0,0.0
8.399999999999999,192.508632,4.7170848,-2.1143976,5.597347200000001,0.0,0.0,0.0,0.0
8.42,193.35810960000003,5.1508152,-1.8976848000000002,4.984089600000001,0.0,0.0,0.0,0.0
8.44,194.11218480000002,4.3915584,-1.789176,5.060594400000001,0.0,0.0,0.0,0.0
8.46,194.98909440000003,4.3915584,-2.1143976,5.060594400000001,0.0,0.0,0.0,0.0
8.48,195.7693824,3.9035736000000005,-2.1686520000000002,5.597347200000001,0.0,0.0,0.0,0.0
8.5,196.5953904,4.6628304,-2.2771608000000003,4.677156,0.0,0.0,0.0,0.0
8.52,197.3467224,4.0663368,-2.4399240000000004,4.6006512,0.0,0.0,0.0,0.0
8.54,198.12640080000003,3.3073848000000003,-1.789176,5.903976000000001,0.0,0.0,0.0,0.0
8.559999999999999,198.95515200000003,3.8496240000000004,-1.8976848000000002,4.523841600000001,0.0,0.0,0.0,0.0
8.58,199.7220288,3.9035736000000005,-1.8434304000000001,4.907280000000001,0.0,0.0,0.0,0.0
8.6,200.44684320000002,3.9035736000000005,-2.0601432,4.907280000000001,0.0,0.0,0.0,0.0
8.620000000000001,201.24359040000002,3.957828,-1.6806672000000002,5.060594400000001,0.0,0.0,0.0,0.0
8.64,202.054968,3.4158936000000004,-1.4639544,4.7539656,0.0,0.0,0.0,0.0
8.66,202.81026240000003,3.7953696000000003,-2.3856696,4.4473368,0.0,0.0,0.0,0.0
8.68,203.5978656,3.3073848000000003,-2.1143976,4.370527200000001,0.0,0.0,0.0,0.0
8.7,204.333348,4.012082400000001,-1.6264128000000002,4.677156,0.0,0.0,0.0,0.0
8.719999999999999,204.9996408,3.7411152,-1.789176,4.2172128,0.0,0.0,0.0,0.0
8.739999999999998,205.80888480000002,3.7953696000000003,-1.5182088,4.1404032,0.0,0.0,0.0,0.0
8.76,206.62087200000002,3.4698432,-2.0601432,3.7572696000000003,0.0,0.0,0.0,0.0
8.78,207.3578784,3.0361128,-1.7349216,4.2172128,0.0,0.0,0.0,0.0
8.8,208.0509936,3.6868608000000003,-1.9519392,3.910584,0.0,0.0,0.0,0.0
8.82,208.7764176,3.4158936000000004,-1.789176,3.450336,0.0,0.0,0.0,0.0
8.84,209.4887352,3.3616392,-0.9759696,4.0638984,0.0,0.0,0.0,0.0
8.86,210.2714616,3.3616392,-1.5182088,3.8337744,0.0,0.0,0.0,0.0
8.879999999999999,210.94628880000002,2.9818584,-1.3554456000000001,4.0638984,0.0,0.0,0.0,0.0
8.899999999999999,211.62477360000003,2.8736544000000004,-1.1387328,4.0638984,0.0,0.0,0.0,0.0
8.92,212.2761312,2.7651456,-1.4639544,3.6036504000000003,0.0,0.0,0.0,0.0
8.94,212.95857840000002,2.8194000000000004,-1.7349216,3.2970216000000003,0.0,0.0,0.0,0.0
8.96,213.57793200000003,2.6566368,-1.4639544,3.6036504000000003,0.0,0.0,0.0,0.0
8.98,214.1796072,2.9818584,-1.2469368,3.8337744,0.0,0.0,0.0,0.0
9.0,214.7800632,2.2771608000000003,-1.0844784,3.6036504000000003,0.0,0.0,0.0,0.0
9.02,215.40947520000003,2.548128,-0.9217152000000001,4.0638984,0.0,0.0,0.0,0.0
9.04,215.96360160000003,2.2771608000000003,-1.4097000000000002,3.3738312000000006,0.0,0.0,0.0,0.0
9.059999999999999,216.53967360000001,2.4399240000000004,-1.2469368,3.7572696000000003,0.0,0.0,0.0,0.0
9.08,217.1733528,2.6023824,-1.5182088,3.1437072,0.0,0.0,0.0,0.0
9.1,217.76862720000003,2.7651456,-1.1387328,2.9135831999999997,0.0,0.0,0.0,0.0
9.120000000000001,218.462352,2.4399240000000004,-1.2469368,3.1437072,0.0,0.0,0.0,0.0
9.14,219.2072832,2.6023824,-1.3011912,2.683764,0.0,0.0,0.0,0.0
9.16,219.8418768,2.2771608000000003,-1.0844784,3.0672024,0.0,0.0,0.0,0.0
9.18,220.55876640000002,2.6023824,-1.1926824,2.5304496,0.0,0.0,0.0,0.0
9.2,221.14946880000002,2.2771608000000003,-1.1926824,2.8370784000000002,0.0,0.0,0.0,0.0
9.219999999999999,221.80326480000002,2.2771608000000003,-1.3011912,2.7602688,0.0,0.0,0.0,0.0
9.239999999999998,222.327216,2.4399240000000004,-1.2469368,2.9135831999999997,0.0,0.0,0.0,0.0
9.26,222.8554344,2.1143976,-1.030224,2.7602688,0.0,0.0,0.0,0.0
9.28,223.47387360000002,2.3856696,-1.1926824,2.6069544000000002,0.0,0.0,0.0,0.0
9.3,224.0968848,1.8976848000000002,-1.030224,2.9135831999999997,0.0,0.0,0.0,0.0
9.32,224.63241840000003,2.2771608000000003,-0.650748,2.5304496,0.0,0.0,0.0,0.0
9.34,225.31425600000003,2.0601432,-0.7589520000000001,2.9903928,0.0,0.0,0.0,0.0
9.36,225.90252,2.1686520000000002,-1.0844784,2.6069544000000002,0.0,0.0,0.0,0.0
9.379999999999999,226.5678984,1.9519392,-0.4337304,3.1437072,0.0,0.0,0.0,0.0
9.399999999999999,227.1903,2.1686520000000002,-1.0844784,2.1470112,0.0,0.0,0.0,0.0
9.42,227.70144960000002,2.1686520000000002,-0.7589520000000001,2.7602688,0.0,0.0,0.0,0.0
9.44,228.2674632,2.2229064000000003,-1.030224,2.9135831999999997,0.0,0.0,0.0,0.0
9.46,228.8170176,2.0061936,-0.8132064000000001,2.3003256,0.0,0.0,0.0,0.0
9.48,229.397052,2.1686520000000002,-0.9759696,1.9168872,0.0,0.0,0.0,0.0
9.5,229.945692,2.1143976,-0.8132064000000001,2.5304496,0.0,0.0,0.0,0.0
9.52,230.45348880000003,1.789176,-0.5964936000000001,2.1470112,0.0,0.0,0.0,0.0
9.54,230.94269280000003,2.4941784,-1.3011912,2.1470112,0.0,0.0,0.0,0.0
9.559999999999999,231.4075128,1.8434304000000001,-0.650748,2.3768304000000002,0.0,0.0,0.0,0.0
9.58,231.9409128,1.6264128000000002,-0.9759696,1.4569440000000002,0.0,0.0,0.0,0.0
9.6,232.41975360000004,1.9519392,-0.7589520000000001,2.3768304000000002,0.0,0.0,0.0,0.0
9.620000000000001,232.90011840000003,1.7349216,-0.5422392,2.1470112,0.0,0.0,0.0,0.0
9.64,233.40212400000001,1.5724632,-0.37947600000000004,2.3003256,0.0,0.0,0.0,0.0
9.66,233.88005040000002,1.7349216,-0.650748,1.8400776,0.0,0.0,0.0,0.0
9.68,234.42320400000003,1.4639544,-0.37947600000000004,2.0702016,0.0,0.0,0.0,0.0
9.7,234.81700560000002,1.7349216,-0.650748,1.9936968000000002,0.0,0.0,0.0,0.0
9.719999999999999,235.2294,1.4097000000000002,-0.4337304,2.1470112,0.0,0.0,0.0,0.0
9.739999999999998,235.65703440000001,1.6806672000000002,-0.2709672,2.4536400000000005,0.0,0.0,0.0,0.0
9.76,235.9840848,1.4639544,-0.2709672,1.6102584000000002,0.0,0.0,0.0,0.0
9.78,236.5074264,1.5724632,-0.4879848,1.9168872,0.0,0.0,0.0,0.0
9.8,236.96127360000003,1.4097000000000002,-0.4337304,2.0702016,0.0,0.0,0.0,0.0
9.82,237.4294464,1.4639544,-0.37947600000000004,1.5334488,0.0,0.0,0.0,0.0
9.84,237.9098112,1.2469368,-0.16276320000000002,1.6102584000000002,0.0,0.0,0.0,0.0
9.86,238.24874880000004,1.3011912,-0.1085088,1.7635728,0.0,0.0,0.0,0.0
9.879999999999999,238.725456,1.1387328,0.0542544,1.9168872,0.0,0.0,0.0,0.0
9.899999999999999,239.0750616,1.4639544,-0.2709672,1.3801344,0.0,0.0,0.0,0.0
9.92,239.65540080000002,1.5182088,-0.5422392,1.0735056,0.0,0.0,0.0,0.0
9.94,240.05987040000002,1.3011912,-0.1085088,1.6102584000000002,0.0,0.0,0.0,0.0
9.96,240.57071520000002,1.2469368,-0.37947600000000004,1.6102584000000002,0.0,0.0,0.0,0.0
9.98,240.85722720000004,1.4097000000000002,-0.2170176,1.9168872,0.0,0.0,0.0,0.0
10.0,241.33820160000002,1.3554456000000001,-0.37947600000000004,1.3036296,0.0,0.0,0.0,0.0
10.02,241.77589440000003,1.2469368,-0.2709672,1.5334488,0.0,0.0,0.0,0.0
10.04,242.2212072,0.8132064000000001,0.16276320000000002,1.6867632000000001,0.0,0.0,0.0,0.0
10.059999999999999,242.59428240000003,1.2469368,-0.7046976,1.2268200000000002,0.0,0.0,0.0,0.0
10.08,243.01185840000002,1.3011912,-0.1085088,1.4569440000000002,0.0,0.0,0.0,0.0
10.1,243.36085440000002,1.2469368,-0.2709672,1.1500104,0.0,0.0,0.0,0.0
10.120000000000001,243.6991824,1.1387328,0.0542544,1.5334488,0.0,0.0,0.0,0.0
10.14,244.13596080000002,1.5182088,-0.5422392,1.3036296,0.0,0.0,0.0,0.0
10.16,244.5480504,1.030224,-0.2709672,1.6867632000000001,0.0,0.0,0.0,0.0
10.18,244.94429040000003,0.9759696,0.0,1.5334488,0.0,0.0,0.0,0.0
10.2,245.33291040000003,1.030224,-0.37947600000000004,1.3801344,0.0,0.0,0.0,0.0
10.219999999999999,245.87545440000002,0.8674608,0.0,0.9201912000000001,0.0,0.0,0.0,0.0
10.239999999999998,246.1775112,0.7589520000000001,-0.3252216,0.996696,0.0,0.0,0.0,0.0
10.26,246.6158136,1.0844784,0.0,1.5334488,0.0,0.0,0.0,0.0
10.28,246.92823360000003,0.8674608,-0.4337304,1.3036296,0.0,0.0,0.0,0.0
10.3,247.21139280000003,0.8132064000000001,-0.16276320000000002,1.0735056,0.0,0.0,0.0,0.0
10.32,247.50003840000002,0.9759696,-0.3252216,1.0735056,0.0,0.0,0.0,0.0
10.34,247.84690080000004,0.7046976,-0.0542544,1.3801344,0.0,0.0,0.0,0.0
10.36,248.14347120000002,0.9759696,0.2170176,0.6900672,0.0,0.0,0.0,0.0
10.379999999999999,248.43364080000003,1.1387328,0.0542544,1.2268200000000002,0.0,0.0,0.0,0.0
10.399999999999999,248.75307120000002,0.8674608,-0.1085088,0.9201912000000001,0.0,0.0,0.0,0.0
10.42,249.0508608,0.9759696,-0.2170176,1.0735056,0.0,0.0,0.0,0.0
10.44,249.47209440000003,0.5422392,0.1085088,0.996696,0.0,0.0,0.0,0.0
10.46,249.80767920000002,0.5964936000000001,0.2709672,0.996696,0.0,0.0,0.0,0.0
10.48,250.0292688,0.650748,0.4337304,0.8433816000000001,0.0,0.0,0.0,0.0
10.5,250.36302480000003,0.9217152000000001,-0.16276320000000002,0.9201912000000001,0.0,0.0,0.0,0.0
10.52,250.7111064,0.8132064000000001,-0.0542544,1.1500104,0.0,0.0,0.0,0.0
10.54,251.06985600000002,0.5964936000000001,-0.16276320000000002,0.996696,0.0,0.0,0.0,0.0
10.559999999999999,251.4045264,0.8674608,0.2170176,1.3036296,0.0,0.0,0.0,0.0
10.58,251.73188160000004,0.5422392,0.1085088,0.996696,0.0,0.0,0.0,0.0
10.6,252.0872784,0.9217152000000001,0.2709672,0.9201912000000001,0.0,0.0,0.0,0.0
10.620000000000001,252.45608640000003,0.5422392,0.2170176,0.8433816000000001,0.0,0.0,0.0,0.0
10.64,252.7483896,0.9217152000000001,0.0542544,1.0735056,0.0,0.0,0.0,0.0
10.66,253.05075120000004,0.5422392,0.1085088,0.6900672,0.0,0.0,0.0,0.0
10.68,253.3753632,0.7046976,0.0542544,0.6900672,0.0,0.0,0.0,0.0
10.7,253.5963432,0.650748,0.2170176,0.996696,0.0,0.0,0.0,0.0
10.719999999999999,253.8505464,0.7046976,-0.0542544,0.8433816000000001,0.0,0.0,0.0,0.0
10.739999999999998,254.08859520000001,0.650748,0.4337304,0.996696,0.0,0.0,0.0,0.0
10.76,254.3217672,0.650748,0.2170176,0.6900672,0.0,0.0,0.0,0.0
10.78,254.54152800000003,0.4879848,0.16276320000000002,0.9201912000000001,0.0,0.0,0.0,0.0
10.8,254.776224,0.37947600000000004,0.2709672,0.4599432,0.0,0.0,0.0,0.0
10.82,255.00909120000003,0.4879848,0.2709672,0.6900672,0.0,0.0,0.0,0.0
10.84,255.2087352,0.3252216,0.1085088,0.6900672,0.0,0.0,0.0,0.0
10.86,255.40411200000003,0.5422392,0.3252216,0.6900672,0.0,0.0,0.0,0.0
10.879999999999999,255.65526720000003,0.4337304,0.2170176,0.5367528,0.0,0.0,0.0,0.0
10.899999999999999,255.8152872,0.5964936000000001,0.37947600000000004,0.6900672,0.0,0.0,0.0,0.0
10.92,256.03657200000004,0.4879848,0.0542544,0.5367528,0.0,0.0,0.0,0.0
10.94,256.2770592,0.5964936000000001,0.37947600000000004,0.8433816000000001,0.0,0.0,0.0,0.0
10.96,256.4642064,0.4879848,0.37947600000000004,0.6900672,0.0,0.0,0.0,0.0
10.98,256.67482320000005,0.4337304,0.1085088,0.5367528,0.0,0.0,0.0,0.0
11.0,256.91927280000004,0.2709672,-0.0542544,0.4599432,0.0,0.0,0.0,0.0
11.02,257.1021528,0.3252216,0.2170176,0.6135624,0.0,0.0,0.0,0.0
11.04,257.3109408,0.4879848,0.0542544,0.6135624,0.0,0.0,0.0,0.0
11.059999999999999,257.54441760000003,0.5964936000000001,0.16276320000000002,0.996696,0.0,0.0,0.0,0.0
11.08,257.6800536,0.2709672,0.16276320000000002,0.5367528,0.0,0.0,0.0,0.0
11.1,257.7897816,0.37947600000000004,0.2709672,0.7668768,0.0,0.0,0.0,0.0
11.120000000000001,257.9193216,0.3252216,0.2170176,0.5367528,0.0,0.0,0.0,0.0
11.14,258.193032,0.4879848,0.2709672,0.6135624,0.0,0.0,0.0,0.0
11.16,258.4137072,0.3252216,0.1085088,0.3834384,0.0,0.0,0.0,0.0
11.18,258.6008544,0.4337304,0.3252216,0.8433816000000001,0.0,0.0,0.0,0.0
11.2,258.82945440000003,0.3252216,0.1085088,0.6135624,0.0,0.0,0.0,0.0
11.219999999999999,258.91937040000005,0.4337304,0.2170176,0.4599432,0.0,0.0,0.0,0.0
11.239999999999998,259.0553112,0.4337304,0.3252216,0.6135624,0.0,0.0,0.0,0.0
11.26,259.159248,0.4879848,0.2709672,0.6900672,0.0,0.0,0.0,0.0
11.28,259.284216,0.4337304,0.3252216,0.4599432,0.0,0.0,0.0,0.0
11.3,259.4033928,0.4879848,0.37947600000000004,0.30662880000000003,0.0,0.0,0.0,0.0
11.32,259.543296,0.4879848,0.2709672,0.4599432,0.0,0.0,0.0,0.0
11.34,259.6914288,0.4337304,0.3252216,0.5367528,0.0,0.0,0.0,0.0
11.36,259.8218832,0.4337304,0.4337304,0.3834384,0.0,0.0,0.0,0.0
11.379999999999999,260.0785248,0.5964936000000001,0.37947600000000004,0.6900672,0.0,0.0,0.0,0.0
11.399999999999999,260.2312296,0.4879848,0.37947600000000004,0.4599432,0.0,0.0,0.0,0.0
11.42,260.3882016,0.37947600000000004,0.2709672,0.6135624,0.0,0.0,0.0,0.0
11.44,260.5143888,0.4337304,0.2170176,0.15331440000000002,0.0,0.0,0.0,0.0
11.46,260.65154880000006,0.5422392,0.5422392,0.5367528,0.0,0.0,0.0,0.0
11.48,260.74878,0.650748,0.4337304,0.6900672,0.0,0.0,0.0,0.0
11.5,260.8716144,0.2709672,0.37947600000000004,0.4599432,0.0,0.0,0.0,0.0
11.52,260.9337936,0.5422392,0.4337304,0.4599432,0.0,0.0,0.0,0.0
11.54,261.07644000000005,0.37947600000000004,0.16276320000000002,0.6135624,0.0,0.0,0.0,0.0
11.559999999999999,261.23981280000004,0.4337304,0.3252216,0.5367528,0.0,0.0,0.0,0.0
11.58,261.2818752,0.5422392,0.3252216,0.5367528,0.0,0.0,0.0,0.0
11.6,261.2666352,0.5422392,0.4337304,0.8433816000000001,0.0,0.0,0.0,0.0
11.620000000000001,261.4126344,0.37947600000000004,0.2709672,0.4599432,0.0,0.0,0.0,0.0
11.64,261.56168160000004,0.5964936000000001,0.37947600000000004,0.6135624,0.0,0.0,0.0,0.0
11.66,261.7308456,0.4879848,0.37947600000000004,0.3834384,0.0,0.0,0.0,0.0
11.68,261.8481936,0.5422392,0.5422392,0.5367528,0.0,0.0,0.0,0.0
11.7,262.00638480000003,0.5422392,0.3252216,0.6900672,0.0,0.0,0.0,0.0
11.719999999999999,262.07923200000005,0.4879848,0.2709672,0.6900672,0.0,0.0,0.0,0.0
11.739999999999998,262.1953608,0.4879848,0.37947600000000004,0.5367528,0.0,0.0,0.0,0.0
11.76,262.2935064,0.5422392,0.3252216,0.5367528,0.0,0.0,0.0,0.0
11.78,262.301736,0.4337304,0.3252216,0.4599432,0.0,0.0,0.0,0.0
11.8,262.3785456,0.2709672,0.37947600000000004,0.30662880000000003,0.0,0.0,0.0,0.0
11.82,262.3846416,0.37947600000000004,0.2709672,0.3834384,0.0,0.0,0.0,0.0
11.84,262.43645760000004,0.5964936000000001,0.37947600000000004,0.6135624,0.0,0.0,0.0,0.0
11.86,262.518144,0.37947600000000004,0.16276320000000002,0.5367528,0.0,0.0,0.0,0.0
11.879999999999999,262.7068152,0.4337304,0.4337304,0.6135624,0.0,0.0,0.0,0.0
11.899999999999999,262.77295680000003,0.4879848,0.2709672,0.6135624,0.0,0.0,0.0,0.0
11.92,262.78453920000004,0.37947600000000004,0.2709672,0.5367528,0.0,0.0,0.0,0.0
11.94,262.81806720000003,0.4879848,0.37947600000000004,0.6135624,0.0,0.0,0.0,0.0
11.96,262.8375744,0.37947600000000004,0.2709672,0.5367528,0.0,0.0,0.0,0.0
11.98,262.85555760000005,0.4879848,0.2709672,0.30662880000000003,0.0,0.0,0.0,0.0
12.0,262.9348056,0.4337304,0.3252216,0.6900672,0.0,0.0,0.0,0.0
12.02,262.9119456,0.5422392,0.4337304,0.6900672,0.0,0.0,0.0,0.0
12.04,262.9908888,0.5422392,0.4337304,0.6135624,0.0,0.0,0.0,0.0
12.059999999999999,263.0734896,0.4337304,0.3252216,0.23012400000000002,0.0,0.0,0.0,0.0
12.08,263.07867120000003,0.37947600000000004,0.2709672,0.5367528,0.0,0.0,0.0,0.0
12.1,263.1481656,0.4337304,0.3252216,0.6135624,0.0,0.0,0.0,0.0
12.120000000000001,263.1438984,0.3252216,0.2170176,0.6135624,0.0,0.0,0.0,0.0
12.14,263.1472512,0.5964936000000001,0.4879848,0.5367528,0.0,0.0,0.0,0.0
12.16,263.07135600000004,0.37947600000000004,0.2709672,0.4599432,0.0,0.0,0.0,0.0
12.18,263.06495520000004,0.4879848,0.37947600000000004,0.6900672,0.0,0.0,0.0,0.0
12.2,263.0067384,0.5422392,0.4337304,0.7668768,0.0,0.0,0.0,0.0
12.219999999999999,262.9436448,0.4337304,0.3252216,0.6135624,0.0,0.0,0.0,0.0
12.239999999999998,262.91164080000004,0.37947600000000004,0.2709672,0.6135624,0.0,0.0,0.0,0.0
12.259999999999998,262.8845136,0.4879848,0.4879848,0.3834384,0.0,0.0,0.0,0.0
12.280000000000001,262.92139440000005,0.5422392,0.3252216,0.5367528,0.0,0.0,0.0,0.0
12.3,262.8479376,0.5964936000000001,0.37947600000000004,0.4599432,0.0,0.0,0.0,0.0
12.32,262.7628984,0.5422392,0.3252216,0.8433816000000001,0.0,0.0,0.0,0.0
12.34,262.800084,0.4879848,0.2709672,0.6900672,0.0,0.0,0.0,0.0
12.36,262.75284000000005,0.5422392,0.3252216,0.5367528,0.0,0.0,0.0,0.0
12.379999999999999,262.6906608,0.4879848,0.37947600000000004,0.4599432,0.0,0.0,0.0,0.0
12.399999999999999,262.5467952,0.5964936000000001,0.37947600000000004,0.4599432,0.0,0.0,0.0,0.0
12.419999999999998,262.4745576,0.5422392,0.4337304,0.6900672,0.0,0.0,0.0,0.0
12.440000000000001,262.3258152,0.4337304,0.3252216,0.6135624,0.0,0.0,0.0,0.0
12.46,262.37062080000004,0.4879848,0.2709672,0.5367528,0.0,0.0,0.0,0.0
12.48,262.3114896,0.4879848,0.2709672,0.4599432,0.0,0.0,0.0,0.0
12.5,262.2432144,0.5964936000000001,0.2709672,0.7668768,0.0,0.0,0.0,0.0
12.52,262.0871568,0.4337304,0.2170176,0.6135624,0.0,0.0,0.0,0.0
12.54,261.91464,0.4879848,0.2709672,0.6900672,0.0,0.0,0.0,0.0
12.559999999999999,261.86922480000004,0.5964936000000001,0.2709672,0.6900672,0.0,0.0,0.0,0.0
12.579999999999998,261.7506576,0.37947600000000004,0.16276320000000002,0.5367528,0.0,0.0,0.0,0.0
12.600000000000001,261.56412,0.4879848,0.2709672,0.7668768,0.0,0.0,0.0,0.0
12.620000000000001,261.4854816,0.5422392,0.2170176,0.4599432,0.0,0.0,0.0,0.0
12.64,261.410196,0.5422392,0.2170176,0.5367528,0.0,0.0,0.0,0.0
12.66,261.24987120000003,0.5422392,0.3252216,0.3834384,0.0,0.0,0.0,0.0
12.68,261.071868,0.5422392,0.1085088,0.3834384,0.0,0.0,0.0,0.0
12.7,260.8612512,0.650748,0.1085088,0.30662880000000003,0.0,0.0,0.0,0.0
12.719999999999999,260.684772,0.650748,0.0,0.6135624,0.0,0.0,0.0,0.0
12.739999999999998,260.54182080000004,0.7046976,0.16276320000000002,0.5367528,0.0,0.0,0.0,0.0
12.759999999999998,260.4122808,0.5964936000000001,0.0542544,0.4599432,0.0,0.0,0.0,0.0
12.780000000000001,260.30651520000004,0.7046976,0.2709672,0.5367528,0.0,0.0,0.0,0.0
12.8,260.2574424,0.650748,0.2170176,0.30662880000000003,0.0,0.0,0.0,0.0
12.82,260.152896,0.5422392,-0.1085088,0.3834384,0.0,0.0,0.0,0.0
12.84,260.01878400000004,0.5422392,-0.1085088,0.30662880000000003,0.0,0.0,0.0,0.0
12.86,259.922772,0.7589520000000001,0.0,0.5367528,0.0,0.0,0.0,0.0
12.879999999999999,259.7874408,0.4337304,0.2170176,0.3834384,0.0,0.0,0.0,0.0
12.899999999999999,259.72739520000005,0.4337304,0.1085088,0.4599432,0.0,0.0,0.0,0.0
12.919999999999998,259.65363360000003,0.650748,0.2170176,0.5367528,0.0,0.0,0.0,0.0
12.940000000000001,259.48843200000005,0.5964936000000001,0.2709672,0.30662880000000003,0.0,0.0,0.0,0.0
12.96,259.3780944,0.5422392,0.0,0.4599432,0.0,0.0,0.0,0.0
12.98,259.1220624,0.5964936000000001,0.16276320000000002,0.3834384,0.0,0.0,0.0,0.0
13.0,259.01507760000004,0.5964936000000001,-0.37947600000000004,0.23012400000000002,0.0,0.0,0.0,0.0
13.02,258.85902,0.650748,0.2170176,0.3834384,0.0,0.0,0.0,0.0
13.04,258.6980856,0.7046976,-0.0542544,0.3834384,0.0,0.0,0.0,0.0
13.059999999999999,258.5170344,0.650748,0.0,0.4599432,0.0,0.0,0.0,0.0
13.079999999999998,258.2994072,0.4337304,0.2170176,0.4599432,0.0,0.0,0.0,0.0
13.100000000000001,258.2046144,0.5964936000000001,0.16276320000000002,0.30662880000000003,0.0,0.0,0.0,0.0
13.120000000000001,258.0381936,0.4337304,0.2170176,0.5367528,0.0,0.0,0.0,0.0
13.14,257.8223952,0.650748,0.2170176,0.3834384,0.0,0.0,0.0,0.0
13.16,257.5861752,0.37947600000000004,0.16276320000000002,0.23012400000000002,0.0,0.0,0.0,0.0
13.18,257.1960312,-0.37947600000000004,0.7046976,-0.9201912000000001,0.0,0.0,0.0,0.0
13.2,256.373376,2.0601432,5.421782400000001,-1.0735056,0.0,0.0,0.0,0.0
13.219999999999999,256.0454112,-164.3356632,55.140148800000006,156.9561504,0.0,0.0,0.0,0.0
13.239999999999998,255.7037304,7.3737216000000005,197.57136000000003,156.9561504,0.0,0.0,0.0,0.0
13.259999999999998,255.34863840000003,48.633888000000006,167.91401520000002,-105.04657680000001,0.0,0.0,0.0,0.0
13.280000000000001,254.9801352,-186.78204960000002,35.2961448,156.9561504,0.0,0.0,0.0,0.0
13.3,254.597916,-13.8799824,-208.19821200000004,22.6963224,0.0,0.0,0.0,0.0
13.32,254.4601464,-72.5442288,69.5078112,74.1459528,0.0,0.0,0.0,0.0
13.34,254.3668776,-57.2545464,-144.76293120000003,-120.22836000000001,0.0,0.0,0.0,0.0
13.36,254.26294080000002,-80.8936152,-80.243172,60.114180000000005,0.0,0.0,0.0,0.0
13.379999999999999,254.11602720000002,36.0550968,-17.40408,24.766524,0.0,0.0,0.0,0.0
13.399999999999999,253.9407672,73.194672,64.08602880000001,86.4909624,0.0,0.0,0.0,0.0
13.419999999999998,253.81153200000003,164.1186456,-7.210958400000001,-157.03296000000003,0.0,0.0,0.0,0.0
13.440000000000001,253.6801632,35.024872800000004,-25.591008,-99.8323632,0.0,0.0,0.0,0.0
13.46,253.53995520000004,-8.241182400000001,4.8795432000000005,-5.750661600000001,0.0,0.0,0.0,0.0
13.48,253.4149872,-4.012082400000001,14.6389344,-19.0923672,0.0,0.0,0.0,0.0
13.5,253.28788560000004,-2.9279088,6.506260800000001,-15.1817832,0.0,0.0,0.0,0.0
13.52,253.08671760000001,-30.308092800000004,3.6326064,-29.980432800000003,0.0,0.0,0.0,0.0
13.54,252.8203224,-10.5725976,-13.7172192,18.4791096,0.0,0.0,0.0,0.0
13.559999999999999,252.67310400000002,4.0663368,-7.970215200000001,-7.437729600000001,0.0,0.0,0.0,0.0
13.579999999999998,252.59233200000003,-9.7051368,1.789176,-3.910584,0.0,0.0,0.0,0.0
13.600000000000001,252.55453680000002,-4.933797600000001,0.16276320000000002,18.0956712,0.0,0.0,0.0,0.0
13.620000000000001,252.5005872,10.8978192,-17.9463192,14.8751544,0.0,0.0,0.0,0.0
13.64,252.46736400000003,10.355580000000002,-14.693188800000001,17.0221656,0.0,0.0,0.0,0.0
13.66,252.4377984,16.645128,-8.5121496,19.4758056,0.0,0.0,0.0,0.0
13.68,252.3801912,18.2715408,13.283488800000002,17.0221656,0.0,0.0,0.0,0.0
13.7,252.26863440000002,17.40408,53.730448800000005,3.9870888,0.0,0.0,0.0,0.0
13.719999999999999,251.97968400000002,-16.319601600000002,85.61070000000001,-38.874801600000005,0.0,0.0,0.0,0.0
13.739999999999998,251.944632,67.71863520000001,-31.609284000000002,151.5121176,0.0,0.0,0.0,0.0
13.759999999999998,251.8589832,-48.471124800000005,-92.06270640000001,-67.3982904,0.0,0.0,0.0,0.0
13.780000000000001,251.84313360000004,-8.8919304,-11.277295200000001,-2.0702016,0.0,0.0,0.0,0.0
13.8,251.82179760000002,-205.3245576,16.753332,22.389388800000003,0.0,0.0,0.0,0.0
13.82,251.5746048,-99.49068240000001,-31.500775200000003,-49.7628672,0.0,0.0,0.0,0.0
13.84,251.5688136,-2.9279088,64.7367768,-9.3546168,0.0,0.0,0.0,0.0
13.86,251.6124,73.2489264,148.7207592,156.9561504,0.0,0.0,0.0,0.0
13.879999999999999,251.57826240000003,6.397752,-23.3138472,84.49726559999999,0.0,0.0,0.0,0.0
13.899999999999999,251.5337616,3.198876,-25.645262400000004,10.274503200000002,0.0,0.0,0.0,0.0
13.919999999999998,251.28534960000002,-136.6842072,-50.260300799999996,-151.4356128,0.0,0.0,0.0,0.0
13.940000000000001,251.04760560000003,-14.6389344,24.3983256,-106.963464,0.0,0.0,0.0,0.0
13.96,251.0451672,2.0601432,11.277295200000001,-4.6006512,0.0,0.0,0.0,0.0
13.98,251.0646744,9.3256608,34.80816,-18.0188616,0.0,0.0,0.0,0.0
14.0,251.17714560000002,49.447094400000005,69.3993024,-105.81314880000001,0.0,0.0,0.0,0.0
14.02,251.26127040000003,20.22348,19.572732000000002,-25.763220000000004,0.0,0.0,0.0,0.0
14.04,251.32954560000002,57.7425312,35.0791272,-90.7078704,0.0,0.0,0.0,0.0
14.059999999999999,251.35423440000002,-26.133247200000003,45.326503200000005,-19.398996,0.0,0.0,0.0,0.0
14.079999999999998,251.2743768,-58.989468,17.783556,-29.980432800000003,0.0,0.0,0.0,0.0
14.100000000000001,251.3051616,1.4097000000000002,20.1692256,-28.8304224,0.0,0.0,0.0,0.0
14.120000000000001,251.30424720000002,-3.578352,50.097842400000005,-30.5171856,0.0,0.0,0.0,0.0
14.14,251.1609912,-25.1030232,51.453288,-25.8400296,0.0,0.0,0.0,0.0
14.16,250.8391224,-19.518477600000004,24.3983256,-40.1784312,0.0,0.0,0.0,0.0
14.18,250.45385520000002,31.5550296,-22.9886256,-46.7724744,0.0,0.0,0.0,0.0
14.2,250.02317280000003,-50.9110488,-38.007036,23.693018400000003,0.0,0.0,0.0,0.0
14.219999999999999,249.49129680000001,-103.773732,-33.7236816,-129.4296624,0.0,0.0,0.0,0.0
14.239999999999998,248.9737464,-16.970349600000002,9.7051368,-3.9870888,0.0,0.0,0.0,0.0
14.259999999999998,248.524776,18.6510168,-24.832056,-64.8681456,0.0,0.0,0.0,0.0
14.280000000000001,248.16785520000002,27.8139144,-21.741384,-73.7625144,0.0,0.0,0.0,0.0
14.3,248.00326320000002,-4.445812800000001,8.3496912,-31.2837576,0.0,0.0,0.0,0.0
14.32,247.67042160000003,-15.614904,17.2413168,11.5781328,0.0,0.0,0.0,0.0
14.34,247.48754160000001,-3.0361128,7.048500000000001,8.2811112,0.0,0.0,0.0,0.0
14.36,247.40158800000003,-42.669866400000004,7.5364848,21.776131200000002,0.0,0.0,0.0,0.0
14.379999999999999,247.30344240000002,11.2230408,-26.2960104,47.002598400000004,0.0,0.0,0.0,0.0
14.399999999999999,247.26747600000002,9.976104,-14.5304256,14.5685256,0.0,0.0,0.0,0.0
14.419999999999998,247.22419440000004,-4.2833544,-9.596628,-21.469502400000003,0.0,0.0,0.0,0.0
14.440000000000001,247.084596,-35.512857600000004,8.4039456,-39.7949928,0.0,0.0,0.0,0.0
14.46,246.9425592,-159.7813416,-8.186928,-18.939052800000002,0.0,0.0,0.0,0.0
14.48,247.18213200000002,-34.4829384,-25.3742952,1.5334488,0.0,0.0,0.0,0.0
14.5,247.24918800000003,-33.018984,-42.34434,-34.7343984,0.0,0.0,0.0,0.0
14.52,247.35160080000003,8.3496912,-81.00212400000001,-41.1751272,0.0,0.0,0.0,0.0
14.54,247.35068640000003,25.86228,-37.7900184,14.951964,0.0,0.0,0.0,0.0
14.559999999999999,247.301004,18.054828,-41.3686752,-13.0350768,0.0,0.0,0.0,0.0
14.579999999999998,247.15713840000004,38.820242400000005,-10.4098344,-15.2585928,0.0,0.0,0.0,0.0
14.600000000000001,247.07667120000002,19.789749600000004,-13.0664712,-14.491716000000002,0.0,0.0,0.0,0.0
14.620000000000001,246.9087264,13.446252000000001,-18.7595256,-5.750661600000001,0.0,0.0,0.0,0.0
14.64,246.61916640000004,1.4639544,-30.416601600000003,6.364224,0.0,0.0,0.0,0.0
14.66,246.34972320000003,-14.313712800000001,-32.0972688,-1.1500104,0.0,0.0,0.0,0.0
14.68,246.0385224,-23.584814400000003,-15.235428,-6.8241672,0.0,0.0,0.0,0.0
14.7,245.79986400000004,-19.844004,17.8920648,-47.615856,0.0,0.0,0.0,0.0
14.719999999999999,245.75262,-31.988760000000003,7.915960800000001,-13.9549632,0.0,0.0,0.0,0.0
14.739999999999998,245.749572,-40.9349448,1.8976848000000002,-24.996343200000002,0.0,0.0,0.0,0.0
14.759999999999998,245.6267376,-12.8497584,-6.343497600000001,-23.30958,0.0,0.0,0.0,0.0
14.780000000000001,245.47647120000002,3.198876,-15.235428,-23.30958,0.0,0.0,0.0,0.0
14.8,245.29724880000003,1.7349216,-25.4824992,-10.274503200000002,0.0,0.0,0.0,0.0
14.82,245.0933376,-11.4943128,-28.410408,-25.3797816,0.0,0.0,0.0,0.0
14.84,245.0857176,-32.639508,-4.120591200000001,-13.878458400000001,0.0,0.0,0.0,0.0
