time,baro_altitude,accl_x,accl_y,accl_z,gps_altitude,gyro_roll,gyro_pitch,gyro_yaw
0.0,0.0,9.7593912,-0.9759696,2.5304496,0.0,0.0,0.0,0.0
0.019999999999999574,-0.049377600000000015,9.7051368,-1.1387328,2.5304496,0.0,0.0,0.0,0.0
0.040000000000000036,-0.1917192,9.867595200000002,-1.1926824,2.5304496,0.0,0.0,0.0,0.0
0.05999999999999961,-0.07802880000000001,9.867595200000002,-1.1926824,2.5304496,0.0,0.0,0.0,0.0
0.07999999999999918,-0.34076639999999997,9.813645600000001,-1.1387328,2.5304496,0.0,0.0,0.0,0.0
0.09999999999999964,-0.5065776,9.7593912,-0.9759696,2.5304496,0.0,0.0,0.0,0.0
0.11999999999999922,-0.34259520000000004,9.7051368,-1.1387328,2.5304496,0.0,0.0,0.0,0.0
0.13999999999999968,-0.3084576,9.7051368,-1.2469368,2.6069544000000002,0.0,0.0,0.0,0.0
0.15999999999999925,-0.3700272,9.7593912,-1.3011912,2.5304496,0.0,0.0,0.0,0.0
0.17999999999999972,-0.39563040000000005,9.813645600000001,-1.030224,2.5304496,0.0,0.0,0.0,0.0
0.1999999999999993,-0.384048,9.813645600000001,-0.9217152000000001,2.5304496,0.0,0.0,0.0,0.0
0.21999999999999975,-0.21518879999999999,9.7593912,-0.9759696,2.5304496,0.0,0.0,0.0,0.0
0.23999999999999932,-0.11369040000000001,9.7593912,-1.1926824,2.4536400000000005,0.0,0.0,0.0,0.0
0.2599999999999998,-0.135636,9.813645600000001,-1.2469368,2.4536400000000005,0.0,0.0,0.0,0.0
0.27999999999999936,-0.0704088,9.867595200000002,-1.0844784,2.5304496,0.0,0.0,0.0,0.0
0.2999999999999998,-0.1944624,9.867595200000002,-0.9759696,2.5304496,0.0,0.0,0.0,0.0
0.3199999999999994,-0.1301496,9.813645600000001,-1.030224,2.3768304000000002,0.0,0.0,0.0,0.0
0.33999999999999986,-0.1426464,9.7593912,-1.3011912,2.3768304000000002,0.0,0.0,0.0,0.0
0.35999999999999943,-0.30815280000000006,9.813645600000001,-1.1387328,2.4536400000000005,0.0,0.0,0.0,0.0
0.3799999999999999,-0.38801040000000003,9.7051368,-1.1387328,2.6069544000000002,0.0,0.0,0.0,0.0
0.39999999999999947,-0.34838640000000004,9.867595200000002,-1.0844784,2.5304496,0.0,0.0,0.0,0.0
0.41999999999999993,-0.30114240000000003,9.813645600000001,-1.030224,2.3768304000000002,0.0,0.0,0.0,0.0
0.4399999999999995,-0.292608,9.813645600000001,-1.1387328,2.3768304000000002,0.0,0.0,0.0,0.0
0.45999999999999996,-0.11369040000000001,9.7051368,-1.2469368,2.4536400000000005,0.0,0.0,0.0,0.0
0.47999999999999954,-0.16581120000000002,9.7051368,-1.2469368,2.6069544000000002,0.0,0.0,0.0,0.0
0.5,-0.19537680000000002,9.7593912,-1.0844784,2.6069544000000002,0.0,0.0,0.0,0.0
0.5199999999999996,0.029565599999999994,9.7593912,-1.0844784,2.5304496,0.0,0.0,0.0,0.0
0.54,0.08321039999999998,9.7593912,-1.1926824,2.4536400000000005,0.0,0.0,0.0,0.0
0.5599999999999996,-0.04572000000000001,9.813645600000001,-1.2469368,2.3768304000000002,0.0,0.0,0.0,0.0
0.5799999999999996,0.13716,9.813645600000001,-1.030224,2.5304496,0.0,0.0,0.0,0.0
0.5999999999999996,-0.04815840000000001,9.6508824,-1.0844784,2.6069544000000002,0.0,0.0,0.0,0.0
0.6199999999999997,-0.21336,9.813645600000001,-1.1387328,2.5304496,0.0,0.0,0.0,0.0
0.6399999999999997,-0.26182320000000003,9.813645600000001,-1.1387328,2.4536400000000005,0.0,0.0,0.0,0.0
0.6599999999999997,-0.2950464,9.867595200000002,-1.1926824,2.4536400000000005,0.0,0.0,0.0,0.0
0.6799999999999997,-0.39288720000000005,9.813645600000001,-1.030224,2.4536400000000005,0.0,0.0,0.0,0.0
0.6999999999999997,-0.15575280000000002,9.7593912,-0.9759696,2.5304496,0.0,0.0,0.0,0.0
0.7199999999999998,-0.2279904,9.7593912,-1.1926824,2.4536400000000005,0.0,0.0,0.0,0.0
0.7399999999999998,-0.27005280000000004,9.813645600000001,-1.1387328,2.6069544000000002,0.0,0.0,0.0,0.0
0.7599999999999998,-0.44348400000000004,9.7593912,-1.1926824,2.3768304000000002,0.0,0.0,0.0,0.0
0.7799999999999998,-0.41605200000000003,9.7593912,-1.0844784,2.3768304000000002,0.0,0.0,0.0,0.0
0.7999999999999998,-0.3346704,9.7051368,-1.030224,2.6069544000000002,0.0,0.0,0.0,0.0
0.8199999999999994,-0.039014400000000005,9.7593912,-1.0844784,2.5304496,0.0,0.0,0.0,0.0
0.8399999999999994,0.017373600000000017,9.7593912,-1.1926824,2.5304496,0.0,0.0,0.0,0.0
0.8599999999999994,-0.028651199999999995,9.7593912,-1.3011912,2.6069544000000002,0.0,0.0,0.0,0.0
0.8799999999999994,-0.1975104,9.7593912,-1.0844784,2.4536400000000005,0.0,0.0,0.0,0.0
0.8999999999999995,-0.1908048,9.867595200000002,-0.9759696,2.4536400000000005,0.0,0.0,0.0,0.0
0.9199999999999995,-0.1959864,9.7051368,-1.1387328,2.4536400000000005,0.0,0.0,0.0,0.0
0.9399999999999995,-0.1057656,9.7051368,-1.2469368,2.5304496,0.0,0.0,0.0,0.0
0.9599999999999995,-0.17007840000000002,9.813645600000001,-1.3554456000000001,2.5304496,0.0,0.0,0.0,0.0
0.9799999999999995,-0.17343119999999998,9.7051368,-1.030224,2.5304496,0.0,0.0,0.0,0.0
0.9999999999999996,-0.16764,9.7593912,-1.0844784,2.4536400000000005,0.0,0.0,0.0,0.0
1.0199999999999996,-0.1563624,9.867595200000002,-1.0844784,2.4536400000000005,0.0,0.0,0.0,0.0
1.0399999999999996,-0.188976,9.813645600000001,-1.1387328,2.3768304000000002,0.0,0.0,0.0,0.0
1.0599999999999996,-0.24566880000000002,9.813645600000001,-1.1387328,2.4536400000000005,0.0,0.0,0.0,0.0
1.0799999999999996,-0.36728400000000005,9.813645600000001,-1.1387328,2.6069544000000002,0.0,0.0,0.0,0.0
1.0999999999999996,-0.40782240000000003,9.813645600000001,-1.030224,2.5304496,0.0,0.0,0.0,0.0
1.1199999999999997,-0.48097439999999997,9.7593912,-1.0844784,2.4536400000000005,0.0,0.0,0.0,0.0
1.1399999999999997,-0.38435280000000005,9.7593912,-1.0844784,2.3768304000000002,0.0,0.0,0.0,0.0
1.1599999999999997,-0.3739896,9.7593912,-1.1926824,2.4536400000000005,0.0,0.0,0.0,0.0
1.1799999999999997,-0.34076639999999997,9.7593912,-1.0844784,2.5304496,0.0,0.0,0.0,0.0
1.1999999999999997,-0.41940479999999997,9.813645600000001,-1.030224,2.683764,0.0,0.0,0.0,0.0
1.2199999999999998,-0.40416480000000005,9.7593912,-0.9759696,2.4536400000000005,0.0,0.0,0.0,0.0
1.2399999999999998,-0.26730960000000004,9.867595200000002,-1.1926824,2.4536400000000005,0.0,0.0,0.0,0.0
1.2599999999999998,-0.15453360000000002,9.7593912,-1.1926824,2.3768304000000002,0.0,0.0,0.0,0.0
1.2799999999999998,-0.0798576,9.813645600000001,-1.1387328,2.4536400000000005,0.0,0.0,0.0,0.0
1.2999999999999998,-0.28437840000000003,9.813645600000001,-1.030224,2.6069544000000002,0.0,0.0,0.0,0.0
1.3199999999999994,-0.239268,9.7593912,-1.0844784,2.5304496,0.0,0.0,0.0,0.0
1.3399999999999994,-0.44683680000000003,9.813645600000001,-1.1387328,2.5304496,0.0,0.0,0.0,0.0
1.3599999999999994,-0.4233672,9.7593912,-1.1926824,2.4536400000000005,0.0,0.0,0.0,0.0
1.3799999999999994,-0.34899600000000003,9.7593912,-1.0844784,2.5304496,0.0,0.0,0.0,0.0
1.3999999999999995,-0.4700016,9.813645600000001,-1.030224,2.6069544000000002,0.0,0.0,0.0,0.0
1.4199999999999995,-0.39288720000000005,9.813645600000001,-1.030224,2.4536400000000005,0.0,0.0,0.0,0.0
1.4399999999999995,-0.4364736,9.7593912,-1.0844784,2.5304496,0.0,0.0,0.0,0.0
1.4599999999999995,-0.4227576,9.867595200000002,-1.0844784,2.5304496,0.0,0.0,0.0,0.0
1.4799999999999995,-0.4062984,9.6508824,-1.0844784,2.5304496,0.0,0.0,0.0,0.0
1.4999999999999996,-0.2916936,9.7593912,-1.0844784,2.5304496,0.0,0.0,0.0,0.0
1.5199999999999996,-0.2654808,9.813645600000001,-1.030224,2.5304496,0.0,0.0,0.0,0.0
1.5399999999999996,-0.4532376000000001,9.867595200000002,-1.1926824,2.5304496,0.0,0.0,0.0,0.0
1.5599999999999996,-0.4614672,9.7051368,-1.1387328,2.5304496,0.0,0.0,0.0,0.0
1.5799999999999996,-0.3395472,9.7593912,-1.1926824,2.4536400000000005,0.0,0.0,0.0,0.0
1.5999999999999996,-0.3633216,9.7051368,-1.030224,2.5304496,0.0,0.0,0.0,0.0
1.6199999999999997,-0.1929384,9.813645600000001,-1.1387328,2.5304496,0.0,0.0,0.0,0.0
1.6399999999999997,-0.37520879999999995,9.813645600000001,-1.2469368,2.3768304000000002,0.0,0.0,0.0,0.0
1.6599999999999997,-0.2496312,9.7593912,-1.1926824,2.5304496,0.0,0.0,0.0,0.0
1.6799999999999997,0.0719328,9.867595200000002,-1.0844784,2.5304496,0.0,0.0,0.0,0.0
1.6999999999999997,-0.1328928,9.7593912,-1.0844784,2.683764,0.0,0.0,0.0,0.0
1.7199999999999998,-0.16276320000000002,9.7593912,-1.0844784,2.5304496,0.0,0.0,0.0,0.0
1.7399999999999998,-0.23317200000000002,9.813645600000001,-1.1387328,2.5304496,0.0,0.0,0.0,0.0
1.7599999999999998,-0.2974848,9.7593912,-1.1926824,2.5304496,0.0,0.0,0.0,0.0
1.7799999999999998,-0.359664,9.7593912,-1.1926824,2.5304496,0.0,0.0,0.0,0.0
1.7999999999999998,-0.40782240000000003,9.813645600000001,-1.030224,2.5304496,0.0,0.0,0.0,0.0
1.8199999999999994,-0.41513760000000005,9.7593912,-1.1926824,2.4536400000000005,0.0,0.0,0.0,0.0
1.8399999999999994,-0.3651504,9.7051368,-1.1387328,2.4536400000000005,0.0,0.0,0.0,0.0
1.8599999999999994,-0.1972056,9.867595200000002,-1.0844784,2.3768304000000002,0.0,0.0,0.0,0.0
1.8799999999999994,-0.27249120000000004,9.813645600000001,-1.1387328,2.5304496,0.0,0.0,0.0,0.0
1.8999999999999995,-0.26182320000000003,9.6508824,-0.9759696,2.5304496,0.0,0.0,0.0,0.0
1.9199999999999995,-0.3523488,9.7593912,-1.1926824,2.4536400000000005,0.0,0.0,0.0,0.0
1.9399999999999995,-0.40233599999999997,9.7051368,-1.1387328,2.4536400000000005,0.0,0.0,0.0,0.0
1.9599999999999995,-0.46329600000000004,9.813645600000001,-1.1387328,2.4536400000000005,0.0,0.0,0.0,0.0
1.9799999999999995,-0.5830824,9.867595200000002,-1.1926824,2.4536400000000005,0.0,0.0,0.0,0.0
1.9999999999999996,-0.46299120000000005,9.813645600000001,-1.030224,2.6069544000000002,0.0,0.0,0.0,0.0
2.0199999999999996,-0.47426880000000005,9.7593912,-1.0844784,2.5304496,0.0,0.0,0.0,0.0
2.0399999999999996,-0.40507920000000003,9.7593912,-1.0844784,2.5304496,0.0,0.0,0.0,0.0
2.0599999999999996,-0.2127504,9.7593912,-1.1926824,2.5304496,0.0,0.0,0.0,0.0
2.0799999999999996,-0.14782800000000001,9.813645600000001,-1.030224,2.5304496,0.0,0.0,0.0,0.0
2.0999999999999996,-0.1225296,9.867595200000002,-1.0844784,2.6069544000000002,0.0,0.0,0.0,0.0
2.1199999999999997,-0.28133040000000004,9.867595200000002,-1.0844784,2.5304496,0.0,0.0,0.0,0.0
2.1399999999999997,-0.409956,9.7593912,-1.1926824,2.4536400000000005,0.0,0.0,0.0,0.0
2.1599999999999997,-0.6074664000000001,9.813645600000001,-1.1387328,2.5304496,0.0,0.0,0.0,0.0
2.1799999999999997,-0.7424928000000001,9.867595200000002,-1.1926824,2.6069544000000002,0.0,0.0,0.0,0.0
2.1999999999999997,-0.6352032000000001,9.7593912,-1.0844784,2.5304496,0.0,0.0,0.0,0.0
2.2199999999999998,-0.3974592,9.7593912,-1.0844784,2.5304496,0.0,0.0,0.0,0.0
2.2399999999999998,-0.34899600000000003,9.7593912,-1.0844784,2.5304496,0.0,0.0,0.0,0.0
2.26,-0.1975104,9.813645600000001,-1.1387328,2.6069544000000002,0.0,0.0,0.0,0.0
2.28,-0.38709600000000005,9.7593912,-1.0844784,2.4536400000000005,0.0,0.0,0.0,0.0
2.3,-0.36484560000000005,9.7593912,-0.9759696,2.5304496,0.0,0.0,0.0,0.0
2.3199999999999994,-0.4255008,9.7593912,-1.0844784,2.5304496,0.0,0.0,0.0,0.0
2.3399999999999994,-0.5169408,9.7051368,-1.1387328,2.3768304000000002,0.0,0.0,0.0,0.0
2.3599999999999994,-0.3919728,9.7051368,-1.1387328,2.4536400000000005,0.0,0.0,0.0,0.0
2.3799999999999994,-0.41605200000000003,9.813645600000001,-1.030224,2.4536400000000005,0.0,0.0,0.0,0.0
2.3999999999999995,-0.37155119999999997,9.813645600000001,-1.030224,2.4536400000000005,0.0,0.0,0.0,0.0
2.4199999999999995,-0.3410712,9.813645600000001,-1.030224,2.6069544000000002,0.0,0.0,0.0,0.0
2.4399999999999995,-0.4748784,9.6508824,-1.1926824,2.5304496,0.0,0.0,0.0,0.0
2.4599999999999995,-0.38801040000000003,9.813645600000001,-1.030224,2.5304496,0.0,0.0,0.0,0.0
2.4799999999999995,-0.368808,9.867595200000002,-1.1926824,2.5304496,0.0,0.0,0.0,0.0
2.4999999999999996,-0.2200656,9.7593912,-1.0844784,2.6069544000000002,0.0,0.0,0.0,0.0
2.5199999999999996,-0.3465576,9.7051368,-1.030224,2.6069544000000002,0.0,0.0,0.0,0.0
2.5399999999999996,-0.42123360000000004,9.867595200000002,-1.0844784,2.4536400000000005,0.0,0.0,0.0,0.0
2.5599999999999996,-0.4224528000000001,9.813645600000001,-1.1387328,2.3768304000000002,0.0,0.0,0.0,0.0
2.5799999999999996,-0.34503360000000005,9.813645600000001,-1.1387328,2.5304496,0.0,0.0,0.0,0.0
2.5999999999999996,-0.5193792,9.813645600000001,-1.1387328,2.5304496,0.0,0.0,0.0,0.0
2.6199999999999997,-0.3557016,9.813645600000001,-1.030224,2.6069544000000002,0.0,0.0,0.0,0.0
2.6399999999999997,-0.10180320000000001,9.813645600000001,-1.1387328,2.5304496,0.0,0.0,0.0,0.0
2.6599999999999997,-0.014935200000000015,9.813645600000001,-1.1387328,2.4536400000000005,0.0,0.0,0.0,0.0
2.6799999999999997,0.11734800000000001,9.813645600000001,-1.2469368,2.4536400000000005,0.0,0.0,0.0,0.0
2.6999999999999993,0.05608320000000002,9.813645600000001,-1.030224,2.5304496,0.0,0.0,0.0,0.0
2.7199999999999998,-0.05882639999999999,9.813645600000001,-1.030224,2.4536400000000005,0.0,0.0,0.0,0.0
2.7399999999999993,-0.006400800000000006,9.813645600000001,-1.1387328,2.4536400000000005,0.0,0.0,0.0,0.0
2.76,0.004572000000000004,9.813645600000001,-1.1387328,2.4536400000000005,0.0,0.0,0.0,0.0
2.7799999999999994,-0.010058400000000009,9.813645600000001,-1.1387328,2.5304496,0.0,0.0,0.0,0.0
2.8,0.0765048,9.7593912,-1.0844784,2.3768304000000002,0.0,0.0,0.0,0.0
2.8199999999999994,0.054254400000000015,9.813645600000001,-1.030224,2.5304496,0.0,0.0,0.0,0.0
2.84,-0.017068800000000016,9.7051368,-1.1387328,2.4536400000000005,0.0,0.0,0.0,0.0
2.8599999999999994,-0.0734568,9.7593912,-1.0844784,2.5304496,0.0,0.0,0.0,0.0
2.88,0.005486400000000005,9.867595200000002,-1.0844784,2.5304496,0.0,0.0,0.0,0.0
2.8999999999999995,-0.34503360000000005,9.7593912,-1.1926824,2.5304496,0.0,0.0,0.0,0.0
2.92,-0.5910072000000001,9.7051368,-1.1387328,2.5304496,0.0,0.0,0.0,0.0
2.9399999999999995,-0.5992368,9.813645600000001,-1.2469368,2.4536400000000005,0.0,0.0,0.0,0.0
2.9599999999999995,-0.6358128000000002,9.813645600000001,-1.030224,2.6069544000000002,0.0,0.0,0.0,0.0
2.9799999999999995,-0.5809488,9.7051368,-1.1387328,2.4536400000000005,0.0,0.0,0.0,0.0
2.9999999999999996,-0.42092880000000005,9.7593912,-1.0844784,2.4536400000000005,0.0,0.0,0.0,0.0
3.0199999999999996,-0.32613600000000004,9.7051368,-1.1387328,2.6069544000000002,0.0,0.0,0.0,0.0
3.0399999999999996,-0.23317200000000002,9.867595200000002,-1.0844784,2.4536400000000005,0.0,0.0,0.0,0.0
3.0599999999999996,-0.4642104000000001,9.7051368,-1.1387328,2.3768304000000002,0.0,0.0,0.0,0.0
3.0799999999999996,-0.5053584,9.813645600000001,-1.030224,2.4536400000000005,0.0,0.0,0.0,0.0
3.0999999999999996,-0.4733544,9.813645600000001,-1.1387328,2.4536400000000005,0.0,0.0,0.0,0.0
3.1199999999999997,-0.46786800000000006,9.867595200000002,-0.9759696,2.4536400000000005,0.0,0.0,0.0,0.0
3.1399999999999997,-0.6059424,9.867595200000002,-1.0844784,2.5304496,0.0,0.0,0.0,0.0
3.1599999999999997,-0.35874960000000006,9.813645600000001,-1.1387328,2.4536400000000005,0.0,0.0,0.0,0.0
3.1799999999999997,-0.12954000000000002,9.867595200000002,-1.1926824,2.5304496,0.0,0.0,0.0,0.0
3.1999999999999993,-0.3300984,9.7593912,-1.1926824,2.4536400000000005,0.0,0.0,0.0,0.0
3.2199999999999998,-0.2538984,9.813645600000001,-1.1387328,2.5304496,0.0,0.0,0.0,0.0
3.2399999999999993,-0.4337304,9.813645600000001,-1.1387328,2.4536400000000005,0.0,0.0,0.0,0.0
3.26,-0.41026080000000004,9.813645600000001,-1.030224,2.4536400000000005,0.0,0.0,0.0,0.0
3.2799999999999994,-0.30571440000000005,9.7593912,-1.0844784,2.5304496,0.0,0.0,0.0,0.0
3.3,-0.239268,9.7593912,-1.0844784,2.5304496,0.0,0.0,0.0,0.0
3.3199999999999994,-0.30967680000000003,9.7051368,-1.1387328,2.683764,0.0,0.0,0.0,0.0
3.34,-0.16611599999999999,9.7593912,-1.0844784,2.6069544000000002,0.0,0.0,0.0,0.0
3.3599999999999994,-0.2801112,9.7593912,-1.0844784,2.5304496,0.0,0.0,0.0,0.0
3.38,-0.3590544,9.7593912,-1.1926824,2.5304496,0.0,0.0,0.0,0.0
3.3999999999999995,-0.301752,9.7051368,-1.1387328,2.5304496,0.0,0.0,0.0,0.0
3.42,-0.652272,9.7593912,-1.0844784,2.4536400000000005,0.0,0.0,0.0,0.0
3.4399999999999995,-0.2923032,9.6508824,-1.1926824,2.4536400000000005,0.0,0.0,0.0,0.0
3.4599999999999995,-0.26487120000000003,9.867595200000002,-1.0844784,2.5304496,0.0,0.0,0.0,0.0
3.4799999999999995,-0.1063752,9.7593912,-1.1926824,2.4536400000000005,0.0,0.0,0.0,0.0
3.4999999999999996,-0.307848,9.7593912,-1.0844784,2.4536400000000005,0.0,0.0,0.0,0.0
3.5199999999999996,-0.20634960000000002,9.867595200000002,-1.0844784,2.4536400000000005,0.0,0.0,0.0,0.0
3.5399999999999996,-0.20970239999999998,9.7051368,-1.030224,2.4536400000000005,0.0,0.0,0.0,0.0
3.5599999999999996,-0.2548128,9.7593912,-1.1926824,2.5304496,0.0,0.0,0.0,0.0
3.5799999999999996,-0.2977896,9.7593912,-1.0844784,2.4536400000000005,0.0,0.0,0.0,0.0
3.5999999999999996,-0.48310800000000004,9.813645600000001,-1.1387328,2.4536400000000005,0.0,0.0,0.0,0.0
3.6199999999999997,-0.498348,9.867595200000002,-1.0844784,2.3768304000000002,0.0,0.0,0.0,0.0
3.6399999999999997,-0.428244,9.813645600000001,-1.1387328,2.6069544000000002,0.0,0.0,0.0,0.0
3.6599999999999997,-0.32613600000000004,9.813645600000001,-1.1387328,2.5304496,0.0,0.0,0.0,0.0
3.6799999999999997,-0.368808,9.7593912,-1.1926824,2.5304496,0.0,0.0,0.0,0.0
3.6999999999999997,-0.33101280000000005,9.7593912,-1.0844784,2.5304496,0.0,0.0,0.0,0.0
3.7199999999999998,-0.37917120000000004,9.813645600000001,-1.1387328,2.5304496,0.0,0.0,0.0,0.0
3.7399999999999998,-0.11308080000000001,9.867595200000002,-1.0844784,2.5304496,0.0,0.0,0.0,0.0
3.76,-0.004876800000000005,9.7593912,-1.0844784,2.5304496,0.0,0.0,0.0,0.0
3.7799999999999994,0.007620000000000007,9.7593912,-1.0844784,2.6069544000000002,0.0,0.0,0.0,0.0
3.8,0.06035039999999999,9.7051368,-1.1387328,2.5304496,0.0,0.0,0.0,0.0
3.8199999999999994,0.036576,9.7593912,-1.0844784,2.6069544000000002,0.0,0.0,0.0,0.0
3.84,-0.11033760000000001,9.7593912,-1.0844784,2.4536400000000005,0.0,0.0,0.0,0.0
3.8599999999999994,-0.2167128,9.867595200000002,-0.9759696,2.6069544000000002,0.0,0.0,0.0,0.0
3.8799999999999994,-0.3480816,9.813645600000001,-1.1387328,2.4536400000000005,0.0,0.0,0.0,0.0
3.8999999999999995,-0.4858512,9.813645600000001,-1.1387328,2.4536400000000005,0.0,0.0,0.0,0.0
3.9199999999999995,-0.5388864,9.867595200000002,-1.1926824,2.4536400000000005,0.0,0.0,0.0,0.0
3.9399999999999995,-0.4849368,9.7051368,-1.1387328,2.3768304000000002,0.0,0.0,0.0,0.0
3.9599999999999995,-0.6458712,9.813645600000001,-1.030224,2.3768304000000002,0.0,0.0,0.0,0.0
3.9799999999999995,-0.1435608,9.813645600000001,-1.030224,2.5304496,0.0,0.0,0.0,0.0
3.9999999999999996,-0.09845040000000001,9.867595200000002,-0.9759696,2.4536400000000005,0.0,0.0,0.0,0.0
4.02,-0.05974079999999999,9.813645600000001,-1.030224,2.4536400000000005,0.0,0.0,0.0,0.0
4.039999999999999,0.1094232,9.813645600000001,-1.1387328,2.5304496,0.0,0.0,0.0,0.0
4.06,-0.32552640000000005,9.813645600000001,-1.1387328,2.5304496,0.0,0.0,0.0,0.0
4.08,-0.4230624,9.7593912,-1.0844784,2.4536400000000005,0.0,0.0,0.0,0.0
4.1,-0.4824984,9.867595200000002,-0.9759696,2.5304496,0.0,0.0,0.0,0.0
4.119999999999999,-0.3331464,9.813645600000001,-1.030224,2.4536400000000005,0.0,0.0,0.0,0.0
4.14,-0.1551432,9.7593912,-1.1926824,2.4536400000000005,0.0,0.0,0.0,0.0
4.159999999999999,-0.37764719999999996,9.7051368,-1.1387328,2.6069544000000002,0.0,0.0,0.0,0.0
4.18,-0.2974848,9.7593912,-1.1926824,2.6069544000000002,0.0,0.0,0.0,0.0
4.199999999999999,-0.1789176,9.813645600000001,-1.030224,2.6069544000000002,0.0,0.0,0.0,0.0
4.22,-0.42123360000000004,9.7051368,-1.030224,2.4536400000000005,0.0,0.0,0.0,0.0
4.239999999999999,-0.362712,9.7593912,-1.0844784,2.3768304000000002,0.0,0.0,0.0,0.0
4.26,-0.2490216,9.813645600000001,-1.1387328,2.5304496,0.0,0.0,0.0,0.0
4.279999999999999,0.01036320000000001,9.813645600000001,-1.1387328,2.4536400000000005,0.0,0.0,0.0,0.0
4.3,0.06278879999999999,9.7593912,-1.1926824,2.6069544000000002,0.0,0.0,0.0,0.0
4.319999999999999,-0.049987200000000016,9.813645600000001,-1.2469368,2.4536400000000005,0.0,0.0,0.0,0.0
4.34,-0.020116799999999987,9.813645600000001,-1.030224,2.4536400000000005,0.0,0.0,0.0,0.0
4.359999999999999,-0.08229600000000001,9.7593912,-1.0844784,2.4536400000000005,0.0,0.0,0.0,0.0
4.38,-0.0755904,9.813645600000001,-1.1387328,2.5304496,0.0,0.0,0.0,0.0
4.3999999999999995,-0.11917680000000001,9.813645600000001,-1.2469368,2.5304496,0.0,0.0,0.0,0.0
4.42,-0.15575280000000002,9.867595200000002,-1.1926824,2.5304496,0.0,0.0,0.0,0.0
4.4399999999999995,-0.17465039999999998,25.0487688,-4.6628304,4.907280000000001,0.0,0.0,0.0,0.0
4.46,-0.1755648,2.9818584,-12.416028,-5.5205376,0.0,0.0,0.0,0.0
4.4799999999999995,-0.16581120000000002,22.9886256,-2.3856696,5.6741568000000004,0.0,0.0,0.0,0.0
4.5,-0.1395984,14.6389344,-1.6264128000000002,2.8370784000000002,0.0,0.0,0.0,0.0
4.52,0.18348960000000003,11.4943128,-6.1807343999999995,-1.3801344,0.0,0.0,0.0,0.0
4.54,0.47487840000000003,8.837676,0.9217152000000001,2.1470112,0.0,0.0,0.0,0.0
4.56,0.8293608000000001,21.0366864,8.241182400000001,5.827471200000001,0.0,0.0,0.0,0.0
4.579999999999999,1.2198096000000003,11.1148368,0.2709672,0.5367528,0.0,0.0,0.0,0.0
4.6,2.1695664000000003,13.229234400000001,-1.6264128000000002,4.984089600000001,0.0,0.0,0.0,0.0
4.619999999999999,3.1778448000000004,6.9399912,-15.3978864,-1.6867632000000001,0.0,0.0,0.0,0.0
4.64,4.485741600000001,25.265786400000003,-5.421782400000001,2.7602688,0.0,0.0,0.0,0.0
4.659999999999999,5.620512000000001,43.9710576,-6.777228,7.130796,0.0,0.0,0.0,0.0
4.68,6.9146928,65.6042376,2.9279088,7.744358400000001,0.0,0.0,0.0,0.0
4.699999999999999,7.8732888,83.4963024,6.506260800000001,12.5748288,0.0,0.0,0.0,0.0
4.72,8.6611968,101.76784320000002,0.5964936000000001,18.632424,0.0,0.0,0.0,0.0
4.739999999999999,9.26592,101.27985840000001,9.3256608,21.622816800000003,0.0,0.0,0.0,0.0
4.76,7.415174400000001,221.9696856,0.0,86.56746720000001,0.0,0.0,0.0,0.0
4.779999999999999,2.3161752,108.9788016,8.4582,16.4086032,0.0,0.0,0.0,0.0
4.8,1.3459968000000002,105.40044960000002,-8.8919304,20.165872800000002,0.0,0.0,0.0,0.0
4.819999999999999,0.19751039999999997,107.4605928,-27.651456,7.2076056,0.0,0.0,0.0,0.0
4.84,5.3404008,111.201708,2.0061936,12.8817624,0.0,0.0,0.0,0.0
4.859999999999999,9.5420688,71.40549600000001,-0.37947600000000004,6.364224,0.0,0.0,0.0,0.0
4.88,11.613794400000002,58.5014832,0.9217152000000001,3.1437072,0.0,0.0,0.0,0.0
4.8999999999999995,13.105180800000001,54.59790960000001,1.3554456000000001,2.3003256,0.0,0.0,0.0,0.0
4.92,13.9839192,49.447094400000005,1.0844784,0.15331440000000002,0.0,0.0,0.0,0.0
4.9399999999999995,14.467332000000003,48.5253792,0.8132064000000001,-0.8433816000000001,0.0,0.0,0.0,0.0
4.96,14.628571200000001,45.326503200000005,1.3011912,-0.7668768,0.0,0.0,0.0,0.0
4.9799999999999995,14.618208000000001,43.9710576,1.5724632,-0.3834384,0.0,0.0,0.0,0.0
5.0,14.751710400000002,42.669866400000004,3.4158936000000004,-0.6135624,0.0,0.0,0.0,0.0
5.02,14.7745704,41.0974032,4.3376088,-0.30662880000000003,0.0,0.0,0.0,0.0
5.039999999999999,14.7998688,40.2299424,4.3376088,0.23012400000000002,0.0,0.0,0.0,0.0
5.06,14.8151088,39.57949920000001,4.6628304,1.4569440000000002,0.0,0.0,0.0,0.0
5.08,14.955316800000002,39.8504664,4.8252888,2.223516,0.0,0.0,0.0,0.0
5.1,15.3500328,40.175688,5.367528,2.3003256,0.0,0.0,0.0,0.0
5.119999999999999,16.2939984,39.633448800000004,5.801258400000001,3.450336,0.0,0.0,0.0,0.0
5.14,16.7557704,39.525244799999996,4.933797600000001,3.3738312000000006,0.0,0.0,0.0,0.0
5.159999999999999,17.4952152,38.332257600000005,5.6930544,3.1437072,0.0,0.0,0.0,0.0
5.18,18.254776800000002,37.7360688,4.445812800000001,2.683764,0.0,0.0,0.0,0.0
5.199999999999999,19.1990472,39.308227200000005,2.3314152,3.0672024,0.0,0.0,0.0,0.0
5.22,20.0159112,38.386512,2.3856696,2.5304496,0.0,0.0,0.0,0.0
5.239999999999999,20.8852008,37.410542400000004,2.9279088,2.3003256,0.0,0.0,0.0,0.0
5.26,21.2631528,35.2961448,2.8736544000000004,0.4599432,0.0,0.0,0.0,0.0
5.279999999999999,21.7928952,35.567112,2.4941784,0.6900672,0.0,0.0,0.0,0.0
5.3,22.320504000000003,36.163605600000004,1.030224,0.9201912000000001,0.0,0.0,0.0,0.0
5.319999999999999,22.939248000000003,36.976812,1.5182088,2.1470112,0.0,0.0,0.0,0.0
5.34,23.695152,35.512857600000004,1.8976848000000002,2.1470112,0.0,0.0,0.0,0.0
5.359999999999999,24.2709192,35.4046536,0.5964936000000001,2.223516,0.0,0.0,0.0,0.0
5.38,24.8643648,34.916668800000004,2.2771608000000003,2.3003256,0.0,0.0,0.0,0.0
5.3999999999999995,25.3880112,36.1093512,1.4097000000000002,2.3768304000000002,0.0,0.0,0.0,0.0
5.42,25.907085600000002,36.597336,0.37947600000000004,2.0702016,0.0,0.0,0.0,0.0
5.4399999999999995,26.5218672,35.0791272,2.2229064000000003,1.6102584000000002,0.0,0.0,0.0,0.0
5.46,27.2058384,35.024872800000004,0.0,2.1470112,0.0,0.0,0.0,0.0
5.4799999999999995,27.7660608,34.9709232,1.4639544,1.9936968000000002,0.0,0.0,0.0,0.0
5.5,28.391815200000003,34.3201752,2.0061936,1.8400776,0.0,0.0,0.0,0.0
5.52,28.991356800000002,34.916668800000004,3.3616392,3.2970216000000003,0.0,0.0,0.0,0.0
5.539999999999999,29.598823199999998,34.3201752,2.8736544000000004,3.8337744,0.0,0.0,0.0,0.0
5.56,30.1361856,33.7236816,4.988052,5.367223200000001,0.0,0.0,0.0,0.0
5.58,30.6595272,33.615477600000006,1.8434304000000001,5.367223200000001,0.0,0.0,0.0,0.0
5.6,31.377331200000004,33.181747200000004,1.4097000000000002,4.2937176,0.0,0.0,0.0,0.0
5.619999999999999,32.098488,32.5852536,1.5724632,3.450336,0.0,0.0,0.0,0.0
5.64,33.0247752,34.2659208,0.7589520000000001,2.223516,0.0,0.0,0.0,0.0
5.66,33.8172552,34.3201752,0.9217152000000001,1.8400776,0.0,0.0,0.0,0.0
5.68,34.8398592,33.6694272,3.6326064,-0.3834384,0.0,0.0,0.0,0.0
5.699999999999999,35.94780720000001,33.6694272,3.5240976,-1.4569440000000002,0.0,0.0,0.0,0.0
5.72,37.0944648,35.2418904,1.9519392,-0.0768096,0.0,0.0,0.0,0.0
5.739999999999999,38.0978664,33.0732384,3.2531304000000003,-0.8433816000000001,0.0,0.0,0.0,0.0
5.76,39.0610344,33.3442056,3.3073848000000003,0.30662880000000003,0.0,0.0,0.0,0.0
5.779999999999999,39.96049920000001,32.8019664,4.2833544,0.23012400000000002,0.0,0.0,0.0,0.0
5.8,40.893796800000004,34.1031576,3.6326064,1.9936968000000002,0.0,0.0,0.0,0.0
5.819999999999999,41.7539424,34.049208,1.4097000000000002,1.9936968000000002,0.0,0.0,0.0,0.0
5.84,42.572330400000006,32.4767448,3.957828,2.3768304000000002,0.0,0.0,0.0,0.0
5.859999999999999,43.4931312,32.368235999999996,1.5724632,3.5271456,0.0,0.0,0.0,0.0
5.88,44.452032,32.747712,0.9759696,2.5304496,0.0,0.0,0.0,0.0
5.8999999999999995,45.3249792,33.6694272,-1.3554456000000001,2.3768304000000002,0.0,0.0,0.0,0.0
5.92,46.407324,32.530999200000004,-1.0844784,0.4599432,0.0,0.0,0.0,0.0
5.9399999999999995,47.8081848,32.260032,1.5724632,-1.3036296,0.0,0.0,0.0,0.0
5.959999999999999,49.1294928,32.747712,0.8674608,-2.3003256,0.0,0.0,0.0,0.0
5.9799999999999995,50.1554496,32.368235999999996,1.2469368,-2.5304496,0.0,0.0,0.0,0.0
6.0,51.114350400000006,31.825996800000002,3.957828,-0.4599432,0.0,0.0,0.0,0.0
6.02,52.1201904,32.205777600000005,3.6868608000000003,-0.6135624,0.0,0.0,0.0,0.0
6.039999999999999,52.852015200000004,32.693762400000004,3.7411152,1.3801344,0.0,0.0,0.0,0.0
6.06,53.556408000000005,32.4767448,4.0663368,1.6102584000000002,0.0,0.0,0.0,0.0
6.08,54.280308000000005,32.747712,4.2291,2.3768304000000002,0.0,0.0,0.0,0.0
6.1,54.8832024,33.127492800000006,0.5964936000000001,2.1470112,0.0,0.0,0.0,0.0
6.119999999999999,55.73542320000001,32.1515232,-0.37947600000000004,1.5334488,0.0,0.0,0.0,0.0
6.14,56.327040000000004,32.368235999999996,1.4639544,0.0,0.0,0.0,0.0,0.0
6.16,56.9741304,31.988760000000003,2.4941784,0.6900672,0.0,0.0,0.0,0.0
6.18,57.6794376,31.500775200000003,0.7046976,-1.0735056,0.0,0.0,0.0,0.0
6.199999999999999,58.494168,32.368235999999996,2.6566368,-0.5367528,0.0,0.0,0.0,0.0
6.22,59.3908896,31.934505600000005,1.030224,-0.4599432,0.0,0.0,0.0,0.0
6.239999999999999,60.1528896,31.229808,1.8434304000000001,-2.7602688,0.0,0.0,0.0,0.0
6.26,60.9700584,31.3922664,4.8252888,-1.5334488,0.0,0.0,0.0,0.0
6.279999999999999,61.83294720000001,30.416601600000003,3.5240976,-2.3768304000000002,0.0,0.0,0.0,0.0
6.3,62.890298400000006,30.524805600000004,3.198876,-0.8433816000000001,0.0,0.0,0.0,0.0
6.319999999999999,63.7080768,31.609284000000002,3.5240976,-0.996696,0.0,0.0,0.0,0.0
6.34,64.7023344,31.0670448,1.5724632,-2.9135831999999997,0.0,0.0,0.0,0.0
6.359999999999999,65.7307296,31.825996800000002,2.0061936,-4.0638984,0.0,0.0,0.0,0.0
6.38,66.89689440000001,31.3922664,3.6326064,-3.1437072,0.0,0.0,0.0,0.0
6.3999999999999995,67.8753024,30.633314400000003,1.3554456000000001,-0.23012400000000002,0.0,0.0,0.0,0.0
6.42,68.9329584,31.0670448,1.5724632,0.6135624,0.0,0.0,0.0,0.0
6.4399999999999995,70.0463928,31.121299200000003,2.0601432,-2.683764,0.0,0.0,0.0,0.0
6.459999999999999,71.37989280000001,30.416601600000003,2.4399240000000004,-1.7635728,0.0,0.0,0.0,0.0
6.4799999999999995,72.4732104,30.362347200000002,2.7108912000000003,0.4599432,0.0,0.0,0.0,0.0
6.5,73.4921568,29.7658536,3.957828,0.15331440000000002,0.0,0.0,0.0,0.0
6.52,74.3504736,29.603090400000003,2.8194000000000004,-1.1500104,0.0,0.0,0.0,0.0
6.539999999999999,75.2417088,29.548835999999998,1.5724632,-0.8433816000000001,0.0,0.0,0.0,0.0
6.56,76.1262384,30.7418232,3.5240976,-0.9201912000000001,0.0,0.0,0.0,0.0
6.58,77.34513360000001,29.061156,3.9035736000000005,-3.7572696000000003,0.0,0.0,0.0,0.0
6.6,78.4674072,29.440632,5.367528,-3.5271456,0.0,0.0,0.0,0.0
6.619999999999999,79.40680079999998,28.9526472,4.3376088,-3.2205168000000004,0.0,0.0,0.0,0.0
6.64,80.7137832,28.8441384,6.2892432000000005,-1.2268200000000002,0.0,0.0,0.0,0.0
6.66,81.9159144,26.5127232,5.6930544,1.0735056,0.0,0.0,0.0,0.0
6.68,83.04458879999999,29.494886400000002,6.614769600000001,-1.1500104,0.0,0.0,0.0,0.0
6.699999999999999,84.4622136,29.115105600000003,8.6206584,-3.2970216000000003,0.0,0.0,0.0,0.0
6.72,85.7993712,28.9526472,3.4698432,-3.9870888,0.0,0.0,0.0,0.0
6.74,86.80703999999999,28.898392800000003,1.5724632,-3.9870888,0.0,0.0,0.0,0.0
6.76,87.7985544,28.1394408,0.9217152000000001,-3.7572696000000003,0.0,0.0,0.0,0.0
6.779999999999999,88.8193296,28.247644800000003,3.8496240000000004,-0.0768096,0.0,0.0,0.0,0.0
6.8,89.86906079999999,28.247644800000003,4.1748456,-0.6900672,0.0,0.0,0.0,0.0
6.819999999999999,91.063572,26.7836904,3.3616392,-1.9168872,0.0,0.0,0.0,0.0
6.84,92.34403679999998,27.109216800000002,2.0601432,-2.4536400000000005,0.0,0.0,0.0,0.0
6.859999999999999,93.5641512,27.542947200000004,2.9279088,-3.910584,0.0,0.0,0.0,0.0
6.879999999999999,94.4761128,27.054962400000004,4.933797600000001,-3.6036504000000003,0.0,0.0,0.0,0.0
6.8999999999999995,95.34143999999999,28.5731712,3.957828,-2.5304496,0.0,0.0,0.0,0.0
6.92,96.28357679999999,27.705405600000002,3.198876,-2.8370784000000002,0.0,0.0,0.0,0.0
6.9399999999999995,97.32629759999999,28.247644800000003,2.548128,-4.677156,0.0,0.0,0.0,0.0
6.959999999999999,98.23033439999999,28.3018992,2.8194000000000004,-3.3738312000000006,0.0,0.0,0.0,0.0
6.9799999999999995,99.0764592,27.759660000000004,2.7108912000000003,-1.3036296,0.0,0.0,0.0,0.0
7.0,99.9216696,25.8080256,2.9279088,-2.7602688,0.0,0.0,0.0,0.0
7.02,100.84186079999999,27.705405600000002,2.548128,-3.6036504000000003,0.0,0.0,0.0,0.0
7.039999999999999,101.9016504,25.4824992,4.7713392,-3.910584,0.0,0.0,0.0,0.0
7.06,102.82001279999999,26.5127232,6.4520064,-4.523841600000001,0.0,0.0,0.0,0.0
7.08,103.71917279999998,26.0247384,6.0725304,-4.0638984,0.0,0.0,0.0,0.0
7.1,104.6021784,26.837944800000002,3.4158936000000004,-4.984089600000001,0.0,0.0,0.0,0.0
7.119999999999999,105.6714168,26.837944800000002,5.1508152,-5.060594400000001,0.0,0.0,0.0,0.0
7.14,106.6885344,26.566977600000005,4.7713392,-5.827471200000001,0.0,0.0,0.0,0.0
7.16,107.8236096,26.458468800000002,3.3616392,-4.677156,0.0,0.0,0.0,0.0
7.18,109.0799952,26.8921992,1.9519392,-5.367223200000001,0.0,0.0,0.0,0.0
7.199999999999999,110.320836,25.265786400000003,3.7953696000000003,-5.060594400000001,0.0,0.0,0.0,0.0
7.22,111.6308664,24.344071200000002,4.2833544,-3.7572696000000003,0.0,0.0,0.0,0.0
7.24,113.05946399999999,25.9162296,2.2771608000000003,-4.2172128,0.0,0.0,0.0,0.0
7.26,114.309144,26.621232000000003,3.198876,-5.827471200000001,0.0,0.0,0.0,0.0
7.279999999999999,115.6493496,29.820108,3.0361128,-3.5271456,0.0,0.0,0.0,0.0
7.3,116.9633424,25.86228,4.3915584,-6.5175384,0.0,0.0,0.0,0.0
7.319999999999999,118.160292,26.9464536,3.6326064,-7.5142344,0.0,0.0,0.0,0.0
7.34,119.53280639999998,25.4824992,2.6023824,-8.1277968,0.0,0.0,0.0,0.0
7.359999999999999,120.912636,26.0789928,3.5240976,-4.907280000000001,0.0,0.0,0.0,0.0
7.379999999999999,122.24369759999999,26.1875016,2.2229064000000003,-3.7572696000000003,0.0,0.0,0.0,0.0
7.3999999999999995,123.3592656,25.591008,5.3132736,-3.9870888,0.0,0.0,0.0,0.0
7.42,124.4029008,22.2836232,5.476036800000001,-6.1341,0.0,0.0,0.0,0.0
7.4399999999999995,125.4227616,13.0664712,2.8736544000000004,-10.3513128,0.0,0.0,0.0,0.0
7.459999999999999,126.1683024,2.3314152,2.1143976,-8.58774,0.0,0.0,0.0,0.0
7.4799999999999995,126.178056,-4.988052,1.8434304000000001,-9.2013024,0.0,0.0,0.0,0.0
7.5,126.6492768,-7.3194672,-3.4158936000000004,-12.498324000000002,0.0,0.0,0.0,0.0
7.52,126.11008559999999,-8.5121496,3.198876,-15.871850400000001,0.0,0.0,0.0,0.0
7.539999999999999,125.5779048,-8.94588,8.295436800000001,-11.501323200000002,0.0,0.0,0.0,0.0
7.56,124.8061512,-8.4582,3.578352,-11.271504,0.0,0.0,0.0,0.0
7.58,124.5162864,-8.241182400000001,5.096560800000001,-10.3513128,0.0,0.0,0.0,0.0
7.6,124.5510336,-8.8919304,2.2771608000000003,-10.3513128,0.0,0.0,0.0,0.0
7.619999999999999,124.597668,-8.4039456,1.1387328,-10.5046272,0.0,0.0,0.0,0.0
7.64,124.92837599999999,-8.8919304,2.8194000000000004,-10.274503200000002,0.0,0.0,0.0,0.0
7.66,125.3252256,-7.3194672,1.3554456000000001,-11.9615712,0.0,0.0,0.0,0.0
7.68,125.9381784,-8.6206584,2.2229064000000003,-11.8847616,0.0,0.0,0.0,0.0
7.699999999999999,126.77607359999999,-7.1024496,2.2229064000000003,-12.8817624,0.0,0.0,0.0,0.0
7.72,127.7261352,-6.885736800000001,2.8736544000000004,-13.9549632,0.0,0.0,0.0,0.0
7.74,128.8734024,-8.1326736,3.6868608000000003,-11.3480088,0.0,0.0,0.0,0.0
7.76,130.1803848,-7.6989432,1.8434304000000001,-9.5079312,0.0,0.0,0.0,0.0
7.779999999999999,131.58490319999999,-8.241182400000001,1.3011912,-8.2043016,0.0,0.0,0.0,0.0
7.8,132.920232,-6.777228,0.16276320000000002,-9.6612456,0.0,0.0,0.0,0.0
7.819999999999999,134.0610984,-6.885736800000001,2.0061936,-9.2778072,0.0,0.0,0.0,0.0
7.84,135.57504,-7.807452,0.650748,-8.8943688,0.0,0.0,0.0,0.0
7.859999999999999,137.03533679999998,-6.7229735999999995,3.3616392,-14.5685256,0.0,0.0,0.0,0.0
7.879999999999999,138.4090704,-7.3194672,1.5724632,-12.2682,0.0,0.0,0.0,0.0
7.8999999999999995,139.9086864,-7.210958400000001,3.198876,-9.1244928,0.0,0.0,0.0,0.0
7.92,141.0745464,-7.4822304,0.5422392,-5.9807856,0.0,0.0,0.0,0.0
7.9399999999999995,142.3099008,-6.9399912,1.5182088,-6.2109096,0.0,0.0,0.0,0.0
7.959999999999999,143.4559488,-6.777228,2.2229064000000003,-9.814560000000002,0.0,0.0,0.0,0.0
7.9799999999999995,144.728184,-6.8314824000000005,2.4941784,-11.654637600000001,0.0,0.0,0.0,0.0
8.0,145.8288168,-6.614769600000001,2.9279088,-11.271504,0.0,0.0,0.0,0.0
8.02,146.916648,-6.668719200000001,2.0061936,-11.501323200000002,0.0,0.0,0.0,0.0
8.04,148.0041744,-6.018276,0.5964936000000001,-10.3513128,0.0,0.0,0.0,0.0
8.059999999999999,148.934424,-6.1267848,0.2709672,-9.047683200000002,0.0,0.0,0.0,0.0
8.08,150.01951200000002,-6.7229735999999995,0.8674608,-9.2013024,0.0,0.0,0.0,0.0
8.1,151.0872264,-6.7229735999999995,-0.650748,-7.9744824,0.0,0.0,0.0,0.0
8.12,152.2122432,-6.506260800000001,0.7589520000000001,-8.1277968,0.0,0.0,0.0,0.0
8.14,153.1549896,-6.018276,1.030224,-9.047683200000002,0.0,0.0,0.0,0.0
8.16,154.18765199999999,-6.7229735999999995,2.8194000000000004,-8.4344256,0.0,0.0,0.0,0.0
8.18,155.2465272,-7.3194672,2.4399240000000004,-6.747662400000001,0.0,0.0,0.0,0.0
8.2,156.3050976,-6.018276,0.2709672,-8.8943688,0.0,0.0,0.0,0.0
8.219999999999999,157.35208559999998,-6.018276,1.4639544,-8.4344256,0.0,0.0,0.0,0.0
8.24,158.2576464,-6.2349888,1.6806672000000002,-8.2043016,0.0,0.0,0.0,0.0
8.26,159.236664,-5.5845456,0.0542544,-8.2043016,0.0,0.0,0.0,0.0
8.28,160.1848968,-6.2349888,-0.16276320000000002,-8.5109304,0.0,0.0,0.0,0.0
8.3,161.1270336,-5.0423064,-0.16276320000000002,-7.2076056,0.0,0.0,0.0,0.0
8.32,162.0405192,-5.205069600000001,-0.5422392,-7.36092,0.0,0.0,0.0,0.0
8.34,162.9326688,-5.801258400000001,-0.4879848,-9.047683200000002,0.0,0.0,0.0,0.0
8.36,163.91321040000003,-5.7470040000000004,1.4097000000000002,-7.9744824,0.0,0.0,0.0,0.0
8.379999999999999,164.8169424,-6.777228,0.37947600000000004,-5.597347200000001,0.0,0.0,0.0,0.0
8.399999999999999,165.7423152,-5.964021600000001,0.7589520000000001,-5.367223200000001,0.0,0.0,0.0,0.0
8.42,166.6771368,-5.8555128,2.2771608000000003,-5.6741568000000004,0.0,0.0,0.0,0.0
8.44,167.66072640000002,-5.476036800000001,0.4879848,-6.2874144,0.0,0.0,0.0,0.0
8.459999999999999,168.5248344,-6.2892432000000005,1.1926824,-8.2043016,0.0,0.0,0.0,0.0
8.48,169.33042079999998,-5.3132736,1.7349216,-8.8943688,0.0,0.0,0.0,0.0
8.5,170.3880768,-5.096560800000001,0.3252216,-10.1979984,0.0,0.0,0.0,0.0
8.52,171.2348112,-5.5845456,1.030224,-10.1979984,0.0,0.0,0.0,0.0
8.54,172.1105016,-5.0423064,0.5964936000000001,-8.5109304,0.0,0.0,0.0,0.0
8.559999999999999,172.93742400000002,-6.1267848,2.0061936,-6.2874144,0.0,0.0,0.0,0.0
8.579999999999998,173.7643464,-4.8252888,1.6806672000000002,-5.750661600000001,0.0,0.0,0.0,0.0
8.6,174.8308416,-5.7470040000000004,0.2170176,-5.9807856,0.0,0.0,0.0,0.0
8.62,175.58613599999998,-4.608576,-0.0542544,-6.6708528000000005,0.0,0.0,0.0,0.0
8.64,176.56362959999998,-4.7170848,0.16276320000000002,-8.050987200000002,0.0,0.0,0.0,0.0
8.66,177.4106688,-5.096560800000001,0.4337304,-8.1277968,0.0,0.0,0.0,0.0
8.68,178.2555744,-4.8252888,1.5724632,-4.984089600000001,0.0,0.0,0.0,0.0
8.7,179.0239752,-5.638800000000001,3.1446216000000002,-5.060594400000001,0.0,0.0,0.0,0.0
8.719999999999999,179.88137759999998,-4.445812800000001,2.7108912000000003,-6.747662400000001,0.0,0.0,0.0,0.0
8.739999999999998,180.958236,-4.8252888,2.6566368,-4.7539656,0.0,0.0,0.0,0.0
8.76,181.776624,-5.3132736,3.578352,-5.6741568000000004,0.0,0.0,0.0,0.0
8.78,182.74588799999998,-4.3376088,0.4337304,-7.591044000000001,0.0,0.0,0.0,0.0
8.8,183.5603136,-4.8252888,-0.8132064000000001,-9.047683200000002,0.0,0.0,0.0,0.0
8.82,184.30250159999997,-4.445812800000001,1.4097000000000002,-8.971178400000001,0.0,0.0,0.0,0.0
8.84,185.2903584,-4.8795432000000005,1.3011912,-7.5142344,0.0,0.0,0.0,0.0
8.86,186.1812888,-4.608576,0.9217152000000001,-5.367223200000001,0.0,0.0,0.0,0.0
8.879999999999999,187.09385999999998,-4.445812800000001,-0.3252216,-5.2139088000000005,0.0,0.0,0.0,0.0
8.899999999999999,187.854336,-4.3915584,-0.16276320000000002,-5.9807856,0.0,0.0,0.0,0.0
8.92,188.7303312,-3.7953696000000003,0.0,-4.7539656,0.0,0.0,0.0,0.0
8.94,189.6995952,-4.8252888,1.5724632,-5.6741568000000004,0.0,0.0,0.0,0.0
8.96,190.5356616,-4.988052,1.8434304000000001,-5.060594400000001,0.0,0.0,0.0,0.0
8.98,191.5817352,-4.0663368,2.1143976,-4.7539656,0.0,0.0,0.0,0.0
9.0,192.3864072,-4.012082400000001,1.3011912,-6.5175384,0.0,0.0,0.0,0.0
9.02,193.2377136,-4.3376088,1.1926824,-5.9807856,0.0,0.0,0.0,0.0
9.04,194.0603688,-3.8496240000000004,0.4879848,-6.8241672,0.0,0.0,0.0,0.0
9.059999999999999,194.96013839999998,-3.8496240000000004,0.5964936000000001,-5.5205376,0.0,0.0,0.0,0.0
9.079999999999998,195.9321456,-4.2833544,0.9217152000000001,-5.4440328000000004,0.0,0.0,0.0,0.0
9.1,196.83465840000002,-3.6868608000000003,0.650748,-5.903976000000001,0.0,0.0,0.0,0.0
9.12,197.5536816,-3.957828,0.2709672,-5.2907184,0.0,0.0,0.0,0.0
9.14,198.351648,-3.8496240000000004,0.37947600000000004,-5.827471200000001,0.0,0.0,0.0,0.0
9.16,199.0447632,-3.3616392,0.0,-5.5205376,0.0,0.0,0.0,0.0
9.18,199.88143920000002,-3.6868608000000003,0.5422392,-5.2139088000000005,0.0,0.0,0.0,0.0
9.2,200.5318824,-3.6326064,1.789176,-5.4440328000000004,0.0,0.0,0.0,0.0
9.219999999999999,201.3947712,-3.3073848000000003,0.5964936000000001,-3.9870888,0.0,0.0,0.0,0.0
9.239999999999998,202.11836639999999,-4.012082400000001,0.9759696,-4.1404032,0.0,0.0,0.0,0.0
9.26,202.98277919999998,-3.6326064,0.9217152000000001,-4.984089600000001,0.0,0.0,0.0,0.0
9.28,203.63688000000002,-3.0903671999999998,-0.2709672,-4.677156,0.0,0.0,0.0,0.0
9.3,204.2900664,-3.578352,0.650748,-5.2139088000000005,0.0,0.0,0.0,0.0
9.32,205.0225008,-3.6868608000000003,0.8674608,-4.370527200000001,0.0,0.0,0.0,0.0
9.34,205.68666,-3.7953696000000003,0.5422392,-3.3738312000000006,0.0,0.0,0.0,0.0
9.36,206.5650936,-3.578352,0.4337304,-3.8337744,0.0,0.0,0.0,0.0
9.379999999999999,207.33288480000002,-3.3616392,0.3252216,-3.910584,0.0,0.0,0.0,0.0
9.399999999999999,208.1015904,-3.3616392,0.3252216,-4.7539656,0.0,0.0,0.0,0.0
9.42,208.7913528,-3.5240976,0.9217152000000001,-4.8304704,0.0,0.0,0.0,0.0
9.44,209.37260640000002,-3.0361128,1.0844784,-5.597347200000001,0.0,0.0,0.0,0.0
9.46,210.0992496,-3.3073848000000003,1.3554456000000001,-5.367223200000001,0.0,0.0,0.0,0.0
9.48,210.7311,-3.0903671999999998,1.2469368,-5.4440328000000004,0.0,0.0,0.0,0.0
9.5,211.4120232,-3.2531304000000003,0.650748,-4.907280000000001,0.0,0.0,0.0,0.0
9.52,212.1084912,-3.4698432,0.4337304,-3.7572696000000003,0.0,0.0,0.0,0.0
9.54,212.69858399999998,-2.6566368,-0.5964936000000001,-3.6036504000000003,0.0,0.0,0.0,0.0
9.559999999999999,213.28623839999997,-2.9818584,-1.2469368,-3.6036504000000003,0.0,0.0,0.0,0.0
9.579999999999998,214.0650024,-2.9279088,0.5422392,-4.4473368,0.0,0.0,0.0,0.0
9.6,214.9641624,-3.0361128,0.5422392,-4.6006512,0.0,0.0,0.0,0.0
9.62,215.5691904,-2.7108912000000003,0.4337304,-4.677156,0.0,0.0,0.0,0.0
9.64,216.220548,-2.7651456,0.8132064000000001,-4.907280000000001,0.0,0.0,0.0,0.0
9.66,216.767664,-3.0361128,0.8674608,-4.1404032,0.0,0.0,0.0,0.0
9.68,217.33642079999998,-2.9279088,0.650748,-4.0638984,0.0,0.0,0.0,0.0
9.7,217.8820128,-3.1446216000000002,0.0,-3.5271456,0.0,0.0,0.0,0.0
9.719999999999999,218.474544,-3.1446216000000002,0.5422392,-4.2172128,0.0,0.0,0.0,0.0
9.739999999999998,219.1810704,-2.9818584,-0.37947600000000004,-3.68046,0.0,0.0,0.0,0.0
9.76,219.83486639999998,-2.4399240000000004,-0.7046976,-3.5271456,0.0,0.0,0.0,0.0
9.78,220.48896720000002,-2.548128,-1.1387328,-3.2205168000000004,0.0,0.0,0.0,0.0
9.8,221.0650392,-2.4941784,-0.4337304,-4.1404032,0.0,0.0,0.0,0.0
9.82,221.58746639999998,-2.6566368,-0.2709672,-3.7572696000000003,0.0,0.0,0.0,0.0
9.84,222.2900304,-2.4399240000000004,0.2709672,-4.4473368,0.0,0.0,0.0,0.0
9.86,222.7228464,-2.6023824,0.0,-4.0638984,0.0,0.0,0.0,0.0
9.879999999999999,223.32604560000001,-2.7651456,0.2709672,-4.2172128,0.0,0.0,0.0,0.0
9.899999999999999,223.91217600000002,-2.6023824,0.0,-4.2172128,0.0,0.0,0.0,0.0
9.92,224.27519279999999,-2.3856696,-0.2170176,-4.2172128,0.0,0.0,0.0,0.0
9.94,224.8881456,-2.4399240000000004,0.16276320000000002,-3.7572696000000003,0.0,0.0,0.0,0.0
9.96,225.4306896,-2.4399240000000004,-0.7046976,-4.0638984,0.0,0.0,0.0,0.0
9.98,226.09362959999999,-2.2771608000000003,-0.4337304,-3.1437072,0.0,0.0,0.0,0.0
10.0,226.52888399999998,-2.4941784,-0.1085088,-3.3738312000000006,0.0,0.0,0.0,0.0
10.02,226.9638336,-2.2771608000000003,-0.8674608,-3.9870888,0.0,0.0,0.0,0.0
10.04,227.53380959999998,-2.4941784,-0.4337304,-3.6036504000000003,0.0,0.0,0.0,0.0
10.059999999999999,227.9455944,-1.8976848000000002,-1.1387328,-2.683764,0.0,0.0,0.0,0.0
10.079999999999998,228.5408688,-2.1686520000000002,-0.3252216,-2.9903928,0.0,0.0,0.0,0.0
10.1,229.0477512,-2.3856696,-0.7589520000000001,-2.6069544000000002,0.0,0.0,0.0,0.0
10.12,229.53207840000002,-2.6023824,-0.2170176,-2.9135831999999997,0.0,0.0,0.0,0.0
10.14,230.03621760000001,-2.3314152,-0.5964936000000001,-3.1437072,0.0,0.0,0.0,0.0
10.16,230.6638008,-2.1143976,-0.4879848,-4.2937176,0.0,0.0,0.0,0.0
10.18,231.174036,-1.7349216,0.4337304,-4.6006512,0.0,0.0,0.0,0.0
10.2,231.70042560000002,-2.1686520000000002,0.4337304,-4.0638984,0.0,0.0,0.0,0.0
10.219999999999999,232.2585144,-2.0061936,0.8132064000000001,-3.6036504000000003,0.0,0.0,0.0,0.0
10.239999999999998,232.7839896,-2.1143976,-1.030224,-2.7602688,0.0,0.0,0.0,0.0
10.26,233.2622208,-1.9519392,-0.8674608,-2.683764,0.0,0.0,0.0,0.0
10.28,233.8611528,-1.8434304000000001,0.2170176,-2.683764,0.0,0.0,0.0,0.0
10.3,234.27415680000001,-2.3856696,1.5182088,-2.7602688,0.0,0.0,0.0,0.0
10.32,234.683808,-2.0601432,0.7589520000000001,-4.0638984,0.0,0.0,0.0,0.0
10.34,235.0513968,-1.8976848000000002,0.8132064000000001,-3.7572696000000003,0.0,0.0,0.0,0.0
10.36,235.5454776,-1.5182088,0.8674608,-3.7572696000000003,0.0,0.0,0.0,0.0
10.379999999999999,236.2206096,-1.8976848000000002,1.5724632,-3.68046,0.0,0.0,0.0,0.0
10.399999999999999,236.79058559999999,-1.6264128000000002,0.8674608,-3.0672024,0.0,0.0,0.0,0.0
10.42,237.32855759999998,-1.789176,0.37947600000000004,-2.5304496,0.0,0.0,0.0,0.0
10.44,237.89457120000003,-1.6806672000000002,-0.4879848,-2.5304496,0.0,0.0,0.0,0.0
10.46,238.4413824,-1.7349216,-0.8674608,-2.9135831999999997,0.0,0.0,0.0,0.0
10.48,238.91565119999999,-1.6806672000000002,-0.9217152000000001,-3.1437072,0.0,0.0,0.0,0.0
10.5,239.4389928,-1.7349216,-0.9759696,-3.2205168000000004,0.0,0.0,0.0,0.0
10.52,239.860836,-1.6264128000000002,-0.9759696,-3.1437072,0.0,0.0,0.0,0.0
10.54,240.3860064,-1.7349216,0.1085088,-3.2205168000000004,0.0,0.0,0.0,0.0
10.559999999999999,240.8425968,-1.4639544,0.37947600000000004,-2.9903928,0.0,0.0,0.0,0.0
10.579999999999998,241.3199136,-1.5724632,0.5964936000000001,-1.7635728,0.0,0.0,0.0,0.0
10.6,241.7435856,-1.5182088,0.3252216,-1.6102584000000002,0.0,0.0,0.0,0.0
10.62,242.21572079999999,-1.5182088,0.2170176,-1.3036296,0.0,0.0,0.0,0.0
10.64,242.718336,-1.6264128000000002,0.1085088,-1.5334488,0.0,0.0,0.0,0.0
10.66,243.1645632,-1.5724632,0.2709672,-2.3003256,0.0,0.0,0.0,0.0
10.68,243.62785920000002,-1.5724632,0.16276320000000002,-2.683764,0.0,0.0,0.0,0.0
10.7,243.99209520000002,-1.3011912,0.1085088,-2.9135831999999997,0.0,0.0,0.0,0.0
10.719999999999999,244.45661040000002,-1.3554456000000001,0.37947600000000004,-2.9903928,0.0,0.0,0.0,0.0
10.739999999999998,244.82633280000002,-1.3011912,0.3252216,-2.9903928,0.0,0.0,0.0,0.0
10.76,245.24482319999998,-1.1387328,0.5964936000000001,-2.9135831999999997,0.0,0.0,0.0,0.0
10.78,245.6953176,-1.2469368,0.2709672,-3.1437072,0.0,0.0,0.0,0.0
10.8,246.075708,-1.2469368,1.030224,-3.7572696000000003,0.0,0.0,0.0,0.0
10.82,246.48505440000002,-1.3554456000000001,1.2469368,-2.7602688,0.0,0.0,0.0,0.0
10.84,246.8151528,-1.1387328,1.5724632,-2.223516,0.0,0.0,0.0,0.0
10.86,247.1446416,-1.4097000000000002,0.5422392,-2.0702016,0.0,0.0,0.0,0.0
10.879999999999999,247.4616336,-1.2469368,0.8132064000000001,-1.7635728,0.0,0.0,0.0,0.0
10.899999999999999,247.791732,-1.1387328,0.16276320000000002,-1.6102584000000002,0.0,0.0,0.0,0.0
10.92,248.10841920000001,-1.2469368,0.2709672,-1.8400776,0.0,0.0,0.0,0.0
10.94,248.5957944,-0.9217152000000001,0.0542544,-1.8400776,0.0,0.0,0.0,0.0
10.96,249.02922,-0.9217152000000001,-0.16276320000000002,-2.3768304000000002,0.0,0.0,0.0,0.0
10.98,249.4413096,-0.8674608,-0.650748,-2.9903928,0.0,0.0,0.0,0.0
11.0,250.0524336,-0.1085088,-0.4337304,-2.223516,0.0,0.0,0.0,0.0
11.02,250.68458880000003,1.030224,0.0542544,-2.1470112,0.0,0.0,0.0,0.0
11.04,250.96591920000003,63.3270768,54.3266376,30.5171856,0.0,0.0,0.0,0.0
11.059999999999999,251.3780088,131.42518800000002,-49.5556032,-111.4873056,0.0,0.0,0.0,0.0
11.079999999999998,251.7900984,-119.2261776,102.8520168,-32.127444000000004,0.0,0.0,0.0,0.0
11.1,252.20157840000002,36.7058448,3.957828,44.47214880000001,0.0,0.0,0.0,0.0
11.12,252.61305840000003,61.3751376,-2.6023824,12.421514400000001,0.0,0.0,0.0,0.0
11.14,253.0242336,-100.73761920000001,65.49572880000001,100.59924000000001,0.0,0.0,0.0,0.0
11.16,257.6322,39.633448800000004,-10.247376,-52.8300696,0.0,0.0,0.0,0.0
11.18,258.734052,-60.670135200000004,-34.9709232,-95.3085216,0.0,0.0,0.0,0.0
11.2,262.72418880000004,-77.6947392,-3.6326064,-65.8648416,0.0,0.0,0.0,0.0
11.219999999999999,265.22568240000004,-28.735629600000003,-102.68955840000001,-116.778024,0.0,0.0,0.0,0.0
11.239999999999998,268.2343632,-170.2454304,-51.832764000000005,-91.01480400000001,0.0,0.0,0.0,0.0
11.26,270.4133784,-39.1997184,-101.98455600000001,16.5622224,0.0,0.0,0.0,0.0
11.28,269.22709679999997,-109.95477120000001,-53.567685600000004,39.25824000000001,0.0,0.0,0.0,0.0
11.3,266.8572768,-96.45426480000002,-27.9224232,32.6641968,0.0,0.0,0.0,0.0
11.32,263.7400872,-57.851040000000005,8.729167200000001,17.3287944,0.0,0.0,0.0,0.0
11.34,264.2518464,-45.651724800000004,-36.7600992,-8.971178400000001,0.0,0.0,0.0,0.0
11.36,264.0781104,-38.2780032,-64.51975920000001,-8.8943688,0.0,0.0,0.0,0.0
11.379999999999999,265.6844064,-9.488119200000002,9.379915200000001,-60.5741232,0.0,0.0,0.0,0.0
11.399999999999999,266.1769632,-10.5725976,-11.873788800000002,-52.2165072,0.0,0.0,0.0,0.0
11.42,263.7653856,3.4158936000000004,6.777228,-27.449983200000002,0.0,0.0,0.0,0.0
11.44,263.723628,48.633888000000006,-29.6573448,-17.942356800000002,0.0,0.0,0.0,0.0
11.46,262.8537288,-212.91529680000002,1.5724632,-27.2966688,0.0,0.0,0.0,0.0
11.48,262.7598504,15.6691584,43.2121056,26.759916,0.0,0.0,0.0,0.0
11.5,262.141716,7.807452,-112.4486448,-76.59959280000001,0.0,0.0,0.0,0.0
11.52,261.6156312,-136.5217488,-72.8694504,-157.03296000000003,0.0,0.0,0.0,0.0
11.54,259.9188096,30.2538384,11.6028216,66.018156,0.0,0.0,0.0,0.0
11.559999999999999,259.1321208,-40.2299424,9.6508824,-3.450336,0.0,0.0,0.0,0.0
11.579999999999998,258.07568399999997,-38.8744968,12.0908064,-20.319187200000002,0.0,0.0,0.0,0.0
11.6,256.1984208,-6.018276,38.332257600000005,13.418210400000001,0.0,0.0,0.0,0.0
11.62,254.6799072,15.506395200000002,-9.217152,67.1684712,0.0,0.0,0.0,0.0
11.64,254.8716264,-5.476036800000001,-83.11652160000001,-63.79464000000001,0.0,0.0,0.0,0.0
11.66,253.62377519999998,57.363055200000005,-125.46116640000001,-14.2618968,0.0,0.0,0.0,0.0
11.68,253.0818408,-87.399876,-43.4830728,-24.306276000000004,0.0,0.0,0.0,0.0
11.7,253.843536,-168.0767784,54.001416,-157.03296000000003,0.0,0.0,0.0,0.0
11.719999999999999,254.856996,-40.175688,7.970215200000001,79.35986160000002,0.0,0.0,0.0,0.0
11.739999999999998,255.63758880000003,-42.940833600000005,36.434572800000005,-34.1976456,0.0,0.0,0.0,0.0
11.76,256.1959824,56.00760960000001,80.0804088,86.0307144,0.0,0.0,0.0,0.0
11.78,256.5071832,-185.5351128,36.5430816,-157.03296000000003,0.0,0.0,0.0,0.0
11.8,256.58856480000003,221.9696856,0.0,-3.6036504000000003,0.0,0.0,0.0,0.0
11.82,256.8702,-218.55409680000002,-3.5240976,152.7389376,0.0,0.0,0.0,0.0
11.84,257.1326328,-134.35279200000002,-42.615612,-15.718536,0.0,0.0,0.0,0.0
11.86,257.1164784,36.922557600000005,14.8016976,-53.98008,0.0,0.0,0.0,0.0
11.879999999999999,257.470656,-2.3314152,-70.754748,-97.07209440000001,0.0,0.0,0.0,0.0
11.899999999999999,257.696208,74.8753392,12.524536800000002,-21.0092544,0.0,0.0,0.0,0.0
11.92,257.6776152,-50.043588,22.5006408,8.971178400000001,0.0,0.0,0.0,0.0
11.94,257.7425376,38.495020800000006,60.7243896,36.574476000000004,0.0,0.0,0.0,0.0
11.96,257.9452296,-26.837944800000002,-21.199449600000005,-10.811256,0.0,0.0,0.0,0.0
11.98,258.0942768,81.1106328,1.1926824,-53.059888799999996,0.0,0.0,0.0,0.0
12.0,258.1710864,14.096695200000001,14.747443200000001,17.5589184,0.0,0.0,0.0,0.0
12.02,258.4926504,-51.832764000000005,-15.0726648,-25.456591200000002,0.0,0.0,0.0,0.0
12.04,258.8553624,-11.1690912,-7.915960800000001,-29.827118400000003,0.0,0.0,0.0,0.0
12.059999999999999,259.0812192,8.295436800000001,-12.0908064,1.4569440000000002,0.0,0.0,0.0,0.0
12.079999999999998,259.4360064,0.0,26.7836904,-17.7122328,0.0,0.0,0.0,0.0
12.1,259.3046376,30.1453296,45.109485600000006,-10.5814368,0.0,0.0,0.0,0.0
12.12,259.3503576,5.096560800000001,-46.51918560000001,-74.605896,0.0,0.0,0.0,0.0
12.14,259.1443128,124.1057208,27.705405600000002,-22.389388800000003,0.0,0.0,0.0,0.0
12.16,258.9815496,56.6037984,69.7248288,70.0055496,0.0,0.0,0.0,0.0
12.18,258.6910752,-5.1508152,44.187770400000005,0.5367528,0.0,0.0,0.0,0.0
12.2,258.5240448,-87.29136720000001,63.001550400000006,-33.660892800000006,0.0,0.0,0.0,0.0
12.219999999999999,258.7316136,46.844712,-89.3518152,-66.7082232,0.0,0.0,0.0,0.0
12.239999999999998,258.8830992,-6.885736800000001,5.367528,28.906927200000002,0.0,0.0,0.0,0.0
12.26,258.98459760000003,-14.964156000000001,21.5789256,-3.8337744,0.0,0.0,0.0,0.0
12.28,258.93491520000003,-17.024604,-19.3017648,-35.7310944,0.0,0.0,0.0,0.0
12.3,258.8687736,-23.4766104,-22.5006408,22.08276,0.0,0.0,0.0,0.0
12.32,258.654804,-20.006462400000004,-9.2714064,-3.6036504000000003,0.0,0.0,0.0,0.0
12.34,258.46278,-13.9342368,-14.8016976,5.903976000000001,0.0,0.0,0.0,0.0
12.36,258.3731688,-15.560649600000001,-16.645128,2.8370784000000002,0.0,0.0,0.0,0.0
12.379999999999999,258.19364160000003,1.4639544,6.1267848,-0.3834384,0.0,0.0,0.0,0.0
12.399999999999999,258.0769032,-13.554456,-59.640216,3.1437072,0.0,0.0,0.0,0.0
12.42,258.1146984,14.421916800000002,-2.9279088,-50.1463056,0.0,0.0,0.0,0.0
12.44,258.087876,-35.458908,-20.711464799999998,-63.3346968,0.0,0.0,0.0,0.0
12.46,258.1406064,-26.5127232,1.2469368,-10.044684,0.0,0.0,0.0,0.0
12.48,258.2744136,-15.4521408,-9.379915200000001,10.3513128,0.0,0.0,0.0,0.0
12.5,258.31617120000004,-3.9035736000000005,-1.6264128000000002,-1.3801344,0.0,0.0,0.0,0.0
12.52,258.32074320000004,8.7834216,0.8674608,-14.0317728,0.0,0.0,0.0,0.0
12.54,258.247896,9.488119200000002,-15.777667200000002,-20.242377600000005,0.0,0.0,0.0,0.0
12.559999999999999,258.1780968,-3.578352,-4.6628304,13.6483344,0.0,0.0,0.0,0.0
12.579999999999998,258.0034464,-36.1093512,-9.6508824,-0.5367528,0.0,0.0,0.0,0.0
12.599999999999998,257.9662608,2.3856696,-15.9401256,1.2268200000000002,0.0,0.0,0.0,0.0
12.620000000000001,257.88091679999997,-15.1269192,-19.6812408,4.1404032,0.0,0.0,0.0,0.0
12.64,257.77423680000004,3.198876,-3.4158936000000004,-5.6741568000000004,0.0,0.0,0.0,0.0
12.66,257.6861496,-23.368101600000003,-18.3800496,-11.3480088,0.0,0.0,0.0,0.0
12.68,257.64195359999997,-50.097842400000005,-32.8562208,-3.9870888,0.0,0.0,0.0,0.0
12.7,257.5657536,-2.8736544000000004,1.6806672000000002,5.750661600000001,0.0,0.0,0.0,0.0
12.719999999999999,257.3941512,5.476036800000001,10.681106400000001,7.36092,0.0,0.0,0.0,0.0
12.739999999999998,257.31216,7.6446888,-5.1508152,-0.9201912000000001,0.0,0.0,0.0,0.0
12.759999999999998,257.2487616,-17.024604,-22.6630992,-6.1341,0.0,0.0,0.0,0.0
12.780000000000001,257.109468,-2.9279088,9.5423736,3.7572696000000003,0.0,0.0,0.0,0.0
12.8,257.1515304,10.8978192,25.3200408,24.996343200000002,0.0,0.0,0.0,0.0
12.82,257.1911544,-40.501214399999995,-19.464223200000003,14.645030400000001,0.0,0.0,0.0,0.0
12.84,257.1433008,-50.368809600000006,-45.27224880000001,-41.635070400000004,0.0,0.0,0.0,0.0
12.86,257.3142936,-105.0209736,-14.0424408,8.4344256,0.0,0.0,0.0,0.0
12.879999999999999,257.0533848,-59.74842,-0.7589520000000001,-25.6864104,0.0,0.0,0.0,0.0
12.899999999999999,256.7729688,-2.6023824,11.0605824,-11.194694400000001,0.0,0.0,0.0,0.0
12.919999999999998,256.621788,5.5845456,6.343497600000001,-9.3546168,0.0,0.0,0.0,0.0
12.940000000000001,256.5397968,-5.5302912,6.9399912,-5.597347200000001,0.0,0.0,0.0,0.0
12.96,256.3858728,-5.3132736,-13.8799824,-2.6069544000000002,0.0,0.0,0.0,0.0
12.98,256.2965664,-8.295436800000001,-7.970215200000001,2.0702016,0.0,0.0,0.0,0.0
13.0,256.2816312,-3.6326064,3.3073848000000003,-10.734751200000002,0.0,0.0,0.0,0.0
13.02,256.307844,-19.6269864,5.5302912,-3.68046,0.0,0.0,0.0,0.0
13.04,256.28528880000005,-29.6573448,-0.4879848,-18.172176,0.0,0.0,0.0,0.0
13.059999999999999,256.1484336,-4.608576,2.7651456,7.130796,0.0,0.0,0.0,0.0
13.079999999999998,256.04205840000003,-3.0361128,-13.446252000000001,1.8400776,0.0,0.0,0.0,0.0
13.099999999999998,256.0109688,-28.3018992,-0.8674608,2.3003256,0.0,0.0,0.0,0.0
13.120000000000001,256.0344384,-18.9222888,-36.3806232,-34.581084000000004,0.0,0.0,0.0,0.0
13.14,255.78876960000002,-26.7836904,-6.9399912,16.945356,0.0,0.0,0.0,0.0
13.16,255.4973808,-34.428684000000004,-19.3560192,-9.2013024,0.0,0.0,0.0,0.0
13.18,255.43184879999998,-22.9886256,-19.193256,-14.185087200000002,0.0,0.0,0.0,0.0
13.2,255.3590016,-19.789749600000004,-19.0304928,-4.984089600000001,0.0,0.0,0.0,0.0
13.219999999999999,255.2145264,-34.7539056,-20.3319888,-12.651638400000001,0.0,0.0,0.0,0.0
13.239999999999998,255.1828272,-24.832056,-27.325929600000002,-8.2043016,0.0,0.0,0.0,0.0
13.259999999999998,255.17856,-25.265786400000003,-32.0972688,-9.3546168,0.0,0.0,0.0,0.0
13.280000000000001,255.13192560000002,-1.3554456000000001,-33.9949536,-33.50757840000001,0.0,0.0,0.0,0.0
13.3,254.8542528,-11.8195344,-23.0971344,-8.050987200000002,0.0,0.0,0.0,0.0
13.32,254.64241679999998,-8.4039456,-22.175419200000004,-12.498324000000002,0.0,0.0,0.0,0.0
13.34,254.4101592,-9.1628976,-13.7172192,-15.871850400000001,0.0,0.0,0.0,0.0
13.36,254.305308,-10.138867200000002,-16.753332,-11.5781328,0.0,0.0,0.0,0.0
13.379999999999999,254.10383520000002,-4.8252888,-5.9097672,-9.6612456,0.0,0.0,0.0,0.0
13.399999999999999,254.02367279999999,-5.964021600000001,-18.434304,-1.7635728,0.0,0.0,0.0,0.0
13.419999999999998,253.8673104,-3.0361128,-5.638800000000001,-12.498324000000002,0.0,0.0,0.0,0.0
13.440000000000001,253.710948,-16.482364800000003,-6.506260800000001,-12.114885600000001,0.0,0.0,0.0,0.0
13.46,253.58171280000002,-3.8496240000000004,0.7046976,-13.0350768,0.0,0.0,0.0,0.0
13.48,253.4927112,-9.867595200000002,-5.096560800000001,-13.8016488,0.0,0.0,0.0,0.0
13.5,253.40431920000003,-6.2349888,-8.186928,-12.651638400000001,0.0,0.0,0.0,0.0
13.52,253.27691280000002,-5.964021600000001,0.5422392,-6.8241672,0.0,0.0,0.0,0.0
13.54,253.2439944,-7.5904344,-2.8194000000000004,-7.437729600000001,0.0,0.0,0.0,0.0
13.559999999999999,253.2549672,-5.964021600000001,-3.578352,-9.2013024,0.0,0.0,0.0,0.0
13.579999999999998,253.26624479999998,0.2170176,-2.3856696,-10.428122400000001,0.0,0.0,0.0,0.0
13.599999999999998,253.4238264,3.1446216000000002,-2.8194000000000004,-11.1181896,0.0,0.0,0.0,0.0
13.620000000000001,253.4021856,3.3073848000000003,-4.3915584,-11.194694400000001,0.0,0.0,0.0,0.0
13.64,253.43236080000003,2.548128,-4.0663368,-10.3513128,0.0,0.0,0.0,0.0
13.66,253.31928000000002,1.5724632,-4.8252888,-9.737750400000001,0.0,0.0,0.0,0.0
13.68,253.22997360000002,-1.0844784,-8.8919304,-6.9009768,0.0,0.0,0.0,0.0
13.7,253.07940240000002,-7.753197600000001,-12.0908064,-7.8976728000000005,0.0,0.0,0.0,0.0
13.719999999999999,252.93248880000002,-11.0605824,-17.2413168,-2.6069544000000002,0.0,0.0,0.0,0.0
13.739999999999998,252.81239760000003,-17.40408,-15.4521408,-13.111581600000001,0.0,0.0,0.0,0.0
13.759999999999998,252.67950480000002,-8.0784192,-10.0303584,-6.9009768,0.0,0.0,0.0,0.0
13.780000000000001,252.61183920000002,-5.8555128,-6.397752,-4.2172128,0.0,0.0,0.0,0.0
13.8,252.491748,-6.8314824000000005,-5.5302912,0.0,0.0,0.0,0.0,0.0
13.82,252.43871280000002,-5.205069600000001,-1.3011912,2.3768304000000002,0.0,0.0,0.0,0.0
13.84,252.4356648,-5.9097672,-13.283488800000002,3.910584,0.0,0.0,0.0,0.0
13.86,252.232668,-8.186928,-15.560649600000001,1.5334488,0.0,0.0,0.0,0.0
13.879999999999999,252.1802424,-9.813645600000001,-12.0908064,-2.0702016,0.0,0.0,0.0,0.0
13.899999999999999,252.3783624,-4.1748456,1.8976848000000002,0.8433816000000001,0.0,0.0,0.0,0.0
13.919999999999998,252.3167928,-10.3013256,7.3737216000000005,2.9135831999999997,0.0,0.0,0.0,0.0
13.940000000000001,252.2975904,-10.5725976,-2.4399240000000004,8.58774,0.0,0.0,0.0,0.0
13.96,252.37988639999998,-16.645128,-4.5000672,-2.683764,0.0,0.0,0.0,0.0
13.98,252.363732,-16.0486344,-9.976104,1.1500104,0.0,0.0,0.0,0.0
14.0,252.3018576,-9.6508824,-4.8795432000000005,11.8847616,0.0,0.0,0.0,0.0
14.02,252.1741464,-76.6105656,53.8386528,19.4758056,0.0,0.0,0.0,0.0
14.04,251.96840640000002,11.7110256,-20.0607168,1.9936968000000002,0.0,0.0,0.0,0.0
14.059999999999999,251.923296,8.6206584,-13.174980000000001,5.597347200000001,0.0,0.0,0.0,0.0
14.079999999999998,251.66543520000002,-0.2709672,3.6326064,0.996696,0.0,0.0,0.0,0.0
14.099999999999998,251.3871528,-15.3978864,1.8434304000000001,-10.9645704,0.0,0.0,0.0,0.0
14.120000000000001,251.28474,-0.7046976,1.4639544,1.2268200000000002,0.0,0.0,0.0,0.0
14.14,251.13599760000002,2.4399240000000004,0.16276320000000002,2.3768304000000002,0.0,0.0,0.0,0.0
14.16,250.9915224,-8.94588,26.2960104,-4.907280000000001,0.0,0.0,0.0,0.0
14.18,250.93056239999999,19.6812408,9.488119200000002,-25.609905600000005,0.0,0.0,0.0,0.0
14.2,250.8918528,-0.0542544,0.9217152000000001,0.6900672,0.0,0.0,0.0,0.0
14.219999999999999,250.7729808,-4.3915584,-4.933797600000001,-9.891369599999999,0.0,0.0,0.0,0.0
14.239999999999998,250.710192,-19.193256,-10.3013256,11.654637600000001,0.0,0.0,0.0,0.0
