time,baro_altitude,accl_x,accl_y,accl_z,gps_altitude,gyro_roll,gyro_pitch,gyro_yaw
0.0,0.0,-2.548128,-2.9818584,-9.4311216,0.0,0.0,0.0,0.0
0.020000000000000462,0.0844296,-2.6566368,-2.8736544000000004,-9.4311216,0.0,0.0,0.0,0.0
0.040000000000000036,0.04206240000000001,-2.6023824,-2.9279088,-9.584436,0.0,0.0,0.0,0.0
0.0600000000000005,-0.09144000000000002,-2.548128,-2.8736544000000004,-9.3546168,0.0,0.0,0.0,0.0
0.08000000000000007,-0.13716,-2.4941784,-2.9279088,-9.584436,0.0,0.0,0.0,0.0
0.10000000000000053,-0.038709600000000004,-2.6023824,-2.9279088,-9.4311216,0.0,0.0,0.0,0.0
0.1200000000000001,-0.0094488,-2.6566368,-2.9818584,-9.4311216,0.0,0.0,0.0,0.0
0.14000000000000057,0.032308800000000006,-2.6023824,-2.8194000000000004,-9.4311216,0.0,0.0,0.0,0.0
0.16000000000000014,-0.0832104,-2.6566368,-2.8736544000000004,-9.5079312,0.0,0.0,0.0,0.0
0.1800000000000006,-0.0646176,-2.6023824,-2.9279088,-9.4311216,0.0,0.0,0.0,0.0
0.20000000000000018,-0.2554224,-2.6566368,-2.8736544000000004,-9.4311216,0.0,0.0,0.0,0.0
0.22000000000000064,-0.3041904,-2.548128,-2.9818584,-9.5079312,0.0,0.0,0.0,0.0
0.2400000000000002,-0.20848320000000004,-2.6566368,-2.8736544000000004,-9.4311216,0.0,0.0,0.0,0.0
0.2599999999999998,-0.2282952,-2.7108912000000003,-2.8194000000000004,-9.584436,0.0,0.0,0.0,0.0
0.28000000000000025,-0.27005280000000004,-2.6566368,-2.9818584,-9.5079312,0.0,0.0,0.0,0.0
0.2999999999999998,-0.33345120000000006,-2.548128,-2.8736544000000004,-9.4311216,0.0,0.0,0.0,0.0
0.3200000000000003,-0.019507200000000002,-2.6023824,-2.8194000000000004,-9.584436,0.0,0.0,0.0,0.0
0.33999999999999986,0.03291840000000001,-2.548128,-2.9818584,-9.584436,0.0,0.0,0.0,0.0
0.3600000000000003,0.11826239999999999,-2.6023824,-2.8194000000000004,-9.584436,0.0,0.0,0.0,0.0
0.3799999999999999,0.1200912,-2.6023824,-2.9279088,-9.4311216,0.0,0.0,0.0,0.0
0.40000000000000036,0.2923032,-2.6023824,-2.9279088,-9.4311216,0.0,0.0,0.0,0.0
0.41999999999999993,0.27919679999999997,-2.7108912000000003,-2.9279088,-9.4311216,0.0,0.0,0.0,0.0
0.4400000000000004,0.3910584,-2.6023824,-3.0361128,-9.5079312,0.0,0.0,0.0,0.0
0.45999999999999996,0.2874264,-2.6023824,-2.9279088,-9.584436,0.0,0.0,0.0,0.0
0.4800000000000004,0.1822704,-2.6023824,-2.9279088,-9.4311216,0.0,0.0,0.0,0.0
0.5,0.1536192,-2.6566368,-2.9818584,-9.584436,0.0,0.0,0.0,0.0
0.5200000000000005,0.1944624,-2.548128,-2.8736544000000004,-9.4311216,0.0,0.0,0.0,0.0
0.54,0.1761744,-2.6023824,-2.9279088,-9.4311216,0.0,0.0,0.0,0.0
0.5600000000000005,0.0801624,-2.6566368,-2.8736544000000004,-9.4311216,0.0,0.0,0.0,0.0
0.5800000000000001,-0.033832799999999996,-2.6566368,-2.9818584,-9.3546168,0.0,0.0,0.0,0.0
0.6000000000000005,-0.1536192,-2.6023824,-2.9279088,-9.4311216,0.0,0.0,0.0,0.0
0.6200000000000001,-0.1795272,-2.6023824,-2.9279088,-9.4311216,0.0,0.0,0.0,0.0
0.6400000000000006,-0.1566672,-2.6023824,-2.9279088,-9.4311216,0.0,0.0,0.0,0.0
0.6600000000000001,-0.0993648,-2.6566368,-2.9818584,-9.4311216,0.0,0.0,0.0,0.0
0.6800000000000006,-0.12954000000000002,-2.548128,-2.9818584,-9.4311216,0.0,0.0,0.0,0.0
0.7000000000000002,-0.08747760000000002,-2.6566368,-2.8736544000000004,-9.5079312,0.0,0.0,0.0,0.0
0.7200000000000006,-0.07802880000000001,-2.6023824,-2.9279088,-9.4311216,0.0,0.0,0.0,0.0
0.7400000000000002,-0.08564880000000001,-2.6023824,-2.9279088,-9.4311216,0.0,0.0,0.0,0.0
0.7600000000000002,0.0384048,-2.6566368,-2.9818584,-9.4311216,0.0,0.0,0.0,0.0
0.7800000000000002,0.07223760000000001,-2.7108912000000003,-2.8194000000000004,-9.5079312,0.0,0.0,0.0,0.0
0.8000000000000003,-0.09479280000000001,-2.7108912000000003,-2.8194000000000004,-9.4311216,0.0,0.0,0.0,0.0
0.8200000000000003,0.09479280000000001,-2.7108912000000003,-3.0361128,-9.4311216,0.0,0.0,0.0,0.0
0.8400000000000003,0.0691896,-2.6566368,-2.9818584,-9.4311216,0.0,0.0,0.0,0.0
0.8600000000000003,0.1944624,-2.548128,-2.8736544000000004,-9.3546168,0.0,0.0,0.0,0.0
0.8800000000000003,0.23591520000000002,-2.6023824,-2.9279088,-9.4311216,0.0,0.0,0.0,0.0
0.9000000000000004,0.051206400000000006,-2.548128,-2.8736544000000004,-9.5079312,0.0,0.0,0.0,0.0
0.9200000000000004,0.030784800000000005,-2.6566368,-2.8736544000000004,-9.4311216,0.0,0.0,0.0,0.0
0.9400000000000004,0.014020800000000003,-2.548128,-2.9818584,-9.4311216,0.0,0.0,0.0,0.0
0.9600000000000004,0.0673608,-2.6023824,-2.8194000000000004,-9.4311216,0.0,0.0,0.0,0.0
0.9800000000000004,-0.08869680000000002,-2.7651456,-2.8736544000000004,-9.5079312,0.0,0.0,0.0,0.0
1.0,-0.18684240000000002,-2.6566368,-2.9818584,-9.4311216,0.0,0.0,0.0,0.0
1.02,-0.038709600000000004,-2.6023824,-2.9279088,-9.5079312,0.0,0.0,0.0,0.0
1.04,0.1149096,-2.548128,-2.8736544000000004,-9.4311216,0.0,0.0,0.0,0.0
1.06,0.039014400000000005,-2.6023824,-2.9279088,-9.5079312,0.0,0.0,0.0,0.0
1.08,-0.0691896,-2.6023824,-2.8194000000000004,-9.4311216,0.0,0.0,0.0,0.0
1.1,0.007315200000000001,-2.6023824,-2.9279088,-9.5079312,0.0,0.0,0.0,0.0
1.12,-0.043281599999999996,-2.6566368,-2.8736544000000004,-9.4311216,0.0,0.0,0.0,0.0
1.1400000000000001,0.0112776,-2.6566368,-2.7651456,-9.4311216,0.0,0.0,0.0,0.0
1.1600000000000001,0.12161519999999999,-2.6023824,-2.9279088,-9.5079312,0.0,0.0,0.0,0.0
1.1800000000000002,0.31211520000000004,-2.6023824,-2.9279088,-9.5079312,0.0,0.0,0.0,0.0
1.2000000000000002,0.210312,-2.6566368,-2.8736544000000004,-9.5079312,0.0,0.0,0.0,0.0
1.2200000000000002,0.303276,-2.548128,-2.8736544000000004,-9.5079312,0.0,0.0,0.0,0.0
1.2400000000000002,0.2868168,-2.6566368,-2.9818584,-9.4311216,0.0,0.0,0.0,0.0
1.2600000000000002,0.3361944,-2.548128,-2.9818584,-9.4311216,0.0,0.0,0.0,0.0
1.2800000000000002,0.2157984,-2.4941784,-2.9279088,-9.4311216,0.0,0.0,0.0,0.0
1.3000000000000003,0.1347216,-2.7108912000000003,-2.9279088,-9.4311216,0.0,0.0,0.0,0.0
1.3200000000000003,0.1892808,-2.548128,-2.9818584,-9.4311216,0.0,0.0,0.0,0.0
1.3400000000000003,0.1658112,-2.548128,-2.9818584,-9.4311216,0.0,0.0,0.0,0.0
1.3600000000000003,0.1304544,-2.6566368,-2.8736544000000004,-9.4311216,0.0,0.0,0.0,0.0
1.3800000000000003,0.1304544,-2.7108912000000003,-2.9279088,-9.5079312,0.0,0.0,0.0,0.0
1.4000000000000004,-0.0112776,-2.6023824,-2.9279088,-9.5079312,0.0,0.0,0.0,0.0
1.4200000000000004,0.008229600000000002,-2.6023824,-2.8194000000000004,-9.4311216,0.0,0.0,0.0,0.0
1.4400000000000004,-0.0344424,-2.548128,-2.9818584,-9.5079312,0.0,0.0,0.0,0.0
1.4600000000000004,0.05273040000000001,-2.6023824,-2.9279088,-9.4311216,0.0,0.0,0.0,0.0
1.4800000000000004,0.0725424,-2.6023824,-2.9279088,-9.4311216,0.0,0.0,0.0,0.0
1.5,0.0204216,-2.6023824,-2.9279088,-9.4311216,0.0,0.0,0.0,0.0
1.52,0.131064,-2.6023824,-2.9279088,-9.4311216,0.0,0.0,0.0,0.0
1.54,0.041757600000000006,-2.548128,-2.9818584,-9.5079312,0.0,0.0,0.0,0.0
1.56,-0.0161544,-2.548128,-2.8736544000000004,-9.584436,0.0,0.0,0.0,0.0
1.58,0.0094488,-2.548128,-2.8736544000000004,-9.4311216,0.0,0.0,0.0,0.0
1.6,-0.035052,-2.6023824,-2.8194000000000004,-9.4311216,0.0,0.0,0.0,0.0
1.62,-0.1819656,-2.548128,-2.8736544000000004,-9.4311216,0.0,0.0,0.0,0.0
1.6400000000000001,-0.14173200000000002,-2.6023824,-2.9279088,-9.584436,0.0,0.0,0.0,0.0
1.6600000000000001,-0.0313944,-2.6566368,-2.8736544000000004,-9.5079312,0.0,0.0,0.0,0.0
1.6800000000000002,-0.0649224,-2.548128,-2.8736544000000004,-9.5079312,0.0,0.0,0.0,0.0
1.7000000000000002,-0.16184880000000001,-2.6023824,-2.9279088,-9.4311216,0.0,0.0,0.0,0.0
1.7200000000000002,-0.0816864,-2.6023824,-2.9279088,-9.4311216,0.0,0.0,0.0,0.0
1.7400000000000002,-0.0192024,-2.6566368,-2.8736544000000004,-9.4311216,0.0,0.0,0.0,0.0
1.7600000000000002,0.1277112,-2.548128,-2.8736544000000004,-9.5079312,0.0,0.0,0.0,0.0
1.7800000000000002,0.26182320000000003,-2.548128,-2.8736544000000004,-9.4311216,0.0,0.0,0.0,0.0
1.8000000000000003,0.1267968,-2.6023824,-2.9279088,-9.3546168,0.0,0.0,0.0,0.0
1.8200000000000003,0.0313944,-2.548128,-2.8736544000000004,-9.5079312,0.0,0.0,0.0,0.0
1.8400000000000003,-0.0222504,-2.6023824,-2.9279088,-9.3546168,0.0,0.0,0.0,0.0
1.8600000000000003,0.0295656,-2.6023824,-2.8194000000000004,-9.4311216,0.0,0.0,0.0,0.0
1.8800000000000003,-0.10119360000000001,-2.6023824,-2.9279088,-9.4311216,0.0,0.0,0.0,0.0
1.9000000000000004,0.0256032,-2.6023824,-2.8194000000000004,-9.4311216,0.0,0.0,0.0,0.0
1.9200000000000004,0.0027432000000000003,-2.6566368,-2.9818584,-9.5079312,0.0,0.0,0.0,0.0
1.9400000000000004,0.11521440000000001,-2.6023824,-2.9279088,-9.3546168,0.0,0.0,0.0,0.0
1.9600000000000004,-0.024079200000000002,-2.6023824,-2.8194000000000004,-9.5079312,0.0,0.0,0.0,0.0
1.9800000000000004,0.222504,-2.6023824,-2.8194000000000004,-9.4311216,0.0,0.0,0.0,0.0
2.0,0.181356,-2.6566368,-2.9818584,-9.5079312,0.0,0.0,0.0,0.0
2.02,0.1481328,-2.7108912000000003,-2.8194000000000004,-9.5079312,0.0,0.0,0.0,0.0
2.04,0.23713440000000002,-2.6566368,-2.8736544000000004,-9.5079312,0.0,0.0,0.0,0.0
2.06,0.1514856,-2.6566368,-2.9818584,-9.4311216,0.0,0.0,0.0,0.0
2.08,0.19781520000000002,-2.6566368,-2.8736544000000004,-9.4311216,0.0,0.0,0.0,0.0
2.1,0.2505456,-2.548128,-2.8736544000000004,-9.5079312,0.0,0.0,0.0,0.0
2.12,0.4696968,-2.6023824,-2.9279088,-9.3546168,0.0,0.0,0.0,0.0
2.14,0.4703064,-2.548128,-2.9818584,-9.5079312,0.0,0.0,0.0,0.0
2.16,0.38709600000000005,-2.6023824,-2.9279088,-9.584436,0.0,0.0,0.0,0.0
2.18,0.2962656,-2.6023824,-2.9279088,-9.5079312,0.0,0.0,0.0,0.0
2.2,0.3118104,-2.6023824,-2.8194000000000004,-9.4311216,0.0,0.0,0.0,0.0
2.22,0.050292,-2.6023824,-2.9279088,-9.4311216,0.0,0.0,0.0,0.0
2.24,-0.0313944,-2.6023824,-2.9279088,-9.4311216,0.0,0.0,0.0,0.0
2.2600000000000002,-0.071628,-2.548128,-2.8736544000000004,-9.584436,0.0,0.0,0.0,0.0
2.2800000000000002,-0.0630936,-2.6023824,-2.9279088,-9.4311216,0.0,0.0,0.0,0.0
2.3000000000000003,-0.0545592,-2.6566368,-2.9818584,-9.5079312,0.0,0.0,0.0,0.0
2.3200000000000003,-0.049682399999999995,-2.6566368,-2.8736544000000004,-9.4311216,0.0,0.0,0.0,0.0
2.3400000000000003,-0.059435999999999996,-2.6023824,-2.9279088,-9.4311216,0.0,0.0,0.0,0.0
2.3600000000000003,0.003048000000000001,-2.6023824,-2.8194000000000004,-9.5079312,0.0,0.0,0.0,0.0
2.3800000000000003,0.0256032,-2.6023824,-2.9279088,-9.5079312,0.0,0.0,0.0,0.0
2.4000000000000004,-0.0158496,-2.6023824,-2.7108912000000003,-9.4311216,0.0,0.0,0.0,0.0
2.4200000000000004,-0.08382,-2.6023824,-2.9279088,-9.5079312,0.0,0.0,0.0,0.0
2.4400000000000004,-0.1182624,-2.6566368,-2.8736544000000004,-9.4311216,0.0,0.0,0.0,0.0
2.4600000000000004,-0.15575280000000002,-2.6023824,-2.9279088,-9.5079312,0.0,0.0,0.0,0.0
2.4800000000000004,-0.131064,-2.548128,-2.8736544000000004,-9.4311216,0.0,0.0,0.0,0.0
2.5,-0.0737616,-2.6023824,-2.9279088,-9.4311216,0.0,0.0,0.0,0.0
2.52,-0.1956816,-2.548128,-2.8736544000000004,-9.4311216,0.0,0.0,0.0,0.0
2.54,-0.2639568,-2.6023824,-2.9279088,-9.5079312,0.0,0.0,0.0,0.0
2.56,-0.17678400000000002,-2.6566368,-2.8736544000000004,-9.5079312,0.0,0.0,0.0,0.0
2.58,-0.0493776,-2.4941784,-2.9279088,-9.3546168,0.0,0.0,0.0,0.0
2.6,-0.016764,-2.6566368,-2.9818584,-9.5079312,0.0,0.0,0.0,0.0
2.62,-0.12100560000000002,-2.6566368,-2.8736544000000004,-9.5079312,0.0,0.0,0.0,0.0
2.64,-0.073152,-2.7108912000000003,-2.9279088,-9.4311216,0.0,0.0,0.0,0.0
2.66,-0.14752320000000002,-2.6023824,-2.9279088,-9.4311216,0.0,0.0,0.0,0.0
2.68,-0.0771144,-2.6023824,-2.9279088,-9.4311216,0.0,0.0,0.0,0.0
2.7,-0.0030479999999999995,-2.6566368,-2.8736544000000004,-9.4311216,0.0,0.0,0.0,0.0
2.72,0.03566160000000001,-2.6023824,-2.9279088,-9.5079312,0.0,0.0,0.0,0.0
2.74,0.014325600000000003,-2.7651456,-2.8736544000000004,-9.4311216,0.0,0.0,0.0,0.0
2.7600000000000002,0.0972312,-2.548128,-2.9818584,-9.4311216,0.0,0.0,0.0,0.0
2.7800000000000002,0.0850392,-2.6023824,-2.9279088,-9.4311216,0.0,0.0,0.0,0.0
2.8000000000000003,0.0405384,-2.6023824,-2.9279088,-9.4311216,0.0,0.0,0.0,0.0
2.8200000000000003,-0.0509016,-2.6566368,-2.9818584,-9.5079312,0.0,0.0,0.0,0.0
2.8400000000000003,-0.1551432,-2.548128,-2.8736544000000004,-9.5079312,0.0,0.0,0.0,0.0
2.8600000000000003,0.028956000000000003,-2.6023824,-2.9279088,-9.4311216,0.0,0.0,0.0,0.0
2.88,0.0938784,-2.548128,-2.8736544000000004,-9.4311216,0.0,0.0,0.0,0.0
2.9000000000000004,0.1444752,-2.4941784,-2.9279088,-9.4311216,0.0,0.0,0.0,0.0
2.92,0.2450592,-2.6023824,-2.9279088,-9.2778072,0.0,0.0,0.0,0.0
2.9400000000000004,0.1755648,-2.4941784,-2.9279088,-9.5079312,0.0,0.0,0.0,0.0
2.96,-0.0573024,-2.548128,-2.8736544000000004,-9.5079312,0.0,0.0,0.0,0.0
2.9800000000000004,-0.08930640000000002,-2.6566368,-2.8736544000000004,-9.4311216,0.0,0.0,0.0,0.0
3.0,-0.14752320000000002,-2.548128,-2.8736544000000004,-9.4311216,0.0,0.0,0.0,0.0
3.0200000000000005,0.004572,-2.6023824,-2.9279088,-9.4311216,0.0,0.0,0.0,0.0
3.04,-0.0158496,-2.6023824,-2.9279088,-9.4311216,0.0,0.0,0.0,0.0
3.0600000000000005,0.09753600000000001,-2.6023824,-2.9279088,-9.4311216,0.0,0.0,0.0,0.0
3.08,0.15605760000000002,-2.548128,-2.8736544000000004,-9.5079312,0.0,0.0,0.0,0.0
3.1000000000000005,0.2615184,-2.6566368,-2.8736544000000004,-9.3546168,0.0,0.0,0.0,0.0
3.12,0.126492,-2.548128,-3.0903671999999998,-9.4311216,0.0,0.0,0.0,0.0
3.14,0.1002792,-2.6566368,-2.8736544000000004,-9.584436,0.0,0.0,0.0,0.0
3.16,0.1472184,-2.6566368,-2.8736544000000004,-9.3546168,0.0,0.0,0.0,0.0
3.18,0.1139952,-2.6023824,-2.8194000000000004,-9.5079312,0.0,0.0,0.0,0.0
3.2,0.07162800000000001,-2.548128,-2.8736544000000004,-9.5079312,0.0,0.0,0.0,0.0
3.22,0.0018288000000000007,-2.6023824,-2.9279088,-9.4311216,0.0,0.0,0.0,0.0
3.24,-0.0353568,-2.7108912000000003,-2.9279088,-9.4311216,0.0,0.0,0.0,0.0
3.2600000000000002,-0.017373600000000003,-2.6023824,-2.9279088,-9.4311216,0.0,0.0,0.0,0.0
3.2800000000000002,-0.059435999999999996,-2.548128,-2.9818584,-9.3546168,0.0,0.0,0.0,0.0
3.3000000000000003,0.1365504,-2.548128,-2.9818584,-9.4311216,0.0,0.0,0.0,0.0
3.3200000000000003,0.1959864,-2.6023824,-2.9279088,-9.4311216,0.0,0.0,0.0,0.0
3.3400000000000003,0.1770888,-2.7108912000000003,-2.9279088,-9.5079312,0.0,0.0,0.0,0.0
3.3600000000000003,0.04480560000000001,-2.6566368,-2.8736544000000004,-9.4311216,0.0,0.0,0.0,0.0
3.38,0.10424159999999999,-2.548128,-2.8736544000000004,-9.584436,0.0,0.0,0.0,0.0
3.4000000000000004,0.1673352,-2.548128,-2.8736544000000004,-9.4311216,0.0,0.0,0.0,0.0
3.42,0.2167128,-2.6023824,-2.9279088,-9.5079312,0.0,0.0,0.0,0.0
3.4400000000000004,0.2203704,-2.6566368,-2.8736544000000004,-9.3546168,0.0,0.0,0.0,0.0
3.46,0.3928872,-2.6566368,-2.9818584,-9.5079312,0.0,0.0,0.0,0.0
3.4800000000000004,0.12039599999999999,-2.7108912000000003,-2.8194000000000004,-9.5079312,0.0,0.0,0.0,0.0
3.5,0.018897600000000004,-2.6566368,-2.8736544000000004,-9.3546168,0.0,0.0,0.0,0.0
3.5200000000000005,0.089916,-2.6023824,-2.9279088,-9.4311216,0.0,0.0,0.0,0.0
3.54,-0.135636,-2.7108912000000003,-2.8194000000000004,-9.5079312,0.0,0.0,0.0,0.0
3.5600000000000005,-0.17160240000000002,-2.6023824,-2.8194000000000004,-9.4311216,0.0,0.0,0.0,0.0
3.58,-0.2551176,-2.6023824,-3.0361128,-9.3546168,0.0,0.0,0.0,0.0
3.6000000000000005,-0.0932688,-2.6023824,-3.0361128,-9.4311216,0.0,0.0,0.0,0.0
3.62,-0.030480000000000004,-2.6023824,-2.9279088,-9.5079312,0.0,0.0,0.0,0.0
3.64,-0.11856720000000001,-2.6566368,-2.8736544000000004,-9.4311216,0.0,0.0,0.0,0.0
3.66,-0.14295120000000003,-2.6566368,-2.8736544000000004,-9.5079312,0.0,0.0,0.0,0.0
3.68,0.0399288,-2.6566368,-2.8736544000000004,-9.4311216,0.0,0.0,0.0,0.0
3.7,0.05242560000000001,-2.6023824,-2.8194000000000004,-9.5079312,0.0,0.0,0.0,0.0
3.72,0.2136648,-2.6566368,-2.8736544000000004,-9.4311216,0.0,0.0,0.0,0.0
3.74,0.1712976,-2.6023824,-2.9279088,-9.4311216,0.0,0.0,0.0,0.0
3.7600000000000002,0.42885360000000006,-2.4941784,-2.9279088,-9.4311216,0.0,0.0,0.0,0.0
3.7800000000000002,0.2868168,-2.6566368,-2.8736544000000004,-9.5079312,0.0,0.0,0.0,0.0
3.8000000000000003,0.362712,-2.6566368,-2.8736544000000004,-9.4311216,0.0,0.0,0.0,0.0
3.8200000000000003,0.2014728,-2.6566368,-2.8736544000000004,-9.5079312,0.0,0.0,0.0,0.0
3.8400000000000003,0.1807464,-2.6566368,-2.8736544000000004,-9.5079312,0.0,0.0,0.0,0.0
3.8600000000000003,0.08534399999999999,-2.6023824,-2.9279088,-9.4311216,0.0,0.0,0.0,0.0
3.8800000000000003,0.009144,-2.6023824,-2.8194000000000004,-9.5079312,0.0,0.0,0.0,0.0
3.9000000000000004,0.013106400000000002,-2.548128,-2.8736544000000004,-9.2778072,0.0,0.0,0.0,0.0
3.9200000000000004,0.04480560000000001,-2.6023824,-2.9279088,-9.3546168,0.0,0.0,0.0,0.0
3.9400000000000004,0.32247840000000005,-2.6566368,-2.8736544000000004,-9.4311216,0.0,0.0,0.0,0.0
3.96,0.1487424,-2.4941784,-2.9279088,-9.4311216,0.0,0.0,0.0,0.0
3.9800000000000004,-0.007315200000000001,-2.548128,-2.8736544000000004,-9.4311216,0.0,0.0,0.0,0.0
4.0,-0.1118616,-2.6023824,-2.9279088,-9.4311216,0.0,0.0,0.0,0.0
4.0200000000000005,-0.15605760000000002,-2.6023824,-2.9279088,-9.4311216,0.0,0.0,0.0,0.0
4.04,-0.11917680000000001,-2.548128,-2.8736544000000004,-9.4311216,0.0,0.0,0.0,0.0
4.0600000000000005,-0.1344168,-2.6023824,-2.9279088,-9.4311216,0.0,0.0,0.0,0.0
4.08,-0.21000720000000003,-2.548128,-2.7651456,-9.3546168,0.0,0.0,0.0,0.0
4.1000000000000005,-0.25908000000000003,-2.6566368,-2.8736544000000004,-9.5079312,0.0,0.0,0.0,0.0
4.12,-0.21061680000000002,-2.548128,-2.8736544000000004,-9.4311216,0.0,0.0,0.0,0.0
4.140000000000001,-0.1524,-2.7108912000000003,-2.7108912000000003,-9.4311216,0.0,0.0,0.0,0.0
4.16,-0.1331976,-2.4941784,-2.8194000000000004,-9.4311216,0.0,0.0,0.0,0.0
4.18,-0.015544800000000003,-2.548128,-2.8736544000000004,-9.4311216,0.0,0.0,0.0,0.0
4.2,-0.10485120000000002,-2.6566368,-2.8736544000000004,-9.5079312,0.0,0.0,0.0,0.0
4.220000000000001,-0.0755904,-2.6566368,-2.8736544000000004,-9.584436,0.0,0.0,0.0,0.0
4.24,-0.1359408,-2.6023824,-2.9279088,-9.3546168,0.0,0.0,0.0,0.0
4.26,-0.21305520000000003,-2.6566368,-2.8736544000000004,-9.4311216,0.0,0.0,0.0,0.0
4.28,-0.16154400000000002,-2.548128,-2.9818584,-9.4311216,0.0,0.0,0.0,0.0
4.3,-0.10728960000000001,-2.6566368,-2.8736544000000004,-9.5079312,0.0,0.0,0.0,0.0
4.32,-0.0070104,-2.6566368,-2.8736544000000004,-9.4311216,0.0,0.0,0.0,0.0
4.34,0.16611599999999999,-2.548128,-2.8736544000000004,-9.4311216,0.0,0.0,0.0,0.0
4.36,0.05242560000000001,-2.6566368,-2.9818584,-9.4311216,0.0,0.0,0.0,0.0
4.38,0.1514856,-2.548128,-2.8736544000000004,-9.5079312,0.0,0.0,0.0,0.0
4.4,0.257556,-2.7651456,-2.8736544000000004,-9.4311216,0.0,0.0,0.0,0.0
4.42,0.30358080000000004,-2.6566368,-2.9818584,-9.4311216,0.0,0.0,0.0,0.0
4.44,0.2968752,-2.7108912000000003,-2.9279088,-9.5079312,0.0,0.0,0.0,0.0
4.46,0.3069336,-2.6023824,-2.8194000000000004,-9.5079312,0.0,0.0,0.0,0.0
4.48,0.2718816,-2.6023824,-2.9279088,-9.3546168,0.0,0.0,0.0,0.0
4.5,0.2200656,-2.7108912000000003,-2.9279088,-9.4311216,0.0,0.0,0.0,0.0
4.5200000000000005,0.1758696,-2.548128,-2.7651456,-9.4311216,0.0,0.0,0.0,0.0
4.54,0.0911352,-2.548128,-2.8736544000000004,-9.5079312,0.0,0.0,0.0,0.0
4.5600000000000005,0.2045208,-2.548128,-2.8736544000000004,-9.4311216,0.0,0.0,0.0,0.0
4.58,0.09875519999999999,-2.2229064000000003,-3.198876,-11.3480088,0.0,0.0,0.0,0.0
4.6000000000000005,0.1456944,-2.6023824,-3.1446216000000002,-9.891369599999999,0.0,0.0,0.0,0.0
4.62,0.1118616,-2.6023824,-3.0361128,-9.5079312,0.0,0.0,0.0,0.0
4.640000000000001,0.2532888,-2.8194000000000004,-2.7108912000000003,-9.5079312,0.0,0.0,0.0,0.0
4.66,0.2670048,-2.6023824,-2.9279088,-9.584436,0.0,0.0,0.0,0.0
4.680000000000001,0.2258568,-2.7108912000000003,-3.0361128,-9.3546168,0.0,0.0,0.0,0.0
4.7,0.07955279999999999,-2.7108912000000003,-2.7108912000000003,-9.5079312,0.0,0.0,0.0,0.0
4.720000000000001,-0.0042672,-2.6566368,-2.7651456,-9.4311216,0.0,0.0,0.0,0.0
4.74,0.0280416,-2.6023824,-3.1446216000000002,-9.4311216,0.0,0.0,0.0,0.0
4.76,0.0088392,-2.548128,-2.8736544000000004,-9.5079312,0.0,0.0,0.0,0.0
4.78,-0.07863840000000001,-2.7108912000000003,-2.8194000000000004,-9.4311216,0.0,0.0,0.0,0.0
4.8,0.018592800000000003,-2.7108912000000003,-2.9279088,-9.5079312,0.0,0.0,0.0,0.0
4.82,0.16123920000000003,-2.7108912000000003,-2.9279088,-9.1244928,0.0,0.0,0.0,0.0
4.84,0.0176784,-20.3859384,-25.265786400000003,-97.76216160000001,0.0,0.0,0.0,0.0
4.86,0.3005328,-28.6813752,-36.597336,-136.9438968,0.0,0.0,0.0,0.0
4.88,0.5394960000000001,-50.151792,-54.380892,-152.2024896,0.0,0.0,0.0,0.0
4.9,0.9418320000000001,-24.832056,-69.3993024,-140.77767120000001,0.0,0.0,0.0,0.0
4.92,1.5051024,-43.4830728,-32.639508,-129.046224,0.0,0.0,0.0,0.0
4.94,2.3493984,-31.609284000000002,-37.248084,-135.3336384,0.0,0.0,0.0,0.0
4.96,3.4393632,-31.8802512,-43.37456400000001,-134.1833232,0.0,0.0,0.0,0.0
4.98,4.7728632,-35.567112,-48.362615999999996,-147.2184,0.0,0.0,0.0,0.0
5.0,6.247180800000001,-34.7539056,-42.34434,-136.4836488,0.0,0.0,0.0,0.0
5.0200000000000005,8.0866488,-34.6996512,-47.92888560000001,-137.48064960000002,0.0,0.0,0.0,0.0
5.04,10.1858064,-34.8624144,-36.597336,-133.6465704,0.0,0.0,0.0,0.0
5.0600000000000005,12.459614400000001,-35.512857600000004,-39.525244799999996,-130.80979680000002,0.0,0.0,0.0,0.0
5.08,14.799564,-32.639508,-38.9287512,-133.493256,0.0,0.0,0.0,0.0
5.1000000000000005,17.1300648,-32.5852536,-37.7900184,-134.1068184,0.0,0.0,0.0,0.0
5.12,19.892772,-34.8624144,-39.9589752,-132.4197504,0.0,0.0,0.0,0.0
5.140000000000001,22.73808,-36.922557600000005,-43.1035968,-131.4230544,0.0,0.0,0.0,0.0
5.16,25.781203199999997,-33.018984,-39.416736,-132.8799984,0.0,0.0,0.0,0.0
5.180000000000001,28.964229600000003,-32.5852536,-39.7419576,-128.6627856,0.0,0.0,0.0,0.0
5.2,32.3593968,-33.9949536,-38.2237488,-125.0588304,0.0,0.0,0.0,0.0
5.220000000000001,35.8716072,-32.9104752,-37.1395752,-123.0654384,0.0,0.0,0.0,0.0
5.24,39.566697600000005,-34.1031576,-42.995088,-121.68530400000002,0.0,0.0,0.0,0.0
5.26,43.73605680000001,-34.7539056,-39.0915144,-117.77472,0.0,0.0,0.0,0.0
5.28,47.9157792,-37.248084,-34.6453968,-116.24127120000001,0.0,0.0,0.0,0.0
5.300000000000001,52.1445744,-34.157412,-34.5911424,-126.2856504,0.0,0.0,0.0,0.0
5.32,56.45261760000001,-33.5612232,-35.838384,-112.5608112,0.0,0.0,0.0,0.0
5.34,60.55857840000001,-38.1697992,-35.2418904,-112.79063040000001,0.0,0.0,0.0,0.0
5.36,64.9678152,-26.241756000000002,-34.049208,-111.0273624,0.0,0.0,0.0,0.0
5.38,69.218556,-40.3927056,-27.5972016,-100.44592560000001,0.0,0.0,0.0,0.0
5.4,73.51684560000001,-31.1755536,-28.4646624,-100.369116,0.0,0.0,0.0,0.0
5.42,78.2031456,-32.0972688,-24.9405648,-95.0018928,0.0,0.0,0.0,0.0
5.44,83.0369688,-26.837944800000002,-29.115105600000003,-87.25753440000001,0.0,0.0,0.0,0.0
5.46,87.51996720000001,-26.7836904,-24.723547200000002,-87.02741040000001,0.0,0.0,0.0,0.0
5.48,92.20108560000001,-23.259592800000004,-30.416601600000003,-81.35355840000001,0.0,0.0,0.0,0.0
5.5,97.35860640000001,-29.061156,-34.157412,-84.0370176,0.0,0.0,0.0,0.0
5.5200000000000005,102.11013360000001,-33.3442056,-27.271675200000004,-79.12973760000001,0.0,0.0,0.0,0.0
5.54,107.04880800000002,-37.5190512,-31.012790400000004,-82.12013040000001,0.0,0.0,0.0,0.0
5.5600000000000005,111.3589848,-25.970484,-19.1390016,-75.5260872,0.0,0.0,0.0,0.0
5.58,115.5143232,-29.3321232,-26.2960104,-68.5486056,0.0,0.0,0.0,0.0
5.6000000000000005,119.93300880000001,-24.5065296,-17.783556,-63.9479544,0.0,0.0,0.0,0.0
5.62,124.22886,-15.3978864,-26.0247384,-64.6380216,0.0,0.0,0.0,0.0
5.640000000000001,128.2653264,-27.109216800000002,-21.253704000000003,-59.8075512,0.0,0.0,0.0,0.0
5.66,132.3447696,-26.8921992,-21.687434400000004,-54.5936424,0.0,0.0,0.0,0.0
5.68,136.43823360000002,-21.4161624,-18.3800496,-53.749956000000005,0.0,0.0,0.0,0.0
5.7,140.593572,-24.5065296,-17.783556,-44.3188344,0.0,0.0,0.0,0.0
5.720000000000001,144.2493432,-17.024604,-8.4582,-36.4979712,0.0,0.0,0.0,0.0
5.74,147.7271112,-17.2955712,-9.0543888,-34.581084000000004,0.0,0.0,0.0,0.0
5.76,150.964392,-16.4281104,-7.5364848,-27.833421599999998,0.0,0.0,0.0,0.0
5.78,153.95661360000003,-20.006462400000004,-5.259324,-26.5300968,0.0,0.0,0.0,0.0
5.800000000000001,156.6053256,-12.7412496,-10.789310400000002,-18.785738400000003,0.0,0.0,0.0,0.0
5.82,159.2317872,-18.81378,-11.982297599999999,-23.4628944,0.0,0.0,0.0,0.0
5.84,161.39861039999997,-5.205069600000001,-6.8314824000000005,-16.255288800000002,0.0,0.0,0.0,0.0
5.86,163.31244959999998,-9.6508824,-6.1807343999999995,-15.642031200000002,0.0,0.0,0.0,0.0
5.88,165.3207768,-11.1148368,-2.0061936,-10.657941600000001,0.0,0.0,0.0,0.0
5.9,167.156892,-4.608576,-7.5364848,-8.6645496,0.0,0.0,0.0,0.0
5.92,169.34687999999997,-9.6508824,-6.9399912,-6.5175384,0.0,0.0,0.0,0.0
5.94,171.1595256,-13.0664712,1.8976848000000002,-7.591044000000001,0.0,0.0,0.0,0.0
5.96,172.63506239999998,-8.4582,-10.952073600000002,-1.3036296,0.0,0.0,0.0,0.0
5.98,174.2337384,6.506260800000001,4.554321600000001,3.0672024,0.0,0.0,0.0,0.0
6.0,175.3861872,-1.789176,-2.3314152,-1.4569440000000002,0.0,0.0,0.0,0.0
6.0200000000000005,176.459388,-4.012082400000001,0.2170176,3.9870888,0.0,0.0,0.0,0.0
6.04,177.2844816,-9.7051368,-1.789176,8.2811112,0.0,0.0,0.0,0.0
6.0600000000000005,177.798984,-4.933797600000001,1.030224,8.58774,0.0,0.0,0.0,0.0
6.08,178.3317744,-5.5302912,-1.1926824,9.2778072,0.0,0.0,0.0,0.0
6.1000000000000005,178.9224768,7.210958400000001,0.5964936000000001,9.3546168,0.0,0.0,0.0,0.0
6.12,179.35011120000001,-2.4399240000000004,-2.0061936,10.3513128,0.0,0.0,0.0,0.0
6.140000000000001,179.67380880000002,-2.4941784,-3.2531304000000003,9.737750400000001,0.0,0.0,0.0,0.0
6.16,180.07035359999998,-4.445812800000001,2.7108912000000003,11.271504,0.0,0.0,0.0,0.0
6.18,180.414168,-1.1387328,4.933797600000001,12.2682,0.0,0.0,0.0,0.0
6.2,180.71713920000002,-4.2833544,-2.8736544000000004,12.8817624,0.0,0.0,0.0,0.0
6.220000000000001,181.19384639999998,-0.5964936000000001,0.4879848,11.654637600000001,0.0,0.0,0.0,0.0
6.24,181.5400992,1.2469368,-4.933797600000001,16.255288800000002,0.0,0.0,0.0,0.0
6.26,181.6909752,-2.1686520000000002,2.1686520000000002,15.948660000000002,0.0,0.0,0.0,0.0
6.28,181.9485312,6.343497600000001,-1.5724632,15.488716800000002,0.0,0.0,0.0,0.0
6.300000000000001,182.24052959999997,0.1085088,-1.1926824,14.72184,0.0,0.0,0.0,0.0
6.32,182.64164639999998,6.4520064,-3.8496240000000004,15.718536,0.0,0.0,0.0,0.0
6.34,183.0296568,-2.0601432,1.0844784,11.8847616,0.0,0.0,0.0,0.0
6.36,183.4630824,1.1387328,2.4399240000000004,16.0254696,0.0,0.0,0.0,0.0
6.38,183.98794800000002,4.7170848,1.8976848000000002,18.785738400000003,0.0,0.0,0.0,0.0
6.4,184.4381376,4.3376088,6.9399912,16.715536800000002,0.0,0.0,0.0,0.0
6.42,184.9989696,2.1686520000000002,-0.1085088,16.178784,0.0,0.0,0.0,0.0
6.44,185.52871199999998,3.7411152,1.1387328,19.4758056,0.0,0.0,0.0,0.0
6.46,186.0048096,0.7589520000000001,4.554321600000001,16.945356,0.0,0.0,0.0,0.0
6.48,186.2879688,1.030224,7.210958400000001,15.4119072,0.0,0.0,0.0,0.0
6.5,186.8445336,4.8795432000000005,-4.3376088,20.7026256,0.0,0.0,0.0,0.0
6.5200000000000005,187.37976239999998,0.2170176,5.096560800000001,17.2522896,0.0,0.0,0.0,0.0
6.54,187.831476,7.915960800000001,4.012082400000001,21.469502400000003,0.0,0.0,0.0,0.0
6.5600000000000005,188.1435912,1.8976848000000002,2.8736544000000004,19.0923672,0.0,0.0,0.0,0.0
6.58,188.4880152,1.5182088,2.1686520000000002,18.172176,0.0,0.0,0.0,0.0
6.6000000000000005,188.9107728,3.3616392,7.3737216000000005,19.629120000000004,0.0,0.0,0.0,0.0
6.62,189.4365528,1.9519392,3.6868608000000003,19.0158624,0.0,0.0,0.0,0.0
6.640000000000001,189.7447056,-2.8194000000000004,6.506260800000001,15.871850400000001,0.0,0.0,0.0,0.0
6.66,190.01049120000002,5.421782400000001,4.3376088,18.4023,0.0,0.0,0.0,0.0
6.68,190.36771679999998,2.8736544000000004,2.548128,19.398996,0.0,0.0,0.0,0.0
6.7,190.9946904,5.1508152,3.3073848000000003,17.482108800000002,0.0,0.0,0.0,0.0
6.720000000000001,191.4689592,9.0001344,2.8194000000000004,16.715536800000002,0.0,0.0,0.0,0.0
6.74,191.84630159999998,0.5964936000000001,3.8496240000000004,16.0254696,0.0,0.0,0.0,0.0
6.76,192.2620488,7.753197600000001,1.030224,16.101974400000003,0.0,0.0,0.0,0.0
6.78,192.5869656,4.2833544,5.367528,16.3320984,0.0,0.0,0.0,0.0
6.800000000000001,192.88505999999998,2.6566368,6.1267848,16.0254696,0.0,0.0,0.0,0.0
6.82,193.3120848,3.4158936000000004,6.2349888,14.951964,0.0,0.0,0.0,0.0
6.84,193.6967424,5.3132736,0.9759696,15.642031200000002,0.0,0.0,0.0,0.0
6.86,194.06646479999998,7.048500000000001,0.4337304,15.718536,0.0,0.0,0.0,0.0
6.880000000000001,194.3862,-4.445812800000001,-0.7589520000000001,13.878458400000001,0.0,0.0,0.0,0.0
6.9,194.6830752,0.9217152000000001,1.030224,13.878458400000001,0.0,0.0,0.0,0.0
6.92,195.2560992,3.4698432,0.650748,16.4086032,0.0,0.0,0.0,0.0
6.94,195.7626768,1.6806672000000002,2.9818584,13.571829600000001,0.0,0.0,0.0,0.0
6.960000000000001,196.2570624,2.9818584,4.8252888,14.951964,0.0,0.0,0.0,0.0
6.98,196.8053976,-0.2170176,3.2531304000000003,13.341705600000001,0.0,0.0,0.0,0.0
7.0,197.4887592,1.3011912,6.506260800000001,12.421514400000001,0.0,0.0,0.0,0.0
7.02,198.0648312,4.012082400000001,1.8434304000000001,13.8016488,0.0,0.0,0.0,0.0
7.04,198.52385999999998,2.3314152,2.1143976,14.5685256,0.0,0.0,0.0,0.0
7.0600000000000005,199.04110559999998,2.0601432,4.2291,13.418210400000001,0.0,0.0,0.0,0.0
7.08,199.45990079999999,1.2469368,-1.4639544,14.2618968,0.0,0.0,0.0,0.0
7.1,199.8799152,1.5182088,2.9279088,12.1913904,0.0,0.0,0.0,0.0
7.12,200.2721928,2.9818584,2.8736544000000004,13.264896000000002,0.0,0.0,0.0,0.0
7.140000000000001,200.5763832,4.3376088,3.6868608000000003,13.418210400000001,0.0,0.0,0.0,0.0
7.16,200.9808528,5.801258400000001,2.4399240000000004,12.498324000000002,0.0,0.0,0.0,0.0
7.18,201.443844,1.3554456000000001,1.789176,12.7281432,0.0,0.0,0.0,0.0
7.2,201.6946944,0.7046976,0.7046976,12.958267200000002,0.0,0.0,0.0,0.0
7.220000000000001,202.09824959999997,3.198876,0.8132064000000001,13.878458400000001,0.0,0.0,0.0,0.0
7.24,202.52436,-2.2771608000000003,1.8434304000000001,11.654637600000001,0.0,0.0,0.0,0.0
7.26,203.0339856,4.7713392,3.578352,14.108277600000001,0.0,0.0,0.0,0.0
7.28,203.6097528,1.0844784,1.5182088,11.1181896,0.0,0.0,0.0,0.0
7.300000000000001,204.0319008,-1.1387328,1.8976848000000002,12.1913904,0.0,0.0,0.0,0.0
7.32,204.4702032,1.5724632,1.8976848000000002,11.654637600000001,0.0,0.0,0.0,0.0
7.34,204.97068480000002,0.1085088,1.5182088,11.654637600000001,0.0,0.0,0.0,0.0
7.36,205.48762559999997,1.1926824,1.7349216,11.9615712,0.0,0.0,0.0,0.0
7.380000000000001,205.9362912,1.9519392,4.120591200000001,11.4248184,0.0,0.0,0.0,0.0
7.4,206.3105856,2.9818584,4.8252888,10.1979984,0.0,0.0,0.0,0.0
7.42,206.8125912,0.8132064000000001,2.548128,8.971178400000001,0.0,0.0,0.0,0.0
7.44,207.2978328,3.957828,1.6806672000000002,9.967874400000001,0.0,0.0,0.0,0.0
7.460000000000001,207.7727112,-0.16276320000000002,-0.2709672,9.5079312,0.0,0.0,0.0,0.0
7.48,208.39633199999997,-0.650748,1.7349216,10.1979984,0.0,0.0,0.0,0.0
7.5,208.8980328,3.7953696000000003,1.9519392,10.428122400000001,0.0,0.0,0.0,0.0
7.52,209.40034319999998,2.9279088,4.012082400000001,8.6645496,0.0,0.0,0.0,0.0
7.54,209.9078352,1.4097000000000002,3.2531304000000003,9.047683200000002,0.0,0.0,0.0,0.0
7.5600000000000005,210.2775576,0.8132064000000001,2.0061936,9.6612456,0.0,0.0,0.0,0.0
7.58,210.80669039999998,0.9217152000000001,4.3915584,9.737750400000001,0.0,0.0,0.0,0.0
7.6,211.3029048,2.4399240000000004,1.789176,9.2013024,0.0,0.0,0.0,0.0
7.62,211.7241384,0.7589520000000001,0.4337304,7.6675488,0.0,0.0,0.0,0.0
7.640000000000001,212.2426032,4.445812800000001,0.0,8.6645496,0.0,0.0,0.0,0.0
7.66,212.7424752,2.2229064000000003,-3.198876,8.2811112,0.0,0.0,0.0,0.0
7.68,213.29385839999998,2.8194000000000004,1.7349216,8.357616,0.0,0.0,0.0,0.0
7.7,213.75959279999998,0.37947600000000004,3.0903671999999998,8.58774,0.0,0.0,0.0,0.0
7.720000000000001,214.1637576,-0.0542544,-0.7046976,8.2811112,0.0,0.0,0.0,0.0
7.74,214.55268239999998,2.6023824,4.7713392,8.817864,0.0,0.0,0.0,0.0
7.76,215.031828,2.6566368,0.37947600000000004,7.8208632,0.0,0.0,0.0,0.0
7.78,215.4838464,1.5182088,0.7589520000000001,8.8943688,0.0,0.0,0.0,0.0
7.800000000000001,215.7974856,1.7349216,0.5422392,9.3546168,0.0,0.0,0.0,0.0
7.82,216.25864800000002,2.4941784,1.3011912,9.6612456,0.0,0.0,0.0,0.0
7.84,216.70517999999998,-1.0844784,3.0361128,7.9744824,0.0,0.0,0.0,0.0
7.86,217.12885199999997,-1.7349216,0.9759696,7.2076056,0.0,0.0,0.0,0.0
7.880000000000001,217.65158399999999,1.4097000000000002,-0.8674608,7.5142344,0.0,0.0,0.0,0.0
7.9,218.0892768,-1.2469368,-0.8132064000000001,6.9774816,0.0,0.0,0.0,0.0
7.92,218.44254,-1.5182088,3.0361128,7.2841104,0.0,0.0,0.0,0.0
7.94,218.83908480000002,3.5240976,0.37947600000000004,7.591044000000001,0.0,0.0,0.0,0.0
7.960000000000001,219.37675199999998,1.6264128000000002,3.1446216000000002,7.744358400000001,0.0,0.0,0.0,0.0
7.98,219.9979344,2.4399240000000004,0.5964936000000001,5.827471200000001,0.0,0.0,0.0,0.0
8.0,220.41002400000002,0.7589520000000001,2.3856696,7.130796,0.0,0.0,0.0,0.0
8.02,220.86783359999998,2.2771608000000003,-0.7589520000000001,7.591044000000001,0.0,0.0,0.0,0.0
8.04,221.22353520000001,-0.5964936000000001,1.5724632,7.2841104,0.0,0.0,0.0,0.0
8.06,221.6277,-0.7589520000000001,1.9519392,6.0572904,0.0,0.0,0.0,0.0
8.08,222.0166248,1.6806672000000002,2.3314152,8.1277968,0.0,0.0,0.0,0.0
8.1,222.5317368,-0.9759696,3.3616392,5.9807856,0.0,0.0,0.0,0.0
8.120000000000001,222.9864984,-2.3856696,0.4337304,5.6741568000000004,0.0,0.0,0.0,0.0
8.14,223.400112,1.1387328,1.789176,6.1341,0.0,0.0,0.0,0.0
8.16,223.83384239999998,1.3011912,0.1085088,7.744358400000001,0.0,0.0,0.0,0.0
8.18,224.3062824,1.2469368,1.4639544,6.5175384,0.0,0.0,0.0,0.0
8.2,224.70313199999998,-0.650748,1.3011912,6.6708528000000005,0.0,0.0,0.0,0.0
8.22,225.1703904,2.8736544000000004,0.4879848,6.5175384,0.0,0.0,0.0,0.0
8.24,225.6778824,-0.37947600000000004,0.16276320000000002,5.5205376,0.0,0.0,0.0,0.0
8.26,226.2466392,2.548128,0.16276320000000002,5.903976000000001,0.0,0.0,0.0,0.0
8.280000000000001,226.60447440000002,2.2771608000000003,-1.0844784,5.5205376,0.0,0.0,0.0,0.0
8.3,227.09367840000002,0.4879848,1.5724632,5.6741568000000004,0.0,0.0,0.0,0.0
8.32,227.5920264,0.37947600000000004,2.0061936,5.4440328000000004,0.0,0.0,0.0,0.0
8.34,228.0458736,0.5422392,2.3856696,5.2907184,0.0,0.0,0.0,0.0
8.36,228.50886479999997,1.4097000000000002,1.8434304000000001,5.903976000000001,0.0,0.0,0.0,0.0
8.38,228.9343656,0.9217152000000001,0.0542544,4.984089600000001,0.0,0.0,0.0,0.0
8.4,229.2818376,1.1387328,1.5724632,6.9009768,0.0,0.0,0.0,0.0
8.42,229.73507519999998,1.3554456000000001,-0.37947600000000004,4.7539656,0.0,0.0,0.0,0.0
8.440000000000001,230.1175992,3.5240976,0.9217152000000001,5.137404,0.0,0.0,0.0,0.0
8.46,230.58180959999999,1.8434304000000001,-0.650748,5.597347200000001,0.0,0.0,0.0,0.0
8.48,231.035352,0.8132064000000001,1.789176,5.750661600000001,0.0,0.0,0.0,0.0
8.5,231.5117544,2.3314152,0.4879848,5.597347200000001,0.0,0.0,0.0,0.0
8.52,231.89946,0.7046976,0.4879848,4.7539656,0.0,0.0,0.0,0.0
8.54,232.35666,1.789176,0.16276320000000002,5.2139088000000005,0.0,0.0,0.0,0.0
8.56,232.7495472,1.1387328,1.030224,4.523841600000001,0.0,0.0,0.0,0.0
8.58,233.2094904,-0.5964936000000001,1.5724632,4.523841600000001,0.0,0.0,0.0,0.0
8.6,233.6103024,1.5182088,-0.5422392,4.984089600000001,0.0,0.0,0.0,0.0
8.620000000000001,234.0059328,1.1387328,0.4879848,4.2937176,0.0,0.0,0.0,0.0
8.64,234.37504560000002,0.37947600000000004,0.7046976,4.4473368,0.0,0.0,0.0,0.0
8.66,234.7590936,0.1085088,0.9759696,4.370527200000001,0.0,0.0,0.0,0.0
8.68,235.1681352,0.7589520000000001,0.8674608,4.4473368,0.0,0.0,0.0,0.0
8.7,235.4799456,1.9519392,-0.2170176,4.677156,0.0,0.0,0.0,0.0
8.72,235.8737472,0.650748,0.3252216,4.677156,0.0,0.0,0.0,0.0
8.74,236.4260448,-0.5964936000000001,0.2709672,3.8337744,0.0,0.0,0.0,0.0
8.76,236.89696080000002,0.4879848,0.4879848,4.6006512,0.0,0.0,0.0,0.0
8.780000000000001,237.2218776,0.1085088,0.9759696,4.523841600000001,0.0,0.0,0.0,0.0
8.8,237.7193112,1.0844784,-0.8674608,4.677156,0.0,0.0,0.0,0.0
8.82,238.227108,0.2709672,0.8132064000000001,3.68046,0.0,0.0,0.0,0.0
8.84,238.73002799999998,-0.3252216,0.0,3.6036504000000003,0.0,0.0,0.0,0.0
8.86,239.1668064,1.4639544,-0.0542544,3.68046,0.0,0.0,0.0,0.0
8.879999999999999,239.66667840000002,1.4097000000000002,0.650748,3.7572696000000003,0.0,0.0,0.0,0.0
8.9,240.0903504,-0.0542544,0.7046976,4.4473368,0.0,0.0,0.0,0.0
8.92,240.4579392,-0.3252216,1.0844784,3.1437072,0.0,0.0,0.0,0.0
8.940000000000001,240.8029728,0.7589520000000001,1.8434304000000001,3.3738312000000006,0.0,0.0,0.0,0.0
8.96,241.1068584,0.650748,0.9759696,3.5271456,0.0,0.0,0.0,0.0
8.98,241.5436368,0.5422392,0.4337304,3.68046,0.0,0.0,0.0,0.0
9.0,242.0806944,1.5724632,0.37947600000000004,4.0638984,0.0,0.0,0.0,0.0
9.02,242.4708384,0.5422392,-0.2170176,3.1437072,0.0,0.0,0.0,0.0
9.04,242.9917416,-0.16276320000000002,0.4879848,2.9903928,0.0,0.0,0.0,0.0
9.06,243.3776184,1.0844784,0.9759696,2.7602688,0.0,0.0,0.0,0.0
9.08,243.73149120000002,-0.2170176,0.650748,3.2970216000000003,0.0,0.0,0.0,0.0
9.100000000000001,244.1030424,0.2170176,0.650748,3.450336,0.0,0.0,0.0,0.0
9.120000000000001,244.56054719999997,0.37947600000000004,0.8132064000000001,3.2970216000000003,0.0,0.0,0.0,0.0
9.14,244.87906320000002,0.7046976,0.9217152000000001,3.9870888,0.0,0.0,0.0,0.0
9.16,245.26646399999998,0.650748,0.7589520000000001,3.2205168000000004,0.0,0.0,0.0,0.0
9.18,245.64594,0.1085088,0.3252216,3.0672024,0.0,0.0,0.0,0.0
9.2,246.0388272,0.5422392,-0.2170176,2.8370784000000002,0.0,0.0,0.0,0.0
9.22,246.3753264,1.030224,0.16276320000000002,3.2205168000000004,0.0,0.0,0.0,0.0
9.24,246.80417999999997,0.7046976,-0.7046976,2.9135831999999997,0.0,0.0,0.0,0.0
9.26,247.2107832,1.030224,0.5964936000000001,2.8370784000000002,0.0,0.0,0.0,0.0
9.280000000000001,247.5698376,0.0,-0.1085088,2.9903928,0.0,0.0,0.0,0.0
9.3,248.0672712,0.5964936000000001,-0.16276320000000002,3.1437072,0.0,0.0,0.0,0.0
9.32,248.29465199999999,-0.5964936000000001,0.2709672,2.683764,0.0,0.0,0.0,0.0
9.34,248.57872559999998,1.2469368,0.16276320000000002,2.8370784000000002,0.0,0.0,0.0,0.0
9.36,248.7835512,0.4337304,1.7349216,2.7602688,0.0,0.0,0.0,0.0
9.379999999999999,249.0496416,0.4337304,1.4097000000000002,2.7602688,0.0,0.0,0.0,0.0
9.4,249.3260952,0.3252216,0.4337304,2.7602688,0.0,0.0,0.0,0.0
9.42,249.6318096,0.3252216,0.5422392,2.6069544000000002,0.0,0.0,0.0,0.0
9.440000000000001,249.936,0.16276320000000002,0.4879848,2.3003256,0.0,0.0,0.0,0.0
9.46,250.3115136,-0.4337304,0.5422392,2.5304496,0.0,0.0,0.0,0.0
9.48,250.5346272,0.16276320000000002,0.0542544,2.6069544000000002,0.0,0.0,0.0,0.0
9.5,250.844304,0.1085088,0.2170176,2.3768304000000002,0.0,0.0,0.0,0.0
9.52,251.0808288,-0.2170176,0.2170176,2.223516,0.0,0.0,0.0,0.0
9.54,251.45817119999998,0.0542544,0.16276320000000002,1.9168872,0.0,0.0,0.0,0.0
9.56,251.6995728,0.650748,0.4337304,1.9936968000000002,0.0,0.0,0.0,0.0
9.58,251.975112,-0.37947600000000004,0.5964936000000001,2.3003256,0.0,0.0,0.0,0.0
9.600000000000001,252.2841792,0.2170176,0.0,2.3003256,0.0,0.0,0.0,0.0
9.620000000000001,252.59659919999999,0.3252216,0.1085088,1.9168872,0.0,0.0,0.0,0.0
9.64,252.9227352,0.7046976,0.8132064000000001,2.0702016,0.0,0.0,0.0,0.0
9.66,253.2007128,-0.2170176,0.1085088,2.1470112,0.0,0.0,0.0,0.0
9.68,253.4796048,0.2709672,0.8132064000000001,2.3768304000000002,0.0,0.0,0.0,0.0
9.7,253.7798328,0.7046976,0.2709672,1.6867632000000001,0.0,0.0,0.0,0.0
9.72,254.1836928,0.7589520000000001,0.0,1.8400776,0.0,0.0,0.0,0.0
9.74,254.55311039999998,0.1085088,0.3252216,1.5334488,0.0,0.0,0.0,0.0
9.76,254.9124696,-0.0542544,0.5964936000000001,1.7635728,0.0,0.0,0.0,0.0
9.780000000000001,255.138936,0.2170176,-0.1085088,1.9168872,0.0,0.0,0.0,0.0
9.8,255.4857984,0.2170176,-0.3252216,1.7635728,0.0,0.0,0.0,0.0
9.82,255.90154560000002,0.16276320000000002,0.16276320000000002,1.7635728,0.0,0.0,0.0,0.0
9.84,256.195068,0.16276320000000002,-0.16276320000000002,1.3036296,0.0,0.0,0.0,0.0
9.86,256.4578056,-0.16276320000000002,-0.0542544,1.1500104,0.0,0.0,0.0,0.0
9.879999999999999,256.69951199999997,0.1085088,0.0,1.3801344,0.0,0.0,0.0,0.0
9.9,256.967736,-0.37947600000000004,0.16276320000000002,1.6102584000000002,0.0,0.0,0.0,0.0
9.92,257.2109664,0.650748,0.3252216,1.5334488,0.0,0.0,0.0,0.0
9.940000000000001,257.44261439999997,0.0542544,0.0542544,1.3801344,0.0,0.0,0.0,0.0
9.96,257.61574079999997,-0.4337304,0.1085088,1.3036296,0.0,0.0,0.0,0.0
9.98,257.88548879999996,0.1085088,0.1085088,1.3036296,0.0,0.0,0.0,0.0
10.0,258.1174416,0.4337304,0.1085088,1.1500104,0.0,0.0,0.0,0.0
10.02,258.4289472,-0.2709672,0.37947600000000004,0.9201912000000001,0.0,0.0,0.0,0.0
10.04,258.7343568,0.0,0.5422392,0.996696,0.0,0.0,0.0,0.0
10.06,259.03245119999997,0.0542544,0.16276320000000002,1.0735056,0.0,0.0,0.0,0.0
10.08,259.22721839999997,-0.1085088,0.3252216,1.2268200000000002,0.0,0.0,0.0,0.0
10.100000000000001,259.4018688,0.1085088,0.1085088,1.1500104,0.0,0.0,0.0,0.0
10.120000000000001,259.6112664,0.2170176,0.2170176,0.996696,0.0,0.0,0.0,0.0
10.14,259.8334656,0.4337304,0.2170176,1.1500104,0.0,0.0,0.0,0.0
10.16,260.1419232,0.37947600000000004,0.0542544,1.0735056,0.0,0.0,0.0,0.0
10.18,260.494272,-0.16276320000000002,-0.0542544,0.9201912000000001,0.0,0.0,0.0,0.0
10.2,260.7387216,0.0542544,-0.16276320000000002,0.9201912000000001,0.0,0.0,0.0,0.0
10.22,260.9170296,-0.5964936000000001,0.37947600000000004,1.1500104,0.0,0.0,0.0,0.0
10.24,261.2178672,0.1085088,0.3252216,1.0735056,0.0,0.0,0.0,0.0
10.26,261.38337359999997,-0.1085088,0.3252216,1.0735056,0.0,0.0,0.0,0.0
10.280000000000001,261.6759816,-0.3252216,0.4337304,1.0735056,0.0,0.0,0.0,0.0
10.3,261.919212,-0.2709672,0.2709672,0.996696,0.0,0.0,0.0,0.0
10.32,262.24809120000003,0.0,0.2170176,0.996696,0.0,0.0,0.0,0.0
10.34,262.3745832,0.0,0.3252216,0.6135624,0.0,0.0,0.0,0.0
10.36,262.559292,-0.2709672,0.2709672,0.9201912000000001,0.0,0.0,0.0,0.0
10.379999999999999,262.6525608,-0.0542544,-0.16276320000000002,0.5367528,0.0,0.0,0.0,0.0
10.4,262.7994744,0.0542544,0.0542544,0.7668768,0.0,0.0,0.0,0.0
10.42,262.998204,-0.0542544,0.0542544,0.6135624,0.0,0.0,0.0,0.0
10.440000000000001,263.3084904,-0.2170176,-0.1085088,0.6900672,0.0,0.0,0.0,0.0
10.46,263.4529656,-0.1085088,0.2170176,0.6900672,0.0,0.0,0.0,0.0
10.48,263.5517208,0.0542544,0.2709672,0.6900672,0.0,0.0,0.0,0.0
10.5,263.7260664,0.1085088,0.3252216,0.6135624,0.0,0.0,0.0,0.0
10.52,263.914128,0.5964936000000001,0.0542544,0.4599432,0.0,0.0,0.0,0.0
10.54,264.1024944,0.2170176,0.2170176,0.5367528,0.0,0.0,0.0,0.0
10.56,264.17503680000004,0.2709672,0.2709672,0.6135624,0.0,0.0,0.0,0.0
10.58,264.2881176,0.0542544,0.16276320000000002,0.6135624,0.0,0.0,0.0,0.0
10.600000000000001,264.522204,-0.2170176,0.2170176,0.3834384,0.0,0.0,0.0,0.0
10.620000000000001,264.68649120000003,0.0542544,0.2709672,0.4599432,0.0,0.0,0.0,0.0
10.64,264.9449616,0.2170176,0.3252216,0.4599432,0.0,0.0,0.0,0.0
10.66,265.23756960000003,-0.2170176,0.0,0.4599432,0.0,0.0,0.0,0.0
10.68,265.4521488,-0.1085088,0.1085088,0.30662880000000003,0.0,0.0,0.0,0.0
10.7,265.6517928,-0.3252216,0.0,0.3834384,0.0,0.0,0.0,0.0
10.72,265.8819168,-0.2170176,0.1085088,0.30662880000000003,0.0,0.0,0.0,0.0
10.74,266.1035064,-0.37947600000000004,0.37947600000000004,0.3834384,0.0,0.0,0.0,0.0
10.76,266.2492008,-0.2170176,0.2170176,0.3834384,0.0,0.0,0.0,0.0
10.780000000000001,266.4083064,-0.16276320000000002,0.16276320000000002,0.3834384,0.0,0.0,0.0,0.0
10.8,266.62197119999996,-0.2170176,0.1085088,0.15331440000000002,0.0,0.0,0.0,0.0
10.82,266.7734568,-0.2709672,0.2709672,0.23012400000000002,0.0,0.0,0.0,0.0
10.84,266.8243584,-0.1085088,0.1085088,0.4599432,0.0,0.0,0.0,0.0
10.86,266.980416,-0.2709672,0.4879848,0.30662880000000003,0.0,0.0,0.0,0.0
10.879999999999999,267.0404616,-0.3252216,0.3252216,0.30662880000000003,0.0,0.0,0.0,0.0
10.9,267.1346448,-0.2170176,0.0,0.23012400000000002,0.0,0.0,0.0,0.0
10.92,267.3013704,-0.1085088,0.1085088,0.30662880000000003,0.0,0.0,0.0,0.0
10.940000000000001,267.3678168,0.16276320000000002,0.16276320000000002,0.30662880000000003,0.0,0.0,0.0,0.0
10.96,267.5043672,0.1085088,0.2170176,0.30662880000000003,0.0,0.0,0.0,0.0
10.98,267.6275064,-0.0542544,0.4879848,0.15331440000000002,0.0,0.0,0.0,0.0
11.0,267.7594848,-0.0542544,0.0542544,0.15331440000000002,0.0,0.0,0.0,0.0
11.02,267.830808,-0.37947600000000004,0.0542544,0.0768096,0.0,0.0,0.0,0.0
11.04,267.9387072,-0.0542544,0.16276320000000002,0.23012400000000002,0.0,0.0,0.0,0.0
11.06,268.1231112,-0.0542544,0.16276320000000002,0.15331440000000002,0.0,0.0,0.0,0.0
11.08,268.3187928,-0.16276320000000002,0.0542544,0.23012400000000002,0.0,0.0,0.0,0.0
11.100000000000001,268.46692559999997,0.0,0.0,0.0768096,0.0,0.0,0.0,0.0
11.120000000000001,268.6607784,-0.1085088,0.3252216,0.0768096,0.0,0.0,0.0,0.0
11.14,268.7500848,0.0,0.2170176,0.0,0.0,0.0,0.0,0.0
11.16,268.89516960000003,-0.37947600000000004,0.16276320000000002,0.0,0.0,0.0,0.0,0.0
11.18,269.0497032,-0.2170176,0.3252216,0.0768096,0.0,0.0,0.0,0.0
11.2,269.13961919999997,-0.3252216,0.2170176,0.0768096,0.0,0.0,0.0,0.0
11.22,269.2146,-0.1085088,0.1085088,0.0768096,0.0,0.0,0.0,0.0
11.24,269.44441919999997,-0.3252216,0.2170176,0.15331440000000002,0.0,0.0,0.0,0.0
11.26,269.5190952,-0.5422392,0.3252216,0.0768096,0.0,0.0,0.0,0.0
11.280000000000001,269.6370528,-0.16276320000000002,0.37947600000000004,0.0,0.0,0.0,0.0,0.0
11.3,269.685516,-0.3252216,0.2170176,0.0768096,0.0,0.0,0.0,0.0
11.32,269.8339536,-0.2709672,0.37947600000000004,0.0,0.0,0.0,0.0,0.0
11.34,269.9436816,-0.4337304,0.4337304,0.0,0.0,0.0,0.0,0.0
11.36,270.0960816,-0.1085088,0.3252216,0.0,0.0,0.0,0.0,0.0
11.379999999999999,270.1859976,-0.1085088,0.3252216,0.0768096,0.0,0.0,0.0,0.0
11.4,270.2847528,-0.2709672,0.2709672,0.0,0.0,0.0,0.0,0.0
11.42,270.36887759999996,-0.37947600000000004,0.2709672,0.0,0.0,0.0,0.0,0.0
11.440000000000001,270.4021008,-0.2709672,0.0542544,0.0768096,0.0,0.0,0.0,0.0
11.46,270.5249352,-0.2709672,0.16276320000000002,0.0,0.0,0.0,0.0,0.0
11.48,270.58437119999996,-0.0542544,0.16276320000000002,0.0,0.0,0.0,0.0,0.0
11.5,270.6200328,0.0,0.3252216,0.0,0.0,0.0,0.0,0.0
11.52,270.59869679999997,-0.2170176,0.1085088,0.0,0.0,0.0,0.0,0.0
11.54,270.6678864,-0.2170176,0.1085088,0.0,0.0,0.0,0.0,0.0
11.56,270.7190928,-0.1085088,0.0,0.0,0.0,0.0,0.0,0.0
11.58,270.66971520000004,-0.0542544,0.16276320000000002,0.0,0.0,0.0,0.0,0.0
11.600000000000001,270.69288,-0.2170176,0.2170176,0.0768096,0.0,0.0,0.0,0.0
11.620000000000001,270.6800784,-0.2170176,0.1085088,0.0,0.0,0.0,0.0,0.0
11.64,270.6846504,-0.3252216,0.2170176,0.0,0.0,0.0,0.0,0.0
11.66,270.636492,-0.16276320000000002,0.0542544,0.0,0.0,0.0,0.0,0.0
11.68,270.6840408,-0.0542544,0.0542544,0.0,0.0,0.0,0.0,0.0
11.7,270.743172,0.1085088,0.2170176,0.0768096,0.0,0.0,0.0,0.0
11.72,270.7678608,-0.16276320000000002,0.16276320000000002,0.0768096,0.0,0.0,0.0,0.0
11.74,270.7608504,-0.0542544,0.0542544,0.0,0.0,0.0,0.0,0.0
11.76,270.8013888,-0.1085088,0.3252216,-0.0768096,0.0,0.0,0.0,0.0
11.780000000000001,270.77639519999997,-0.1085088,0.2170176,-0.0768096,0.0,0.0,0.0,0.0
11.8,270.7773096,-0.2170176,0.1085088,0.0,0.0,0.0,0.0,0.0
11.82,270.9318432,-0.16276320000000002,0.2709672,0.0,0.0,0.0,0.0,0.0
11.84,270.9284904,-0.1085088,0.2170176,0.0,0.0,0.0,0.0,0.0
11.86,271.0162728,-0.2170176,0.3252216,0.0,0.0,0.0,0.0,0.0
11.879999999999999,271.1037504,-0.2170176,0.3252216,0.0,0.0,0.0,0.0,0.0
11.9,271.1284392,-0.2709672,0.16276320000000002,0.0,0.0,0.0,0.0,0.0
11.92,271.1674536,-0.1085088,0.2170176,0.0,0.0,0.0,0.0,0.0
11.940000000000001,271.1625768,-0.1085088,0.2170176,0.0,0.0,0.0,0.0,0.0
11.96,271.14063120000003,-0.1085088,0.3252216,0.0,0.0,0.0,0.0,0.0
11.98,271.1708064,-0.2170176,0.3252216,0.0,0.0,0.0,0.0,0.0
12.0,271.15434719999996,-0.1085088,0.3252216,0.0,0.0,0.0,0.0,0.0
12.02,271.221708,-0.1085088,0.1085088,0.0,0.0,0.0,0.0,0.0
12.04,271.2665136,-0.1085088,0.3252216,0.0,0.0,0.0,0.0,0.0
12.06,271.3000416,-0.1085088,0.3252216,0.0,0.0,0.0,0.0,0.0
12.08,271.278096,-0.1085088,0.1085088,0.0,0.0,0.0,0.0,0.0
12.100000000000001,271.3286928,-0.16276320000000002,0.37947600000000004,0.0,0.0,0.0,0.0,0.0
12.120000000000001,271.2777912,-0.0542544,0.2709672,0.0,0.0,0.0,0.0,0.0
12.14,271.1945808,-0.16276320000000002,0.16276320000000002,0.0,0.0,0.0,0.0,0.0
12.16,271.1765976,-0.0542544,0.2709672,0.0,0.0,0.0,0.0,0.0
12.18,271.0574208,-0.16276320000000002,0.37947600000000004,0.0,0.0,0.0,0.0,0.0
12.2,270.98823120000003,-0.16276320000000002,0.16276320000000002,0.0,0.0,0.0,0.0,0.0
12.22,270.942816,0.0,0.2170176,0.0,0.0,0.0,0.0,0.0
12.24,270.915384,0.0,0.3252216,0.0,0.0,0.0,0.0,0.0
12.26,270.76481279999996,-0.0542544,0.16276320000000002,0.0,0.0,0.0,0.0,0.0
12.280000000000001,270.6246048,-0.2709672,0.2709672,0.0,0.0,0.0,0.0,0.0
12.3,269.2185624,-2.9818584,-1.1387328,0.0,0.0,0.0,0.0,0.0
12.32,268.9091904,-51.8870184,20.982432000000003,-13.264896000000002,0.0,0.0,0.0,0.0
12.34,268.5766536,-49.33858560000001,-151.0521744,92.8548816,0.0,0.0,0.0,0.0
12.36,268.22156160000003,70.97176560000001,42.5613576,152.12568000000002,0.0,0.0,0.0,0.0
12.379999999999999,268.0844016,-22.175419200000004,-66.74266560000001,146.52833280000002,0.0,0.0,0.0,0.0
12.4,267.8344656,151.5401592,39.8504664,156.9561504,0.0,0.0,0.0,0.0
12.42,267.6506712,63.598044,2.548128,156.9561504,0.0,0.0,0.0,0.0
12.440000000000001,267.4534656,39.9047208,13.446252000000001,156.9561504,0.0,0.0,0.0,0.0
12.46,267.2681472,59.8026744,-7.753197600000001,119.6916072,0.0,0.0,0.0,0.0
12.48,267.1093464,16.102888800000002,19.898258400000003,95.99858880000001,0.0,0.0,0.0,0.0
12.5,266.9923032,18.976543200000002,34.916668800000004,65.5582128,0.0,0.0,0.0,0.0
12.52,266.8956816,15.181173600000001,10.626852000000001,22.8496368,0.0,0.0,0.0,0.0
12.54,266.8191768,-2.9818584,-0.9217152000000001,-4.7539656,0.0,0.0,0.0,0.0
12.56,266.7679704,8.5121496,-2.7651456,-3.8337744,0.0,0.0,0.0,0.0
12.58,266.76156960000003,221.9696856,0.0,156.9561504,0.0,0.0,0.0,0.0
12.600000000000001,266.8655064,3.578352,-31.988760000000003,135.5637624,0.0,0.0,0.0,0.0
12.620000000000001,266.960604,-29.16936,-33.7236816,66.24828000000001,0.0,0.0,0.0,0.0
12.64,267.024612,-3.6326064,4.2833544,16.6387272,0.0,0.0,0.0,0.0
12.66,267.03558480000004,0.9759696,-2.7108912000000003,0.15331440000000002,0.0,0.0,0.0,0.0
12.68,267.0761232,48.850600799999995,-2.0061936,25.3797816,0.0,0.0,0.0,0.0
12.7,267.1325112,18.000573600000003,-16.0486344,49.302924000000004,0.0,0.0,0.0,0.0
12.72,267.1767072,-4.933797600000001,1.3554456000000001,19.1691768,0.0,0.0,0.0,0.0
12.74,267.2291328,9.7593912,26.566977600000005,29.5204896,0.0,0.0,0.0,0.0
12.76,267.26479439999997,-7.915960800000001,6.8314824000000005,26.376477600000005,0.0,0.0,0.0,0.0
12.78,267.3016752,5.1508152,14.476171200000001,32.0506344,0.0,0.0,0.0,0.0
12.8,267.3425184,-8.8919304,-4.445812800000001,21.852636,0.0,0.0,0.0,0.0
12.82,267.3745224,-10.138867200000002,-7.753197600000001,12.8817624,0.0,0.0,0.0,0.0
12.84,267.4068312,-13.554456,-2.1686520000000002,12.498324000000002,0.0,0.0,0.0,0.0
12.86,267.4537704,-15.9401256,-1.8434304000000001,14.798649600000001,0.0,0.0,0.0,0.0
12.88,267.4623048,-5.421782400000001,2.1686520000000002,13.6483344,0.0,0.0,0.0,0.0
12.9,267.46962,14.421916800000002,2.4941784,13.1883912,0.0,0.0,0.0,0.0
12.92,267.4808976,24.832056,4.012082400000001,16.945356,0.0,0.0,0.0,0.0
12.94,267.47388720000004,45.2179944,2.3856696,18.3254904,0.0,0.0,0.0,0.0
12.96,267.465048,8.6749128,-3.7953696000000003,8.357616,0.0,0.0,0.0,0.0
12.98,267.47663040000003,3.0903671999999998,-4.5000672,9.584436,0.0,0.0,0.0,0.0
13.0,267.47053439999996,0.0542544,-5.1508152,9.6612456,0.0,0.0,0.0,0.0
13.02,267.4976616,-4.7170848,-10.4640888,7.2841104,0.0,0.0,0.0,0.0
13.040000000000001,267.5135112,-3.3616392,-0.3252216,6.594043200000001,0.0,0.0,0.0,0.0
13.06,267.516864,-2.3314152,0.2709672,-0.23012400000000002,0.0,0.0,0.0,0.0
13.08,267.47053439999996,-2.9279088,2.9279088,0.6135624,0.0,0.0,0.0,0.0
13.1,267.5007096,-3.957828,-1.1387328,3.450336,0.0,0.0,0.0,0.0
13.120000000000001,267.5119872,-3.8496240000000004,3.7411152,2.9135831999999997,0.0,0.0,0.0,0.0
13.14,267.5141208,-7.8617064,0.9217152000000001,4.2937176,0.0,0.0,0.0,0.0
13.16,267.5193024,-5.0423064,-8.4039456,1.6102584000000002,0.0,0.0,0.0,0.0
13.18,267.5196072,-10.626852000000001,-14.964156000000001,-1.3036296,0.0,0.0,0.0,0.0
13.200000000000001,267.503148,-40.3927056,-17.837810400000002,1.3801344,0.0,0.0,0.0,0.0
13.22,267.2940552,-23.801832,-35.512857600000004,-10.811256,0.0,0.0,0.0,0.0
13.24,266.847828,-1.1926824,6.9399912,-16.6387272,0.0,0.0,0.0,0.0
13.26,266.4247656,2.8194000000000004,-17.024604,-16.6387272,0.0,0.0,0.0,0.0
13.28,266.20256639999997,14.0424408,-3.957828,-18.5556144,0.0,0.0,0.0,0.0
13.3,266.20165199999997,-7.048500000000001,9.5423736,-13.9549632,0.0,0.0,0.0,0.0
13.32,265.9572024,-9.596628,11.3315496,-13.0350768,0.0,0.0,0.0,0.0
13.34,265.326876,-4.120591200000001,30.362347200000002,0.5367528,0.0,0.0,0.0,0.0
13.36,264.7236768,-35.4046536,16.4281104,9.3546168,0.0,0.0,0.0,0.0
13.38,264.266172,-10.3013256,9.108643200000001,-2.8370784000000002,0.0,0.0,0.0,0.0
13.4,263.8193352,-2.0601432,-3.4698432,-15.871850400000001,0.0,0.0,0.0,0.0
13.42,263.3950536,-22.2293688,-12.144756000000001,0.6135624,0.0,0.0,0.0,0.0
13.44,263.199372,-11.5485672,-11.76528,-5.060594400000001,0.0,0.0,0.0,0.0
13.46,263.043924,-7.6446888,-16.645128,-12.651638400000001,0.0,0.0,0.0,0.0
13.48,263.2905072,-11.3315496,-5.367528,-21.469502400000003,0.0,0.0,0.0,0.0
13.5,263.587992,34.157412,55.5196248,-59.960865600000005,0.0,0.0,0.0,0.0
13.52,264.1189536,1.6264128000000002,45.435012,2.5304496,0.0,0.0,0.0,0.0
13.540000000000001,264.64869600000003,-15.994380000000001,15.8858712,6.0572904,0.0,0.0,0.0,0.0
13.56,264.97361279999996,-7.156704,17.8920648,5.9807856,0.0,0.0,0.0,0.0
13.58,265.4155728,-16.8618408,8.295436800000001,8.6645496,0.0,0.0,0.0,0.0
13.6,265.377168,0.3252216,-13.3377432,15.4119072,0.0,0.0,0.0,0.0
13.620000000000001,265.1244888,-9.5423736,0.8674608,5.597347200000001,0.0,0.0,0.0,0.0
13.64,264.744708,-9.7051368,-15.8858712,-0.996696,0.0,0.0,0.0,0.0
13.66,264.1771704,3.8496240000000004,-21.3076536,-4.2937176,0.0,0.0,0.0,0.0
13.68,263.7446592,34.6996512,-20.277734400000003,-6.747662400000001,0.0,0.0,0.0,0.0
13.700000000000001,263.7455736,51.453288,12.7412496,-19.398996,0.0,0.0,0.0,0.0
13.72,263.4160848,2.7108912000000003,12.2532648,0.0,0.0,0.0,0.0,0.0
13.74,262.9637616,-43.4830728,-3.1446216000000002,22.0059504,0.0,0.0,0.0,0.0
13.76,262.789416,-40.013229599999995,5.964021600000001,42.708576,0.0,0.0,0.0,0.0
13.78,262.7580216,-19.1390016,-11.76528,23.9231424,0.0,0.0,0.0,0.0
13.8,262.6306152,2.6023824,-13.662964800000001,14.0317728,0.0,0.0,0.0,0.0
13.82,262.21182,33.452714400000005,-22.0669104,10.734751200000002,0.0,0.0,0.0,0.0
13.84,261.7284072,15.994380000000001,4.0663368,8.1277968,0.0,0.0,0.0,0.0
13.86,261.3364344,-9.3256608,5.096560800000001,9.5079312,0.0,0.0,0.0,0.0
13.88,261.0804024,6.4520064,-14.909901600000001,-0.30662880000000003,0.0,0.0,0.0,0.0
13.9,260.831076,7.915960800000001,3.6868608000000003,4.2937176,0.0,0.0,0.0,0.0
13.92,260.54212559999996,0.2709672,0.5964936000000001,-0.6135624,0.0,0.0,0.0,0.0
13.94,260.351016,-0.650748,0.7589520000000001,0.0,0.0,0.0,0.0,0.0
13.96,260.3043816,-0.8674608,2.3856696,1.2268200000000002,0.0,0.0,0.0,0.0
13.98,260.136132,1.5182088,2.4941784,5.060594400000001,0.0,0.0,0.0,0.0
14.0,260.0715144,-2.1686520000000002,-3.2531304000000003,17.405604,0.0,0.0,0.0,0.0
14.02,260.180328,-9.2714064,-8.94588,17.3287944,0.0,0.0,0.0,0.0
14.040000000000001,260.30682,-4.8252888,-12.0908064,16.178784,0.0,0.0,0.0,0.0
14.06,260.3046864,-9.9218496,-2.548128,17.482108800000002,0.0,0.0,0.0,0.0
14.08,260.2348872,-5.9097672,4.5000672,15.642031200000002,0.0,0.0,0.0,0.0
14.1,260.2129416,-2.6566368,10.5725976,14.108277600000001,0.0,0.0,0.0,0.0
14.120000000000001,260.1495432,5.1508152,13.608710400000001,10.5814368,0.0,0.0,0.0,0.0
14.14,260.1111384,3.198876,6.2349888,5.2139088000000005,0.0,0.0,0.0,0.0
14.16,260.0072016,3.2531304000000003,3.6868608000000003,3.9870888,0.0,0.0,0.0,0.0
14.18,259.9096656,0.8132064000000001,1.030224,1.3036296,0.0,0.0,0.0,0.0
14.200000000000001,259.6963056,-0.8674608,-0.650748,1.0735056,0.0,0.0,0.0,0.0
14.22,259.5765192,-2.2771608000000003,-1.8434304000000001,1.2268200000000002,0.0,0.0,0.0,0.0
14.24,259.4756304,0.7589520000000001,-2.3856696,0.0,0.0,0.0,0.0,0.0
14.26,259.33085040000003,1.5724632,-1.030224,0.996696,0.0,0.0,0.0,0.0
14.28,259.2573936,1.9519392,-3.4698432,0.996696,0.0,0.0,0.0,0.0
14.3,259.3180488,4.3376088,-9.5423736,3.450336,0.0,0.0,0.0,0.0
14.32,259.2851304,13.229234400000001,-73.953624,1.3801344,0.0,0.0,0.0,0.0
14.34,259.243068,20.982432000000003,-6.2349888,5.4440328000000004,0.0,0.0,0.0,0.0
14.36,259.0123344,17.024604,8.4582,10.5046272,0.0,0.0,0.0,0.0
14.38,258.85658159999997,-10.952073600000002,42.0733728,-1.4569440000000002,0.0,0.0,0.0,0.0
14.4,258.7474632,-20.982432000000003,22.392132000000004,28.370174400000003,0.0,0.0,0.0,0.0
14.42,258.24942,-23.5308648,-29.061156,19.935748800000002,0.0,0.0,0.0,0.0
14.44,257.8964616,-22.771608,-23.747577600000003,13.725144,0.0,0.0,0.0,0.0
14.46,257.8659816,-4.7170848,-20.1149712,1.7635728,0.0,0.0,0.0,0.0
14.48,257.7638736,8.8919304,4.012082400000001,4.8304704,0.0,0.0,0.0,0.0
14.5,257.64652559999996,6.343497600000001,2.1143976,2.4536400000000005,0.0,0.0,0.0,0.0
14.52,257.4407856,2.8736544000000004,1.6806672000000002,0.15331440000000002,0.0,0.0,0.0,0.0
14.540000000000001,257.2957008,-5.421782400000001,-9.4338648,-2.6069544000000002,0.0,0.0,0.0,0.0
14.56,257.0125416,6.8314824000000005,3.0361128,2.7602688,0.0,0.0,0.0,0.0
14.58,256.9076904,10.789310400000002,8.0784192,0.30662880000000003,0.0,0.0,0.0,0.0
14.6,256.8278328,7.2652128,11.277295200000001,0.6900672,0.0,0.0,0.0,0.0
14.620000000000001,256.6784808,3.5240976,8.729167200000001,-2.3003256,0.0,0.0,0.0,0.0
14.64,256.477008,5.8555128,7.156704,0.0768096,0.0,0.0,0.0,0.0
14.66,256.3587456,6.8314824000000005,13.012521600000001,0.8433816000000001,0.0,0.0,0.0,0.0
14.68,256.3118064,-4.554321600000001,-5.3132736,9.047683200000002,0.0,0.0,0.0,0.0
14.700000000000001,256.0941792,-8.5121496,-20.440192800000002,15.2585928,0.0,0.0,0.0,0.0
14.72,255.8783808,2.3314152,-5.5845456,8.4344256,0.0,0.0,0.0,0.0
14.74,255.669288,-1.3554456000000001,-6.668719200000001,1.2268200000000002,0.0,0.0,0.0,0.0
14.76,255.4867128,2.1143976,-9.813645600000001,4.4473368,0.0,0.0,0.0,0.0
14.78,255.2901168,5.259324,-3.198876,2.9135831999999997,0.0,0.0,0.0,0.0
14.8,255.0746232,4.0663368,3.957828,0.9201912000000001,0.0,0.0,0.0,0.0
14.82,254.9569704,13.012521600000001,6.1807343999999995,3.910584,0.0,0.0,0.0,0.0
14.84,254.6369304,15.6691584,15.343632000000001,7.591044000000001,0.0,0.0,0.0,0.0
14.86,254.38211760000002,22.609149600000002,-5.6930544,15.642031200000002,0.0,0.0,0.0,0.0
14.88,254.14163040000003,9.0543888,11.1148368,13.8016488,0.0,0.0,0.0,0.0
14.9,254.02001520000002,1.6806672000000002,6.5605152,16.3320984,0.0,0.0,0.0,0.0
14.92,253.889256,-5.205069600000001,-2.7108912000000003,18.8622432,0.0,0.0,0.0,0.0
14.94,253.7624592,-3.8496240000000004,-8.186928,10.888065600000001,0.0,0.0,0.0,0.0
14.96,253.557024,-18.8680344,-4.554321600000001,28.753612800000003,0.0,0.0,0.0,0.0
14.98,253.3393968,3.6326064,-5.801258400000001,8.8943688,0.0,0.0,0.0,0.0
15.0,253.0592856,3.8496240000000004,-0.5964936000000001,6.5175384,0.0,0.0,0.0,0.0
15.02,253.0592856,4.2291,0.5422392,7.8976728000000005,0.0,0.0,0.0,0.0
15.040000000000001,252.9452904,2.6566368,0.7046976,5.750661600000001,0.0,0.0,0.0,0.0
15.06,252.8069112,20.8739232,-29.3321232,10.888065600000001,0.0,0.0,0.0,0.0
15.08,252.69840240000002,0.650748,6.614769600000001,11.8847616,0.0,0.0,0.0,0.0
15.1,252.651768,0.9217152000000001,6.777228,11.04138,0.0,0.0,0.0,0.0
15.120000000000001,252.4506,2.6023824,6.0725304,12.804952800000002,0.0,0.0,0.0,0.0
15.14,252.40213680000002,5.259324,3.957828,13.264896000000002,0.0,0.0,0.0,0.0
15.16,252.18054719999998,6.8314824000000005,0.7589520000000001,10.5814368,0.0,0.0,0.0,0.0
15.18,252.029976,2.8736544000000004,-2.6566368,10.274503200000002,0.0,0.0,0.0,0.0
15.200000000000001,251.80290000000002,5.259324,0.0542544,7.8976728000000005,0.0,0.0,0.0,0.0
15.22,251.746512,3.0361128,1.5182088,6.747662400000001,0.0,0.0,0.0,0.0
15.24,251.5252272,1.5182088,1.6264128000000002,5.6741568000000004,0.0,0.0,0.0,0.0
15.26,251.438664,1.3554456000000001,1.5724632,3.7572696000000003,0.0,0.0,0.0,0.0
15.28,251.3813616,1.4639544,1.4639544,3.2205168000000004,0.0,0.0,0.0,0.0
15.3,251.3627688,2.7108912000000003,2.4941784,5.597347200000001,0.0,0.0,0.0,0.0
15.32,251.27681520000002,4.3376088,1.8434304000000001,5.6741568000000004,0.0,0.0,0.0,0.0
15.34,251.1725736,5.3132736,1.6264128000000002,6.364224,0.0,0.0,0.0,0.0
15.36,251.0863152,6.777228,3.0903671999999998,7.2076056,0.0,0.0,0.0,0.0
