time,baro_altitude,accl_x,accl_y,accl_z,gps_altitude,gyro_roll,gyro_pitch,gyro_yaw
0.0,0.0,-9.9218496,-0.5964936000000001,-1.3036296,0.0,0.0,0.0,0.0
0.019999999999999574,0.059131199999999995,-9.976104,-0.5422392,-1.3036296,0.0,0.0,0.0,0.0
0.03999999999999915,-0.033528000000000016,-9.9218496,-0.5964936000000001,-1.3036296,0.0,0.0,0.0,0.0
0.05999999999999961,0.0950976,-10.0303584,-0.5964936000000001,-1.3036296,0.0,0.0,0.0,0.0
0.07999999999999918,0.1344168,-10.0303584,-0.5964936000000001,-1.2268200000000002,0.0,0.0,0.0,0.0
0.09999999999999964,-0.011887200000000011,-9.976104,-0.5422392,-1.3801344,0.0,0.0,0.0,0.0
0.11999999999999922,-0.012496800000000011,-10.0303584,-0.7046976,-1.3801344,0.0,0.0,0.0,0.0
0.13999999999999968,-0.17373600000000003,-10.0303584,-0.5964936000000001,-1.3036296,0.0,0.0,0.0,0.0
0.15999999999999925,-0.2023872,-10.0303584,-0.5964936000000001,-1.3036296,0.0,0.0,0.0,0.0
0.17999999999999972,-0.16672559999999997,-10.0303584,-0.5964936000000001,-1.3036296,0.0,0.0,0.0,0.0
0.1999999999999993,-0.17007840000000002,-9.976104,-0.650748,-1.3036296,0.0,0.0,0.0,0.0
0.21999999999999975,-0.0911352,-9.976104,-0.650748,-1.2268200000000002,0.0,0.0,0.0,0.0
0.23999999999999932,-0.07863840000000002,-10.0303584,-0.5964936000000001,-1.3036296,0.0,0.0,0.0,0.0
0.2599999999999998,-0.0374904,-9.976104,-0.650748,-1.3036296,0.0,0.0,0.0,0.0
0.27999999999999936,-0.05242560000000002,-9.976104,-0.5422392,-1.3801344,0.0,0.0,0.0,0.0
0.2999999999999998,0.150876,-9.976104,-0.650748,-1.3801344,0.0,0.0,0.0,0.0
0.3199999999999994,0.1709928,-9.976104,-0.650748,-1.3036296,0.0,0.0,0.0,0.0
0.33999999999999986,0.0463296,-9.9218496,-0.5964936000000001,-1.3801344,0.0,0.0,0.0,0.0
0.35999999999999943,0.1362456,-10.138867200000002,-0.5964936000000001,-1.3801344,0.0,0.0,0.0,0.0
0.3799999999999999,0.16794479999999998,-9.976104,-0.650748,-1.3801344,0.0,0.0,0.0,0.0
0.39999999999999947,0.2127504,-9.976104,-0.650748,-1.3801344,0.0,0.0,0.0,0.0
0.41999999999999993,0.3432048,-10.0303584,-0.5964936000000001,-1.3036296,0.0,0.0,0.0,0.0
0.4399999999999995,0.3182112,-9.9218496,-0.5964936000000001,-1.3036296,0.0,0.0,0.0,0.0
0.45999999999999996,0.179832,-9.9218496,-0.5964936000000001,-1.3036296,0.0,0.0,0.0,0.0
0.47999999999999954,0.2938272,-10.0303584,-0.5964936000000001,-1.3036296,0.0,0.0,0.0,0.0
0.5,0.2023872,-10.0303584,-0.5964936000000001,-1.3036296,0.0,0.0,0.0,0.0
0.5199999999999996,0.0710184,-9.9218496,-0.5964936000000001,-1.3801344,0.0,0.0,0.0,0.0
0.5399999999999996,-0.04297680000000001,-9.9218496,-0.5964936000000001,-1.3036296,0.0,0.0,0.0,0.0
0.5599999999999996,-0.09845040000000001,-10.0303584,-0.5964936000000001,-1.2268200000000002,0.0,0.0,0.0,0.0
0.5799999999999996,0.028346399999999994,-9.976104,-0.650748,-1.3036296,0.0,0.0,0.0,0.0
0.5999999999999996,-0.003352800000000003,-9.976104,-0.5422392,-1.3036296,0.0,0.0,0.0,0.0
0.6199999999999997,-0.057607200000000004,-10.0303584,-0.5964936000000001,-1.2268200000000002,0.0,0.0,0.0,0.0
0.6399999999999997,-0.02895600000000001,-10.0303584,-0.7046976,-1.3801344,0.0,0.0,0.0,0.0
0.6599999999999997,-0.0368808,-10.0846128,-0.650748,-1.3801344,0.0,0.0,0.0,0.0
0.6799999999999997,-0.019812000000000003,-10.0303584,-0.5964936000000001,-1.3036296,0.0,0.0,0.0,0.0
0.6999999999999997,0.024383999999999996,-10.0846128,-0.5422392,-1.3036296,0.0,0.0,0.0,0.0
0.7199999999999998,-0.012801600000000012,-10.0303584,-0.4879848,-1.3036296,0.0,0.0,0.0,0.0
0.7399999999999998,0.1764792,-9.976104,-0.650748,-1.3036296,0.0,0.0,0.0,0.0
0.7599999999999998,-0.1374648,-10.0303584,-0.7046976,-1.3801344,0.0,0.0,0.0,0.0
0.7799999999999994,0.05852160000000001,-9.976104,-0.650748,-1.2268200000000002,0.0,0.0,0.0,0.0
0.7999999999999994,-0.056388,-10.0303584,-0.4879848,-1.2268200000000002,0.0,0.0,0.0,0.0
0.8199999999999994,-0.1524,-10.0846128,-0.650748,-1.3036296,0.0,0.0,0.0,0.0
0.8399999999999994,0.0560832,-10.0303584,-0.5964936000000001,-1.2268200000000002,0.0,0.0,0.0,0.0
0.8599999999999994,-0.005486400000000005,-10.0303584,-0.7046976,-1.3036296,0.0,0.0,0.0,0.0
0.8799999999999994,0.0932688,-9.976104,-0.650748,-1.2268200000000002,0.0,0.0,0.0,0.0
0.8999999999999995,0.020421599999999995,-10.0846128,-0.4337304,-1.2268200000000002,0.0,0.0,0.0,0.0
0.9199999999999995,0.16123920000000003,-10.0303584,-0.5964936000000001,-1.3036296,0.0,0.0,0.0,0.0
0.9399999999999995,0.138684,-9.976104,-0.650748,-1.3036296,0.0,0.0,0.0,0.0
0.9599999999999995,0.059435999999999996,-10.0303584,-0.7046976,-1.3036296,0.0,0.0,0.0,0.0
0.9799999999999995,0.005181599999999988,-9.976104,-0.5422392,-1.3036296,0.0,0.0,0.0,0.0
0.9999999999999996,-0.0381,-10.0303584,-0.4879848,-1.3801344,0.0,0.0,0.0,0.0
1.0199999999999996,-0.14752320000000002,-9.976104,-0.650748,-1.3036296,0.0,0.0,0.0,0.0
1.0399999999999996,-0.065532,-9.976104,-0.7589520000000001,-1.2268200000000002,0.0,0.0,0.0,0.0
1.0599999999999996,-0.07772400000000002,-9.9218496,-0.7046976,-1.3036296,0.0,0.0,0.0,0.0
1.0799999999999996,-0.013716000000000013,-9.976104,-0.5422392,-1.3801344,0.0,0.0,0.0,0.0
1.0999999999999996,0.06979919999999999,-10.0303584,-0.37947600000000004,-1.3036296,0.0,0.0,0.0,0.0
1.1199999999999997,0.1091184,-9.976104,-0.650748,-1.2268200000000002,0.0,0.0,0.0,0.0
1.1399999999999997,0.23408640000000003,-9.976104,-0.8674608,-1.3036296,0.0,0.0,0.0,0.0
1.1599999999999997,0.22494240000000001,-9.976104,-0.650748,-1.3036296,0.0,0.0,0.0,0.0
1.1799999999999997,0.0652272,-9.867595200000002,-0.3252216,-1.4569440000000002,0.0,0.0,0.0,0.0
1.1999999999999997,-0.0893064,-10.0303584,-0.4879848,-1.3801344,0.0,0.0,0.0,0.0
1.2199999999999998,0.092964,-9.9218496,-0.7046976,-1.3036296,0.0,0.0,0.0,0.0
1.2399999999999998,0.0277368,-9.976104,-0.8674608,-1.3036296,0.0,0.0,0.0,0.0
1.2599999999999998,0.028041599999999993,-10.0303584,-0.4879848,-1.4569440000000002,0.0,0.0,0.0,0.0
1.2799999999999994,-0.06736080000000001,-9.976104,-0.3252216,-1.3801344,0.0,0.0,0.0,0.0
1.2999999999999994,-0.049072800000000014,-9.976104,-0.5422392,-1.2268200000000002,0.0,0.0,0.0,0.0
1.3199999999999994,0.1011936,-10.0303584,-0.9217152000000001,-1.1500104,0.0,0.0,0.0,0.0
1.3399999999999994,-0.005486400000000005,-10.0303584,-0.8132064000000001,-1.3036296,0.0,0.0,0.0,0.0
1.3599999999999994,0.14782800000000001,-10.0303584,-0.4879848,-1.3801344,0.0,0.0,0.0,0.0
1.3799999999999994,0.0463296,-10.0846128,-0.3252216,-1.3036296,0.0,0.0,0.0,0.0
1.3999999999999995,0.1289304,-10.0846128,-0.650748,-1.1500104,0.0,0.0,0.0,0.0
1.4199999999999995,0.19872959999999998,-9.976104,-0.9759696,-1.1500104,0.0,0.0,0.0,0.0
1.4399999999999995,0.13959839999999998,-10.0846128,-0.650748,-1.3801344,0.0,0.0,0.0,0.0
1.4599999999999995,0.14234159999999998,-9.976104,-0.3252216,-1.4569440000000002,0.0,0.0,0.0,0.0
1.4799999999999995,0.17038319999999998,-10.0303584,-0.4879848,-1.3036296,0.0,0.0,0.0,0.0
1.4999999999999996,0.0987552,-10.138867200000002,-0.8132064000000001,-1.1500104,0.0,0.0,0.0,0.0
1.5199999999999996,0.18288000000000001,-9.9218496,-0.9217152000000001,-1.3036296,0.0,0.0,0.0,0.0
1.5399999999999996,0.0920496,-10.0303584,-0.4879848,-1.3801344,0.0,0.0,0.0,0.0
1.5599999999999996,0.0435864,-9.867595200000002,-0.2170176,-1.3036296,0.0,0.0,0.0,0.0
1.5799999999999996,0.24566880000000002,-10.0846128,-0.4337304,-1.2268200000000002,0.0,0.0,0.0,0.0
1.5999999999999996,0.16459200000000002,-10.0846128,-0.8674608,-1.2268200000000002,0.0,0.0,0.0,0.0
1.6199999999999997,0.1840992,-9.976104,-0.7589520000000001,-1.3801344,0.0,0.0,0.0,0.0
1.6399999999999997,0.19659600000000002,-9.976104,-0.4337304,-1.4569440000000002,0.0,0.0,0.0,0.0
1.6599999999999997,0.3745992,-10.0303584,-0.37947600000000004,-1.3036296,0.0,0.0,0.0,0.0
1.6799999999999997,0.371856,-9.976104,-0.5422392,-1.2268200000000002,0.0,0.0,0.0,0.0
1.6999999999999997,0.2688336,-9.976104,-0.8674608,-1.1500104,0.0,0.0,0.0,0.0
1.7199999999999998,0.20391120000000001,-10.0846128,-0.8674608,-1.3036296,0.0,0.0,0.0,0.0
1.7399999999999998,0.0954024,-10.0846128,-0.4337304,-1.4569440000000002,0.0,0.0,0.0,0.0
1.7599999999999998,0.031089599999999995,-10.0846128,-0.2170176,-1.3801344,0.0,0.0,0.0,0.0
1.7799999999999994,0.0966216,-10.0846128,-0.650748,-1.2268200000000002,0.0,0.0,0.0,0.0
1.7999999999999994,0.0057911999999999885,-9.9218496,-0.9217152000000001,-1.3036296,0.0,0.0,0.0,0.0
1.8199999999999994,0.0652272,-10.0303584,-0.7046976,-1.3801344,0.0,0.0,0.0,0.0
1.8399999999999994,0.1133856,-9.976104,-0.2170176,-1.3801344,0.0,0.0,0.0,0.0
1.8599999999999994,-0.030175200000000013,-9.976104,-0.4337304,-1.3801344,0.0,0.0,0.0,0.0
1.8799999999999994,-0.11460480000000002,-10.0303584,-0.9217152000000001,-1.0735056,0.0,0.0,0.0,0.0
1.8999999999999995,-0.04450080000000001,-9.976104,-0.8674608,-1.2268200000000002,0.0,0.0,0.0,0.0
1.9199999999999995,-0.0978408,-10.0303584,-0.37947600000000004,-1.5334488,0.0,0.0,0.0,0.0
1.9399999999999995,-0.0399288,-9.976104,-0.2170176,-1.5334488,0.0,0.0,0.0,0.0
1.9599999999999995,0.03962399999999999,-10.0303584,-0.5964936000000001,-1.1500104,0.0,0.0,0.0,0.0
1.9799999999999995,0.0064007999999999895,-9.976104,-0.9759696,-1.1500104,0.0,0.0,0.0,0.0
1.9999999999999996,-0.16245839999999998,-10.0303584,-0.7046976,-1.3801344,0.0,0.0,0.0,0.0
2.0199999999999996,-0.1213104,-10.0303584,-0.2709672,-1.4569440000000002,0.0,0.0,0.0,0.0
2.0399999999999996,-0.07071360000000002,-9.976104,-0.4337304,-1.2268200000000002,0.0,0.0,0.0,0.0
2.0599999999999996,0.07528560000000001,-9.976104,-0.8674608,-1.0735056,0.0,0.0,0.0,0.0
2.0799999999999996,0.16459200000000002,-9.976104,-0.7589520000000001,-1.2268200000000002,0.0,0.0,0.0,0.0
2.0999999999999996,0.018592799999999993,-10.0303584,-0.4879848,-1.4569440000000002,0.0,0.0,0.0,0.0
2.1199999999999997,-0.06309360000000001,-9.976104,-0.5422392,-1.3801344,0.0,0.0,0.0,0.0
2.1399999999999997,-0.0536448,-9.9218496,-0.5964936000000001,-1.3036296,0.0,0.0,0.0,0.0
2.1599999999999997,0.07863840000000001,-9.976104,-0.650748,-1.3036296,0.0,0.0,0.0,0.0
2.1799999999999997,0.05852160000000001,-9.976104,-0.650748,-1.3801344,0.0,0.0,0.0,0.0
2.1999999999999997,0.0164592,-9.976104,-0.650748,-1.3801344,0.0,0.0,0.0,0.0
2.2199999999999998,0.010363199999999993,-9.976104,-0.5422392,-1.3036296,0.0,0.0,0.0,0.0
2.2399999999999998,0.0606552,-9.976104,-0.4337304,-1.3036296,0.0,0.0,0.0,0.0
2.26,0.1789176,-9.9218496,-0.4879848,-1.3801344,0.0,0.0,0.0,0.0
2.2799999999999994,0.16581120000000002,-10.0303584,-0.8132064000000001,-1.3036296,0.0,0.0,0.0,0.0
2.2999999999999994,0.071628,-9.976104,-0.5422392,-1.3036296,0.0,0.0,0.0,0.0
2.3199999999999994,0.1106424,-10.0303584,-0.2709672,-1.3036296,0.0,0.0,0.0,0.0
2.3399999999999994,0.16398240000000003,-10.0303584,-0.37947600000000004,-1.3036296,0.0,0.0,0.0,0.0
2.3599999999999994,0.19781520000000002,-9.976104,-0.8674608,-1.1500104,0.0,0.0,0.0,0.0
2.3799999999999994,0.22738080000000002,-10.0303584,-0.8132064000000001,-1.3036296,0.0,0.0,0.0,0.0
2.3999999999999995,0.1374648,-10.0846128,-0.4337304,-1.3036296,0.0,0.0,0.0,0.0
2.4199999999999995,0.16398240000000003,-9.9218496,-0.37947600000000004,-1.3036296,0.0,0.0,0.0,0.0
2.4399999999999995,0.187452,-10.0303584,-0.7046976,-1.3036296,0.0,0.0,0.0,0.0
2.4599999999999995,0.31211520000000004,-9.976104,-0.7589520000000001,-1.3036296,0.0,0.0,0.0,0.0
2.4799999999999995,0.39319200000000004,-10.0303584,-0.7046976,-1.3801344,0.0,0.0,0.0,0.0
2.4999999999999996,0.23469600000000002,-10.0303584,-0.4879848,-1.3801344,0.0,0.0,0.0,0.0
2.5199999999999996,0.1258824,-10.0303584,-0.4879848,-1.4569440000000002,0.0,0.0,0.0,0.0
2.5399999999999996,-0.008229600000000007,-9.976104,-0.650748,-1.3036296,0.0,0.0,0.0,0.0
2.5599999999999996,0.11643360000000001,-10.0303584,-0.7046976,-1.3036296,0.0,0.0,0.0,0.0
2.5799999999999996,0.0935736,-10.0303584,-0.7046976,-1.2268200000000002,0.0,0.0,0.0,0.0
2.5999999999999996,0.13289279999999998,-9.976104,-0.650748,-1.3801344,0.0,0.0,0.0,0.0
2.6199999999999997,0.0938784,-10.0303584,-0.37947600000000004,-1.4569440000000002,0.0,0.0,0.0,0.0
2.6399999999999997,0.1063752,-10.0846128,-0.5422392,-1.3801344,0.0,0.0,0.0,0.0
2.6599999999999993,0.1359408,-9.9218496,-0.7046976,-1.1500104,0.0,0.0,0.0,0.0
2.6799999999999997,0.140208,-10.0303584,-0.7046976,-1.2268200000000002,0.0,0.0,0.0,0.0
2.6999999999999993,-0.11308080000000002,-9.976104,-0.4337304,-1.3801344,0.0,0.0,0.0,0.0
2.7199999999999998,0.0036576000000000035,-10.0303584,-0.37947600000000004,-1.3801344,0.0,0.0,0.0,0.0
2.7399999999999993,-0.02743200000000001,-10.0846128,-0.650748,-1.2268200000000002,0.0,0.0,0.0,0.0
2.76,-0.0347472,-10.0303584,-0.7046976,-1.1500104,0.0,0.0,0.0,0.0
2.7799999999999994,0.021031199999999993,-10.0303584,-0.5964936000000001,-1.2268200000000002,0.0,0.0,0.0,0.0
2.8,0.003352800000000003,-10.0303584,-0.4879848,-1.3036296,0.0,0.0,0.0,0.0
2.8199999999999994,0.131064,-9.976104,-0.4337304,-1.2268200000000002,0.0,0.0,0.0,0.0
2.84,0.28986480000000003,-9.976104,-0.7589520000000001,-1.1500104,0.0,0.0,0.0,0.0
2.8599999999999994,0.3081528,-10.0303584,-0.8132064000000001,-1.3036296,0.0,0.0,0.0,0.0
2.88,0.2517648,-10.0303584,-0.5964936000000001,-1.3801344,0.0,0.0,0.0,0.0
2.8999999999999995,0.27035760000000003,-10.0303584,-0.37947600000000004,-1.4569440000000002,0.0,0.0,0.0,0.0
2.9199999999999995,0.26730960000000004,-9.976104,-0.650748,-1.3036296,0.0,0.0,0.0,0.0
2.9399999999999995,0.36301680000000003,-10.0303584,-0.8132064000000001,-1.3036296,0.0,0.0,0.0,0.0
2.9599999999999995,0.3517392,-9.976104,-0.7589520000000001,-1.3036296,0.0,0.0,0.0,0.0
2.9799999999999995,0.3041904,-10.0303584,-0.4879848,-1.3801344,0.0,0.0,0.0,0.0
2.9999999999999996,0.25054560000000003,-10.0303584,-0.4879848,-1.4569440000000002,0.0,0.0,0.0,0.0
3.0199999999999996,0.46329600000000004,-10.0303584,-0.5964936000000001,-1.2268200000000002,0.0,0.0,0.0,0.0
3.0399999999999996,0.5297424000000001,-9.976104,-0.650748,-1.3036296,0.0,0.0,0.0,0.0
3.0599999999999996,0.47762160000000004,-10.0303584,-0.5964936000000001,-1.3801344,0.0,0.0,0.0,0.0
3.0799999999999996,0.44683680000000003,-9.9218496,-0.2709672,-1.3801344,0.0,0.0,0.0,0.0
3.0999999999999996,0.4078224,-9.976104,-0.5422392,-1.1500104,0.0,0.0,0.0,0.0
3.1199999999999997,0.254508,-10.0303584,-0.7046976,-1.1500104,0.0,0.0,0.0,0.0
3.1399999999999997,0.202692,-9.976104,-0.650748,-1.2268200000000002,0.0,0.0,0.0,0.0
3.1599999999999993,0.2200656,-10.0303584,-0.4879848,-1.3801344,0.0,0.0,0.0,0.0
3.1799999999999997,0.17251680000000003,-9.976104,-0.4337304,-1.3801344,0.0,0.0,0.0,0.0
3.1999999999999993,-0.0012192000000000012,-9.9218496,-0.5964936000000001,-1.2268200000000002,0.0,0.0,0.0,0.0
3.2199999999999998,0.08869679999999999,-9.976104,-0.650748,-1.2268200000000002,0.0,0.0,0.0,0.0
3.2399999999999993,0.1880616,-10.0303584,-0.7046976,-1.3036296,0.0,0.0,0.0,0.0
3.26,0.2142744,-9.9218496,-0.4879848,-1.3036296,0.0,0.0,0.0,0.0
3.2799999999999994,0.1514856,-10.0846128,-0.5422392,-1.3036296,0.0,0.0,0.0,0.0
3.3,0.1420368,-9.976104,-0.7589520000000001,-1.2268200000000002,0.0,0.0,0.0,0.0
3.3199999999999994,0.0917448,-9.976104,-0.650748,-1.3801344,0.0,0.0,0.0,0.0
3.34,0.022859999999999995,-9.976104,-0.5422392,-1.4569440000000002,0.0,0.0,0.0,0.0
3.3599999999999994,-0.07711440000000003,-9.976104,-0.4337304,-1.2268200000000002,0.0,0.0,0.0,0.0
3.38,0.0451104,-9.976104,-0.650748,-1.3036296,0.0,0.0,0.0,0.0
3.3999999999999995,-0.08138160000000003,-10.0846128,-0.7589520000000001,-1.3036296,0.0,0.0,0.0,0.0
3.4199999999999995,-0.0012192000000000012,-9.976104,-0.650748,-1.4569440000000002,0.0,0.0,0.0,0.0
3.4399999999999995,-0.0591312,-9.976104,-0.5422392,-1.3801344,0.0,0.0,0.0,0.0
3.4599999999999995,0.070104,-10.0303584,-0.4879848,-1.3801344,0.0,0.0,0.0,0.0
3.4799999999999995,0.030479999999999993,-9.976104,-0.650748,-1.2268200000000002,0.0,0.0,0.0,0.0
3.4999999999999996,0.2478024,-10.0303584,-0.8132064000000001,-1.3801344,0.0,0.0,0.0,0.0
3.5199999999999996,0.2816352,-9.976104,-0.5422392,-1.3801344,0.0,0.0,0.0,0.0
3.5399999999999996,0.26029920000000006,-10.0303584,-0.4879848,-1.4569440000000002,0.0,0.0,0.0,0.0
3.5599999999999996,0.1289304,-10.0303584,-0.5964936000000001,-1.2268200000000002,0.0,0.0,0.0,0.0
3.5799999999999996,0.2139696,-10.0303584,-0.8132064000000001,-1.3036296,0.0,0.0,0.0,0.0
3.5999999999999996,0.2770632,-9.976104,-0.650748,-1.3801344,0.0,0.0,0.0,0.0
3.6199999999999997,0.17739359999999998,-10.0846128,-0.3252216,-1.4569440000000002,0.0,0.0,0.0,0.0
3.6399999999999997,0.0240792,-10.0303584,-0.37947600000000004,-1.3036296,0.0,0.0,0.0,0.0
3.6599999999999997,-0.1825752,-10.0303584,-0.8132064000000001,-1.2268200000000002,0.0,0.0,0.0,0.0
3.6799999999999997,0.0,-10.0303584,-0.8132064000000001,-1.3801344,0.0,0.0,0.0,0.0
3.6999999999999997,0.0765048,-9.976104,-0.4337304,-1.4569440000000002,0.0,0.0,0.0,0.0
3.7199999999999998,0.33192720000000003,-10.0303584,-0.16276320000000002,-1.3036296,0.0,0.0,0.0,0.0
3.7399999999999993,0.3553968,-9.976104,-0.650748,-1.1500104,0.0,0.0,0.0,0.0
3.76,0.40843199999999996,-9.976104,-0.7589520000000001,-1.2268200000000002,0.0,0.0,0.0,0.0
3.7799999999999994,0.28468319999999997,-10.0846128,-0.4337304,-1.3801344,0.0,0.0,0.0,0.0
3.8,0.35387280000000004,-10.0303584,-0.37947600000000004,-1.3801344,0.0,0.0,0.0,0.0
3.8199999999999994,0.32064960000000003,-10.0303584,-0.7046976,-1.0735056,0.0,0.0,0.0,0.0
3.8399999999999994,0.2688336,-10.0846128,-0.8674608,-1.2268200000000002,0.0,0.0,0.0,0.0
3.8599999999999994,0.2749296,-10.0846128,-0.650748,-1.4569440000000002,0.0,0.0,0.0,0.0
3.8799999999999994,0.2685288,-10.0303584,-0.4879848,-1.4569440000000002,0.0,0.0,0.0,0.0
3.8999999999999995,0.21183600000000002,-10.0303584,-0.5964936000000001,-1.2268200000000002,0.0,0.0,0.0,0.0
3.9199999999999995,0.2767584,-10.0303584,-0.8132064000000001,-1.0735056,0.0,0.0,0.0,0.0
3.9399999999999995,0.2660904,-9.9218496,-0.7046976,-1.3801344,0.0,0.0,0.0,0.0
3.9599999999999995,0.43251120000000004,-10.0303584,-0.4879848,-1.3801344,0.0,0.0,0.0,0.0
3.9799999999999995,0.332232,-9.976104,-0.5422392,-1.3036296,0.0,0.0,0.0,0.0
3.9999999999999996,0.30449519999999997,-9.976104,-0.7589520000000001,-1.2268200000000002,0.0,0.0,0.0,0.0
4.02,0.49103280000000005,-9.976104,-0.5422392,-1.2268200000000002,0.0,0.0,0.0,0.0
4.039999999999999,0.5858256000000001,-9.976104,-0.5422392,-1.3801344,0.0,0.0,0.0,0.0
4.06,0.4953,-9.976104,-0.5422392,-1.3036296,0.0,0.0,0.0,0.0
4.079999999999999,0.3392424,-10.0303584,-0.5964936000000001,-1.2268200000000002,0.0,0.0,0.0,0.0
4.1,0.0765048,-9.976104,-0.5422392,-1.2268200000000002,0.0,0.0,0.0,0.0
4.119999999999999,0.0064007999999999895,-10.0303584,-0.4879848,-1.3801344,0.0,0.0,0.0,0.0
4.14,-0.1380744,-10.0846128,-0.5422392,-1.3801344,0.0,0.0,0.0,0.0
4.159999999999999,-0.06736080000000001,-9.976104,-0.650748,-1.3036296,0.0,0.0,0.0,0.0
4.18,-0.051816000000000015,-10.0303584,-0.5964936000000001,-1.3036296,0.0,0.0,0.0,0.0
4.199999999999999,-0.1414272,-9.9218496,-0.5964936000000001,-1.3801344,0.0,0.0,0.0,0.0
4.22,-0.10393680000000001,-9.976104,-0.5422392,-1.3801344,0.0,0.0,0.0,0.0
4.239999999999999,-0.14630400000000002,-9.9218496,-0.8132064000000001,-1.3036296,0.0,0.0,0.0,0.0
4.26,-0.07863840000000002,-10.0303584,-0.7046976,-1.3036296,0.0,0.0,0.0,0.0
4.279999999999999,0.0268224,-10.0846128,-0.5422392,-1.3036296,0.0,0.0,0.0,0.0
4.3,-0.04632960000000001,-9.976104,-0.5422392,-1.3801344,0.0,0.0,0.0,0.0
4.319999999999999,0.026212799999999998,-9.976104,-0.7589520000000001,-1.2268200000000002,0.0,0.0,0.0,0.0
4.34,-0.008839200000000009,-10.0303584,-0.7046976,-1.2268200000000002,0.0,0.0,0.0,0.0
4.359999999999999,-0.019507200000000002,-9.976104,-0.4337304,-1.3036296,0.0,0.0,0.0,0.0
4.38,-0.086868,-9.976104,-0.5422392,-1.3801344,0.0,0.0,0.0,0.0
4.3999999999999995,-0.09479280000000001,-9.976104,-0.5422392,-1.2268200000000002,0.0,0.0,0.0,0.0
4.42,-0.18105120000000002,-9.976104,-0.7589520000000001,-1.2268200000000002,0.0,0.0,0.0,0.0
4.4399999999999995,-0.23042880000000002,-9.976104,-0.650748,-1.1500104,0.0,0.0,0.0,0.0
4.46,-0.16764,-9.9218496,-0.4879848,-1.4569440000000002,0.0,0.0,0.0,0.0
4.4799999999999995,-0.19872959999999998,-9.976104,-0.5422392,-1.3801344,0.0,0.0,0.0,0.0
4.5,-0.28681680000000004,-9.976104,-0.7589520000000001,-1.3036296,0.0,0.0,0.0,0.0
4.52,-0.1850136,-9.976104,-0.7589520000000001,-1.3801344,0.0,0.0,0.0,0.0
4.539999999999999,-0.07193280000000002,-9.976104,-0.650748,-1.3801344,0.0,0.0,0.0,0.0
4.56,-0.062484000000000005,-9.976104,-0.4337304,-1.4569440000000002,0.0,0.0,0.0,0.0
4.579999999999999,-0.01066800000000001,-10.0303584,-0.5964936000000001,-1.3801344,0.0,0.0,0.0,0.0
4.6,0.047853599999999996,-8.566404,-0.5422392,-0.8433816000000001,0.0,0.0,0.0,0.0
4.619999999999999,0.10058399999999999,-52.64597040000001,-3.957828,-2.223516,0.0,0.0,0.0,0.0
4.64,0.1594104,-57.037528800000004,-2.7108912000000003,2.6069544000000002,0.0,0.0,0.0,0.0
4.659999999999999,0.42153840000000004,-101.11709520000001,-1.5724632,-2.6069544000000002,0.0,0.0,0.0,0.0
4.68,0.5352288000000001,-98.46045840000001,-15.9401256,-4.7539656,0.0,0.0,0.0,0.0
4.699999999999999,0.6946392,-107.51484719999999,8.837676,8.741054400000001,0.0,0.0,0.0,0.0
4.72,0.8851392,-110.171484,-11.6028216,-5.367223200000001,0.0,0.0,0.0,0.0
4.739999999999999,1.1637264,-128.44302480000002,4.933797600000001,10.734751200000002,0.0,0.0,0.0,0.0
4.76,1.6254984000000001,-130.9372032,12.524536800000002,8.2811112,0.0,0.0,0.0,0.0
4.779999999999999,2.0580096,-126.9793752,0.0,8.4344256,0.0,0.0,0.0,0.0
4.8,1.9324320000000001,-146.2808352,-0.5422392,4.677156,0.0,0.0,0.0,0.0
4.819999999999999,2.10312,-147.90755280000002,0.0,5.4440328000000004,0.0,0.0,0.0,0.0
4.84,2.4539448000000004,-159.1305936,-0.9217152000000001,7.0542912,0.0,0.0,0.0,0.0
4.859999999999999,2.8370784000000002,-171.92609760000002,-0.7046976,7.591044000000001,0.0,0.0,0.0,0.0
4.88,3.340608,-163.4682024,-0.16276320000000002,6.5175384,0.0,0.0,0.0,0.0
4.8999999999999995,4.1013888000000005,-162.1127568,-0.2170176,8.58774,0.0,0.0,0.0,0.0
4.92,4.930140000000001,-165.2573784,2.2771608000000003,8.58774,0.0,0.0,0.0,0.0
4.9399999999999995,5.720181600000001,-166.6670784,2.7108912000000003,9.047683200000002,0.0,0.0,0.0,0.0
4.96,6.819290400000001,-168.56476320000002,1.8976848000000002,8.971178400000001,0.0,0.0,0.0,0.0
4.9799999999999995,7.775448000000001,-167.31752160000002,1.7349216,9.2778072,0.0,0.0,0.0,0.0
5.0,8.913876,-173.87803680000002,2.3314152,7.591044000000001,0.0,0.0,0.0,0.0
5.02,10.310774400000001,-172.5768456,-2.0061936,8.6645496,0.0,0.0,0.0,0.0
5.039999999999999,11.760708000000001,-172.08886080000002,0.1085088,7.591044000000001,0.0,0.0,0.0,0.0
5.06,13.340181600000001,-174.90826080000002,1.3011912,8.971178400000001,0.0,0.0,0.0,0.0
5.08,14.910816,-170.8961784,0.5422392,10.9645704,0.0,0.0,0.0,0.0
5.1,16.55064,-168.23923680000001,2.3314152,10.657941600000001,0.0,0.0,0.0,0.0
5.119999999999999,18.3523128,-171.2756544,-1.5724632,8.357616,0.0,0.0,0.0,0.0
5.14,20.4615288,-172.4683368,-1.1387328,6.4407288000000005,0.0,0.0,0.0,0.0
5.159999999999999,22.671633600000003,-176.9141496,5.6930544,11.04138,0.0,0.0,0.0,0.0
5.18,25.0822968,-180.65526480000003,0.9759696,9.814560000000002,0.0,0.0,0.0,0.0
5.199999999999999,27.3948144,-175.2877368,6.343497600000001,17.2522896,0.0,0.0,0.0,0.0
5.22,30.015180000000004,-174.04080000000002,4.6628304,14.0317728,0.0,0.0,0.0,0.0
5.239999999999999,33.0579984,-169.052748,2.4941784,13.111581600000001,0.0,0.0,0.0,0.0
5.26,36.091672800000005,-176.7516912,3.4698432,13.878458400000001,0.0,0.0,0.0,0.0
5.279999999999999,39.132052800000004,-175.2334824,-0.8674608,15.565221600000001,0.0,0.0,0.0,0.0
5.3,42.24406079999999,-167.8055064,0.0542544,17.405604,0.0,0.0,0.0,0.0
5.319999999999999,45.319188,-171.05863680000002,5.259324,9.891369599999999,0.0,0.0,0.0,0.0
5.34,48.503128800000006,-168.6190176,10.5183432,12.498324000000002,0.0,0.0,0.0,0.0
5.359999999999999,51.945539999999994,-180.11302560000001,10.843564800000001,14.2618968,0.0,0.0,0.0,0.0
5.38,55.3785024,-160.1065632,-6.2349888,3.7572696000000003,0.0,0.0,0.0,0.0
5.3999999999999995,58.77306,-104.045004,-15.018410400000002,10.811256,0.0,0.0,0.0,0.0
5.42,62.25204719999999,-61.537900799999996,10.138867200000002,8.1277968,0.0,0.0,0.0,0.0
5.4399999999999995,65.5146264,-30.796077600000004,8.241182400000001,13.341705600000001,0.0,0.0,0.0,0.0
5.459999999999999,68.4160176,-21.1451952,2.1686520000000002,-0.5367528,0.0,0.0,0.0,0.0
5.4799999999999995,71.205852,-5.205069600000001,9.7593912,3.5271456,0.0,0.0,0.0,0.0
5.5,73.7911656,17.3498256,2.0601432,6.364224,0.0,0.0,0.0,0.0
5.52,76.0960632,34.4829384,-4.120591200000001,4.523841600000001,0.0,0.0,0.0,0.0
5.539999999999999,78.26715360000001,42.7783752,-1.2469368,8.6645496,0.0,0.0,0.0,0.0
5.56,80.1748968,42.7241208,-4.2291,5.2907184,0.0,0.0,0.0,0.0
5.58,81.78210720000001,40.3384512,12.686995200000002,0.0,0.0,0.0,0.0,0.0
5.6,83.41278720000001,42.34434,9.379915200000001,0.23012400000000002,0.0,0.0,0.0,0.0
5.619999999999999,84.8956392,38.765988,10.4640888,2.8370784000000002,0.0,0.0,0.0,0.0
5.64,86.35806960000001,38.820242400000005,4.3376088,-3.7572696000000003,0.0,0.0,0.0,0.0
5.659999999999999,87.72570720000002,39.308227200000005,2.9818584,-4.7539656,0.0,0.0,0.0,0.0
5.68,88.9598424,37.356288,1.1387328,3.910584,0.0,0.0,0.0,0.0
5.699999999999999,90.1189968,35.1333816,0.5422392,5.2139088000000005,0.0,0.0,0.0,0.0
5.72,91.24767120000001,38.549275200000004,11.5485672,0.5367528,0.0,0.0,0.0,0.0
5.739999999999999,92.317824,34.428684000000004,6.5605152,-6.1341,0.0,0.0,0.0,0.0
5.76,93.416628,34.2659208,6.0725304,10.5814368,0.0,0.0,0.0,0.0
5.779999999999999,94.6404,32.530999200000004,10.3013256,5.060594400000001,0.0,0.0,0.0,0.0
5.8,95.7379848,35.4046536,1.5724632,5.060594400000001,0.0,0.0,0.0,0.0
5.819999999999999,96.8215488,31.6635384,-1.4097000000000002,1.1500104,0.0,0.0,0.0,0.0
5.84,98.00752560000001,32.693762400000004,5.0423064,5.137404,0.0,0.0,0.0,0.0
5.859999999999999,99.32273760000001,32.9104752,6.1267848,-1.3036296,0.0,0.0,0.0,0.0
5.88,100.635816,28.8441384,-5.5302912,4.523841600000001,0.0,0.0,0.0,0.0
5.8999999999999995,101.87970480000001,31.0670448,-2.8736544000000004,0.8433816000000001,0.0,0.0,0.0,0.0
5.92,103.1799816,28.735629600000003,8.1326736,-0.23012400000000002,0.0,0.0,0.0,0.0
5.9399999999999995,104.5015944,30.308092800000004,8.0784192,0.3834384,0.0,0.0,0.0,0.0
5.959999999999999,105.9405552,30.958536,-4.1748456,4.370527200000001,0.0,0.0,0.0,0.0
5.9799999999999995,107.26948320000001,26.837944800000002,6.2349888,2.7602688,0.0,0.0,0.0,0.0
6.0,108.78464400000001,27.705405600000002,-3.5240976,3.0672024,0.0,0.0,0.0,0.0
6.02,110.258352,28.247644800000003,-1.8976848000000002,-3.9870888,0.0,0.0,0.0,0.0
6.039999999999999,111.6540312,28.735629600000003,-0.8674608,4.0638984,0.0,0.0,0.0,0.0
6.06,113.1201192,27.5972016,9.0543888,10.3513128,0.0,0.0,0.0,0.0
6.08,114.6450336,27.054962400000004,0.5964936000000001,-1.7635728,0.0,0.0,0.0,0.0
6.1,115.98950640000001,25.211532000000002,2.6566368,0.7668768,0.0,0.0,0.0,0.0
6.119999999999999,117.37512720000001,23.9103408,5.5845456,2.3768304000000002,0.0,0.0,0.0,0.0
6.14,118.99818720000002,23.964595199999998,-1.0844784,2.8370784000000002,0.0,0.0,0.0,0.0
6.159999999999999,120.51365280000002,26.133247200000003,2.7108912000000003,-0.5367528,0.0,0.0,0.0,0.0
6.18,121.98004560000001,25.4824992,-0.5422392,-5.060594400000001,0.0,0.0,0.0,0.0
6.199999999999999,123.33213840000002,22.4463864,2.1686520000000002,0.9201912000000001,0.0,0.0,0.0,0.0
6.22,124.71654000000001,24.8863104,3.3073848000000003,0.15331440000000002,0.0,0.0,0.0,0.0
6.239999999999999,126.0869208,22.012656,1.6264128000000002,-0.6900672,0.0,0.0,0.0,0.0
6.26,127.2634488,22.392132000000004,5.0423064,-1.1500104,0.0,0.0,0.0,0.0
6.279999999999999,128.4603984,23.04288,3.7411152,2.3003256,0.0,0.0,0.0,0.0
6.3,129.8201112,21.199449600000005,3.3073848000000003,1.2268200000000002,0.0,0.0,0.0,0.0
6.319999999999999,131.1773856,21.741384,4.7170848,2.1470112,0.0,0.0,0.0,0.0
6.34,132.4352952,20.9281776,3.7953696000000003,2.0702016,0.0,0.0,0.0,0.0
6.359999999999999,133.7358768,21.1451952,-1.5182088,0.0,0.0,0.0,0.0,0.0
6.38,134.89838400000002,21.253704000000003,-1.0844784,-2.683764,0.0,0.0,0.0,0.0
6.3999999999999995,136.20018480000002,22.337877600000002,-2.2771608000000003,2.9135831999999997,0.0,0.0,0.0,0.0
6.42,137.4593136,20.277734400000003,-1.4097000000000002,-0.23012400000000002,0.0,0.0,0.0,0.0
6.4399999999999995,138.65565360000002,21.0366864,-0.8674608,2.0702016,0.0,0.0,0.0,0.0
6.459999999999999,139.89832320000002,19.3560192,2.3314152,1.7635728,0.0,0.0,0.0,0.0
6.4799999999999995,141.00169920000002,19.3560192,6.018276,-0.6135624,0.0,0.0,0.0,0.0
6.5,142.2922224,18.81378,-2.1143976,1.1500104,0.0,0.0,0.0,0.0
6.52,143.6043864,19.247510400000003,5.9097672,-1.6867632000000001,0.0,0.0,0.0,0.0
6.539999999999999,144.807432,17.837810400000002,1.4639544,-0.5367528,0.0,0.0,0.0,0.0
6.56,145.94250720000002,18.2715408,-0.0542544,-0.9201912000000001,0.0,0.0,0.0,0.0
6.58,146.97913200000002,19.0847472,0.4337304,2.0702016,0.0,0.0,0.0,0.0
6.6,148.14925920000002,18.163032,3.5240976,-1.1500104,0.0,0.0,0.0,0.0
6.619999999999999,149.3014032,18.5967624,4.2833544,1.6867632000000001,0.0,0.0,0.0,0.0
6.64,150.4105704,17.5668432,1.4097000000000002,-1.1500104,0.0,0.0,0.0,0.0
6.66,151.4578632,15.3978864,2.1686520000000002,1.1500104,0.0,0.0,0.0,0.0
6.68,152.58196560000002,16.8075864,2.4941784,-0.23012400000000002,0.0,0.0,0.0,0.0
6.699999999999999,153.7737336,16.970349600000002,1.030224,4.7539656,0.0,0.0,0.0,0.0
6.72,154.9005792,15.614904,3.3616392,3.450336,0.0,0.0,0.0,0.0
6.74,155.8628328,14.313712800000001,5.421782400000001,0.3834384,0.0,0.0,0.0,0.0
6.76,156.8384976,15.235428,-0.16276320000000002,-2.3768304000000002,0.0,0.0,0.0,0.0
6.779999999999999,157.83671760000001,14.8016976,-1.4639544,0.15331440000000002,0.0,0.0,0.0,0.0
6.799999999999999,158.7486792,15.018410400000002,0.8132064000000001,0.30662880000000003,0.0,0.0,0.0,0.0
6.819999999999999,159.7344024,15.2896824,5.096560800000001,1.6102584000000002,0.0,0.0,0.0,0.0
6.84,160.75152,14.1509496,4.608576,1.2268200000000002,0.0,0.0,0.0,0.0
6.859999999999999,161.7975936,13.988186400000002,0.9759696,0.4599432,0.0,0.0,0.0,0.0
6.879999999999999,162.8915208,13.012521600000001,2.3856696,-3.5271456,0.0,0.0,0.0,0.0
6.8999999999999995,163.9007136,14.0424408,-1.030224,0.996696,0.0,0.0,0.0,0.0
6.92,164.9537976,13.0664712,2.6566368,1.1500104,0.0,0.0,0.0,0.0
6.9399999999999995,165.97518240000002,13.229234400000001,0.7589520000000001,-0.23012400000000002,0.0,0.0,0.0,0.0
6.959999999999999,167.05112640000002,13.012521600000001,0.8674608,0.4599432,0.0,0.0,0.0,0.0
6.9799999999999995,168.0587952,12.958267200000002,4.7170848,2.6069544000000002,0.0,0.0,0.0,0.0
7.0,169.0868856,12.524536800000002,0.2709672,1.7635728,0.0,0.0,0.0,0.0
7.02,170.11345200000002,11.982297599999999,2.0061936,1.0735056,0.0,0.0,0.0,0.0
7.039999999999999,171.172632,12.0908064,0.9217152000000001,-1.9936968000000002,0.0,0.0,0.0,0.0
7.06,172.2388224,11.5485672,2.8736544000000004,0.3834384,0.0,0.0,0.0,0.0
7.08,173.3202528,11.928043200000001,2.4941784,0.15331440000000002,0.0,0.0,0.0,0.0
7.1,174.3071952,11.0605824,0.5422392,-1.0735056,0.0,0.0,0.0,0.0
7.119999999999999,175.356012,11.928043200000001,2.8194000000000004,-0.996696,0.0,0.0,0.0,0.0
7.14,176.30393999999998,10.5725976,0.5964936000000001,-0.4599432,0.0,0.0,0.0,0.0
7.16,177.3003312,11.006328,-0.2709672,0.6900672,0.0,0.0,0.0,0.0
7.18,178.27843439999998,10.5725976,-1.1387328,-3.1437072,0.0,0.0,0.0,0.0
7.199999999999999,179.41686239999999,10.5183432,2.0601432,-0.15331440000000002,0.0,0.0,0.0,0.0
7.22,180.4528776,11.1690912,-0.2170176,2.3003256,0.0,0.0,0.0,0.0
7.24,181.3825176,10.843564800000001,2.3856696,-1.4569440000000002,0.0,0.0,0.0,0.0
7.26,182.40664560000002,10.681106400000001,-1.3554456000000001,2.683764,0.0,0.0,0.0,0.0
7.279999999999999,183.361584,10.138867200000002,1.4639544,1.3801344,0.0,0.0,0.0,0.0
7.299999999999999,184.41162,10.5183432,1.4097000000000002,1.3036296,0.0,0.0,0.0,0.0
7.319999999999999,185.44397759999998,10.247376,0.2709672,-2.4536400000000005,0.0,0.0,0.0,0.0
7.34,186.43945440000002,9.813645600000001,1.1387328,-0.4599432,0.0,0.0,0.0,0.0
7.359999999999999,187.3950024,9.7593912,-1.1926824,3.0672024,0.0,0.0,0.0,0.0
7.379999999999999,188.3154984,8.7834216,2.2771608000000003,-2.683764,0.0,0.0,0.0,0.0
7.3999999999999995,189.3018312,9.2714064,-2.8736544000000004,0.3834384,0.0,0.0,0.0,0.0
7.42,190.1321064,8.6749128,-2.0601432,1.9936968000000002,0.0,0.0,0.0,0.0
7.4399999999999995,191.0748528,9.1628976,0.9217152000000001,1.5334488,0.0,0.0,0.0,0.0
7.459999999999999,191.8712952,9.379915200000001,2.2229064000000003,0.6135624,0.0,0.0,0.0,0.0
7.4799999999999995,192.76923599999998,8.94588,3.0903671999999998,1.6102584000000002,0.0,0.0,0.0,0.0
7.5,193.65772800000002,8.837676,2.0061936,1.3801344,0.0,0.0,0.0,0.0
7.52,194.49379439999998,9.2714064,0.16276320000000002,1.6867632000000001,0.0,0.0,0.0,0.0
7.539999999999999,195.2850552,8.566404,-1.4097000000000002,0.0,0.0,0.0,0.0,0.0
7.56,196.1564784,8.4582,0.4337304,0.0768096,0.0,0.0,0.0,0.0
7.58,197.01784320000002,8.3496912,0.4337304,0.30662880000000003,0.0,0.0,0.0,0.0
7.6,197.8941432,8.4582,1.3011912,-1.0735056,0.0,0.0,0.0,0.0
7.619999999999999,198.72655200000003,7.5904344,1.9519392,-1.6102584000000002,0.0,0.0,0.0,0.0
7.64,199.5089736,8.566404,0.4337304,0.5367528,0.0,0.0,0.0,0.0
7.66,200.27646,8.0784192,-0.2709672,0.23012400000000002,0.0,0.0,0.0,0.0
7.68,201.1103928,7.5364848,-0.16276320000000002,-2.0702016,0.0,0.0,0.0,0.0
7.699999999999999,202.0049808,7.807452,0.3252216,0.996696,0.0,0.0,0.0,0.0
7.72,202.8815856,7.807452,1.8434304000000001,-0.15331440000000002,0.0,0.0,0.0,0.0
7.74,203.70637440000002,7.5364848,2.1143976,0.30662880000000003,0.0,0.0,0.0,0.0
7.76,204.5034264,7.6446888,2.1143976,1.3036296,0.0,0.0,0.0,0.0
7.779999999999999,205.354428,7.5904344,1.3011912,-0.3834384,0.0,0.0,0.0,0.0
7.799999999999999,206.17220640000002,7.048500000000001,-0.2170176,0.7668768,0.0,0.0,0.0,0.0
7.819999999999999,207.0667944,6.9399912,0.9759696,-0.4599432,0.0,0.0,0.0,0.0
7.84,207.81599279999998,6.4520064,0.16276320000000002,0.7668768,0.0,0.0,0.0,0.0
7.859999999999999,208.52526239999997,6.506260800000001,0.3252216,0.6135624,0.0,0.0,0.0,0.0
7.879999999999999,209.2839096,6.0725304,0.2170176,-0.30662880000000003,0.0,0.0,0.0,0.0
7.8999999999999995,210.0014088,6.777228,1.6806672000000002,-1.5334488,0.0,0.0,0.0,0.0
7.92,210.68568480000002,6.5605152,-0.0542544,0.4599432,0.0,0.0,0.0,0.0
7.9399999999999995,211.3690464,6.8314824000000005,0.3252216,0.5367528,0.0,0.0,0.0,0.0
7.959999999999999,212.1459816,6.2892432000000005,0.9759696,-0.6135624,0.0,0.0,0.0,0.0
7.9799999999999995,212.8741488,6.2349888,0.37947600000000004,-0.4599432,0.0,0.0,0.0,0.0
8.0,213.605364,5.964021600000001,-0.4337304,-0.5367528,0.0,0.0,0.0,0.0
8.02,214.3923576,5.367528,0.37947600000000004,-1.9168872,0.0,0.0,0.0,0.0
8.04,215.10802800000002,5.7470040000000004,0.1085088,-0.5367528,0.0,0.0,0.0,0.0
8.059999999999999,215.784684,5.6930544,1.2469368,0.0768096,0.0,0.0,0.0,0.0
8.08,216.382092,5.7470040000000004,1.6264128000000002,1.9936968000000002,0.0,0.0,0.0,0.0
8.1,217.0218672,5.9097672,0.8132064000000001,-0.6900672,0.0,0.0,0.0,0.0
8.12,217.6396968,5.0423064,-0.2709672,-1.1500104,0.0,0.0,0.0,0.0
8.14,218.3742648,5.367528,0.9217152000000001,-0.4599432,0.0,0.0,0.0,0.0
8.16,219.12834,5.3132736,-0.2170176,0.9201912000000001,0.0,0.0,0.0,0.0
8.18,219.8805864,5.0423064,0.0542544,0.8433816000000001,0.0,0.0,0.0,0.0
8.2,220.57553040000002,5.096560800000001,0.2170176,0.0768096,0.0,0.0,0.0,0.0
8.219999999999999,221.2302408,4.7713392,0.3252216,-0.6135624,0.0,0.0,0.0,0.0
8.24,221.7919872,4.8252888,-0.2709672,-0.0768096,0.0,0.0,0.0,0.0
8.26,222.47717759999998,4.7170848,1.030224,-0.0768096,0.0,0.0,0.0,0.0
8.28,223.208088,4.933797600000001,0.8132064000000001,0.6900672,0.0,0.0,0.0,0.0
8.299999999999999,223.9551528,4.608576,0.9217152000000001,0.6900672,0.0,0.0,0.0,0.0
8.32,224.6202264,4.7170848,0.37947600000000004,0.30662880000000003,0.0,0.0,0.0,0.0
8.34,225.289872,4.8252888,0.37947600000000004,-0.4599432,0.0,0.0,0.0,0.0
8.36,225.9595176,4.8795432000000005,0.3252216,0.8433816000000001,0.0,0.0,0.0,0.0
8.379999999999999,226.62337200000002,4.2291,1.3011912,-0.8433816000000001,0.0,0.0,0.0,0.0
8.399999999999999,227.3966496,4.1748456,0.4879848,-0.996696,0.0,0.0,0.0,0.0
8.42,228.072696,4.2833544,0.7046976,-0.6135624,0.0,0.0,0.0,0.0
8.44,228.6804672,4.445812800000001,0.7589520000000001,0.5367528,0.0,0.0,0.0,0.0
8.459999999999999,229.3827264,3.9035736000000005,0.5422392,0.15331440000000002,0.0,0.0,0.0,0.0
8.48,230.0596872,4.2833544,0.0542544,-0.15331440000000002,0.0,0.0,0.0,0.0
8.5,230.6180808,3.957828,-0.16276320000000002,0.0,0.0,0.0,0.0,0.0
8.52,231.2965656,3.9035736000000005,0.2170176,0.6900672,0.0,0.0,0.0,0.0
8.54,231.8357568,4.0663368,0.16276320000000002,0.15331440000000002,0.0,0.0,0.0,0.0
8.559999999999999,232.4106096,3.9035736000000005,0.7589520000000001,0.4599432,0.0,0.0,0.0,0.0
8.579999999999998,233.0064936,3.578352,0.4337304,0.23012400000000002,0.0,0.0,0.0,0.0
8.6,233.5612296,3.7411152,1.030224,-0.0768096,0.0,0.0,0.0,0.0
8.62,233.985816,3.6326064,0.5964936000000001,0.4599432,0.0,0.0,0.0,0.0
8.64,234.5152536,3.4158936000000004,0.37947600000000004,-0.4599432,0.0,0.0,0.0,0.0
8.66,235.0096392,3.7411152,0.37947600000000004,0.15331440000000002,0.0,0.0,0.0,0.0
8.68,235.44641760000002,3.2531304000000003,0.3252216,0.15331440000000002,0.0,0.0,0.0,0.0
8.7,236.03041439999998,3.5240976,0.2709672,0.3834384,0.0,0.0,0.0,0.0
8.719999999999999,236.55680399999997,3.578352,0.4337304,0.0,0.0,0.0,0.0,0.0
8.739999999999998,237.137448,2.9818584,0.16276320000000002,-0.15331440000000002,0.0,0.0,0.0,0.0
8.76,237.6650568,3.1446216000000002,0.650748,-0.23012400000000002,0.0,0.0,0.0,0.0
8.78,238.15182240000001,3.3073848000000003,0.8132064000000001,-0.6900672,0.0,0.0,0.0,0.0
8.8,238.6952808,2.9818584,0.37947600000000004,-0.6900672,0.0,0.0,0.0,0.0
8.82,239.3207304,3.0361128,0.5422392,0.0768096,0.0,0.0,0.0,0.0
8.84,239.9489232,3.198876,0.37947600000000004,0.5367528,0.0,0.0,0.0,0.0
8.86,240.50945040000002,2.7108912000000003,-0.1085088,-0.5367528,0.0,0.0,0.0,0.0
8.879999999999999,241.118136,2.8194000000000004,0.5422392,-0.0768096,0.0,0.0,0.0,0.0
8.899999999999999,241.6966464,2.9279088,0.2170176,0.0,0.0,0.0,0.0,0.0
8.92,242.2821672,2.6023824,0.650748,-0.15331440000000002,0.0,0.0,0.0,0.0
8.94,242.7469872,3.1446216000000002,0.4337304,0.15331440000000002,0.0,0.0,0.0,0.0
8.96,243.2965416,2.4399240000000004,0.8132064000000001,0.15331440000000002,0.0,0.0,0.0,0.0
8.98,243.95612880000002,2.3856696,0.4337304,0.0,0.0,0.0,0.0,0.0
9.0,244.38589679999998,2.3314152,-0.0542544,-0.0768096,0.0,0.0,0.0,0.0
9.02,244.9287456,2.3314152,-0.0542544,-0.23012400000000002,0.0,0.0,0.0,0.0
9.04,245.3478456,2.3314152,0.37947600000000004,-0.0768096,0.0,0.0,0.0,0.0
9.059999999999999,245.8464984,2.2771608000000003,0.5422392,-0.23012400000000002,0.0,0.0,0.0,0.0
9.079999999999998,246.3579528,2.3314152,-0.4879848,0.6135624,0.0,0.0,0.0,0.0
9.1,246.85812959999998,2.3314152,0.16276320000000002,0.0,0.0,0.0,0.0,0.0
9.12,247.25162640000002,2.2771608000000003,0.4337304,0.0,0.0,0.0,0.0,0.0
9.14,247.6387224,2.3856696,0.4337304,-0.23012400000000002,0.0,0.0,0.0,0.0
9.16,248.06696639999998,1.9519392,0.4337304,-0.15331440000000002,0.0,0.0,0.0,0.0
9.18,248.56135200000003,2.2771608000000003,0.650748,-0.3834384,0.0,0.0,0.0,0.0
9.2,248.8698096,2.0061936,0.4879848,-0.7668768,0.0,0.0,0.0,0.0
9.219999999999999,249.3547464,1.9519392,0.2170176,0.0,0.0,0.0,0.0,0.0
9.239999999999998,249.9122256,1.9519392,0.1085088,0.5367528,0.0,0.0,0.0,0.0
9.26,250.25238240000002,1.6806672000000002,0.4879848,-0.23012400000000002,0.0,0.0,0.0,0.0
9.28,250.61539919999998,1.8976848000000002,-0.16276320000000002,0.3834384,0.0,0.0,0.0,0.0
9.3,251.054616,1.7349216,0.1085088,-0.3834384,0.0,0.0,0.0,0.0
9.32,251.34844320000002,1.6264128000000002,0.1085088,-0.3834384,0.0,0.0,0.0,0.0
9.34,251.81204400000001,1.8976848000000002,-0.37947600000000004,-0.15331440000000002,0.0,0.0,0.0,0.0
9.36,252.1555536,1.789176,0.2709672,-0.30662880000000003,0.0,0.0,0.0,0.0
9.379999999999999,252.499368,1.5182088,0.4337304,-0.0768096,0.0,0.0,0.0,0.0
9.399999999999999,252.8922552,1.7349216,0.2170176,-0.0768096,0.0,0.0,0.0,0.0
9.42,253.2592344,1.6264128000000002,0.1085088,-0.30662880000000003,0.0,0.0,0.0,0.0
9.44,253.67467680000001,1.6264128000000002,-0.1085088,-0.15331440000000002,0.0,0.0,0.0,0.0
9.46,254.0834136,1.6806672000000002,-0.37947600000000004,0.23012400000000002,0.0,0.0,0.0,0.0
9.48,254.46228,1.4097000000000002,0.5422392,0.23012400000000002,0.0,0.0,0.0,0.0
9.5,254.8414512,1.5182088,-0.2170176,-0.23012400000000002,0.0,0.0,0.0,0.0
9.52,255.126744,1.5182088,-0.1085088,-0.15331440000000002,0.0,0.0,0.0,0.0
9.54,255.42666720000003,1.4639544,0.37947600000000004,-0.30662880000000003,0.0,0.0,0.0,0.0
9.559999999999999,255.718056,1.3011912,0.0,-0.0768096,0.0,0.0,0.0,0.0
9.579999999999998,256.0155408,1.3011912,0.1085088,-0.15331440000000002,0.0,0.0,0.0,0.0
9.6,256.42275359999996,1.2469368,0.0542544,-0.6900672,0.0,0.0,0.0,0.0
9.62,256.7251152,1.3554456000000001,0.2709672,-0.23012400000000002,0.0,0.0,0.0,0.0
9.64,257.0451552,1.2469368,0.5964936000000001,-0.0768096,0.0,0.0,0.0,0.0
9.66,257.43712800000003,1.3011912,0.3252216,0.15331440000000002,0.0,0.0,0.0,0.0
9.68,257.7641784,1.3011912,0.5422392,0.0,0.0,0.0,0.0,0.0
9.7,258.1165272,1.1387328,0.16276320000000002,-0.3834384,0.0,0.0,0.0,0.0
9.719999999999999,258.3503088,1.2469368,-0.0542544,0.4599432,0.0,0.0,0.0,0.0
9.739999999999998,258.6849792,1.0844784,0.3252216,0.0768096,0.0,0.0,0.0,0.0
9.76,258.9751488,1.1926824,0.0,-0.3834384,0.0,0.0,0.0,0.0
9.78,259.36986479999996,1.1926824,0.0,-0.3834384,0.0,0.0,0.0,0.0
9.8,259.70148720000003,1.030224,0.37947600000000004,0.0,0.0,0.0,0.0,0.0
9.82,259.942584,0.9759696,0.5422392,-0.0768096,0.0,0.0,0.0,0.0
9.84,260.16417359999997,1.030224,0.16276320000000002,-0.30662880000000003,0.0,0.0,0.0,0.0
9.86,260.5485264,0.8132064000000001,0.2709672,-0.30662880000000003,0.0,0.0,0.0,0.0
9.879999999999999,260.9084952,1.030224,0.16276320000000002,-0.0768096,0.0,0.0,0.0,0.0
9.899999999999999,261.2574912,1.3011912,-0.2170176,0.0,0.0,0.0,0.0,0.0
9.92,261.5379072,0.9217152000000001,0.2709672,0.0768096,0.0,0.0,0.0,0.0
9.94,261.8088744,0.9217152000000001,-0.0542544,-0.30662880000000003,0.0,0.0,0.0,0.0
9.96,262.0795368,0.9759696,-0.2170176,-0.3834384,0.0,0.0,0.0,0.0
9.98,262.40597759999997,0.9759696,0.2170176,-0.4599432,0.0,0.0,0.0,0.0
10.0,262.7866728,0.8674608,0.3252216,-0.23012400000000002,0.0,0.0,0.0,0.0
10.02,263.03356080000003,0.8132064000000001,-0.0542544,-0.15331440000000002,0.0,0.0,0.0,0.0
10.04,263.2310712,0.8132064000000001,-0.16276320000000002,0.0,0.0,0.0,0.0,0.0
10.059999999999999,263.4892368,0.7589520000000001,0.1085088,-0.23012400000000002,0.0,0.0,0.0,0.0
10.079999999999998,263.7455736,0.7046976,0.4879848,-0.15331440000000002,0.0,0.0,0.0,0.0
10.1,263.9973384,0.7589520000000001,0.5422392,0.0768096,0.0,0.0,0.0,0.0
10.12,264.2548944,0.650748,0.5422392,-0.4599432,0.0,0.0,0.0,0.0
10.14,264.4182672,0.8132064000000001,0.2709672,0.30662880000000003,0.0,0.0,0.0,0.0
10.16,264.5581704,0.7046976,0.2709672,-0.23012400000000002,0.0,0.0,0.0,0.0
10.18,264.77427359999996,0.5964936000000001,0.2709672,0.15331440000000002,0.0,0.0,0.0,0.0
10.2,264.9940344,0.650748,0.3252216,-0.3834384,0.0,0.0,0.0,0.0
10.219999999999999,265.1631984,0.7046976,0.2709672,0.0768096,0.0,0.0,0.0,0.0
10.239999999999998,265.4911632,0.650748,0.3252216,0.0768096,0.0,0.0,0.0,0.0
10.26,265.7621304,0.7046976,0.37947600000000004,-0.30662880000000003,0.0,0.0,0.0,0.0
10.28,265.9864632,0.7589520000000001,0.2170176,-0.15331440000000002,0.0,0.0,0.0,0.0
10.3,266.2409712,0.7046976,0.4879848,-0.0768096,0.0,0.0,0.0,0.0
10.32,266.483592,0.5964936000000001,0.2709672,0.0,0.0,0.0,0.0,0.0
10.34,266.68476,0.650748,0.4337304,-0.15331440000000002,0.0,0.0,0.0,0.0
10.36,266.8755648,0.7046976,0.0542544,-0.23012400000000002,0.0,0.0,0.0,0.0
10.379999999999999,267.100812,0.7046976,0.16276320000000002,0.0768096,0.0,0.0,0.0,0.0
10.399999999999999,267.3623304,0.5964936000000001,0.16276320000000002,0.0,0.0,0.0,0.0,0.0
10.42,267.5558784,0.5964936000000001,0.2709672,-0.15331440000000002,0.0,0.0,0.0,0.0
10.44,267.7984992,0.5422392,0.2170176,-0.30662880000000003,0.0,0.0,0.0,0.0
10.46,267.98778,0.4879848,0.16276320000000002,-0.23012400000000002,0.0,0.0,0.0,0.0
10.48,268.0725144,0.5422392,0.1085088,-0.30662880000000003,0.0,0.0,0.0,0.0
10.5,268.1877288,0.5422392,0.3252216,-0.5367528,0.0,0.0,0.0,0.0
10.52,268.333728,0.650748,0.4337304,-0.23012400000000002,0.0,0.0,0.0,0.0
10.54,268.5004536,0.4879848,0.2709672,-0.3834384,0.0,0.0,0.0,0.0
10.559999999999999,268.6574256,0.5964936000000001,0.2709672,-0.15331440000000002,0.0,0.0,0.0,0.0
10.579999999999998,268.8491448,0.5422392,0.2170176,-0.15331440000000002,0.0,0.0,0.0,0.0
10.6,269.00184959999996,0.5964936000000001,0.2709672,-0.0768096,0.0,0.0,0.0,0.0
10.62,269.1319992,0.650748,0.3252216,-0.15331440000000002,0.0,0.0,0.0,0.0
10.64,269.2560528,0.5422392,0.3252216,0.0768096,0.0,0.0,0.0,0.0
10.66,269.3660856,0.5964936000000001,0.16276320000000002,-0.15331440000000002,0.0,0.0,0.0,0.0
10.68,269.3916888,0.4879848,0.2709672,-0.15331440000000002,0.0,0.0,0.0,0.0
10.7,269.522448,0.5422392,0.2170176,-0.15331440000000002,0.0,0.0,0.0,0.0
10.719999999999999,269.6394912,0.4879848,0.2709672,-0.15331440000000002,0.0,0.0,0.0,0.0
10.739999999999998,269.8184088,0.5422392,0.4337304,-0.15331440000000002,0.0,0.0,0.0,0.0
10.76,269.90436239999997,0.650748,0.2170176,0.0768096,0.0,0.0,0.0,0.0
10.78,269.9482536,0.4879848,0.2709672,-0.15331440000000002,0.0,0.0,0.0,0.0
10.8,270.064992,0.3252216,0.2170176,-0.15331440000000002,0.0,0.0,0.0,0.0
10.82,270.1475928,0.3252216,0.1085088,-0.0768096,0.0,0.0,0.0,0.0
10.84,270.2058096,0.3252216,0.1085088,-0.23012400000000002,0.0,0.0,0.0,0.0
10.86,270.3475416,0.2709672,0.0542544,-0.15331440000000002,0.0,0.0,0.0,0.0
10.879999999999999,270.4411152,0.2709672,0.16276320000000002,-0.0768096,0.0,0.0,0.0,0.0
10.899999999999999,270.499332,0.37947600000000004,0.2709672,-0.0768096,0.0,0.0,0.0,0.0
10.92,270.674592,0.4337304,0.2170176,-0.15331440000000002,0.0,0.0,0.0,0.0
10.94,270.84680399999996,0.2709672,0.16276320000000002,0.0,0.0,0.0,0.0,0.0
10.96,270.9327576,-1.3011912,-0.1085088,-0.0768096,0.0,0.0,0.0,0.0
10.98,270.6108888,-142.5939744,-79.4839152,-14.951964,0.0,0.0,0.0,0.0
11.0,269.8586424,-222.0781944,0.0,15.795345600000001,0.0,0.0,0.0,0.0
11.02,269.9698944,1.0844784,18.7595256,-13.111581600000001,0.0,0.0,0.0,0.0
11.04,271.1954952,29.061156,108.11134080000001,-73.4558856,0.0,0.0,0.0,0.0
11.059999999999999,272.959068,9.108643200000001,32.639508,-16.4854128,0.0,0.0,0.0,0.0
11.079999999999998,274.52574,17.0788584,20.765719200000003,-61.110876000000005,0.0,0.0,0.0,0.0
11.1,275.3450424,15.3978864,-13.771473600000002,-26.759916,0.0,0.0,0.0,0.0
11.12,275.7958416,15.506395200000002,-8.024164800000001,-13.878458400000001,0.0,0.0,0.0,0.0
11.14,276.2442024,24.669292800000004,-14.367967200000002,-12.651638400000001,0.0,0.0,0.0,0.0
11.16,276.1850712,49.013364,-28.410408,-1.8400776,0.0,0.0,0.0,0.0
11.18,276.10673760000003,21.741384,-23.259592800000004,-9.4311216,0.0,0.0,0.0,0.0
11.2,275.6349072,37.302338400000004,2.2771608000000003,-39.028116,0.0,0.0,0.0,0.0
11.219999999999999,275.1621624,46.51918560000001,18.8680344,-31.8205104,0.0,0.0,0.0,0.0
11.239999999999998,274.68758879999996,24.8863104,21.741384,-39.1049256,0.0,0.0,0.0,0.0
11.26,274.2535536,30.1453296,-4.120591200000001,-24.076456800000003,0.0,0.0,0.0,0.0
11.28,273.8518272,29.711599200000002,2.9279088,-12.651638400000001,0.0,0.0,0.0,0.0
11.3,273.4473576,15.181173600000001,14.6389344,-6.1341,0.0,0.0,0.0,0.0
11.32,273.0834264,17.5668432,10.5183432,-15.871850400000001,0.0,0.0,0.0,0.0
11.34,272.7255912,1.5182088,6.397752,3.2205168000000004,0.0,0.0,0.0,0.0
11.36,272.6597544,1.1387328,5.801258400000001,-6.2874144,0.0,0.0,0.0,0.0
11.379999999999999,272.5640472,2.9279088,7.6989432,9.1244928,0.0,0.0,0.0,0.0
11.399999999999999,272.517108,-7.8617064,7.3194672,17.482108800000002,0.0,0.0,0.0,0.0
11.42,272.72132400000004,0.4879848,6.668719200000001,20.932749600000005,0.0,0.0,0.0,0.0
11.44,272.5588656,1.6264128000000002,13.988186400000002,7.0542912,0.0,0.0,0.0,0.0
11.46,272.44456560000003,0.650748,15.2896824,-0.30662880000000003,0.0,0.0,0.0,0.0
11.48,272.6067192,0.4337304,8.566404,-2.1470112,0.0,0.0,0.0,0.0
11.5,272.442432,-0.9217152000000001,5.6930544,-3.1437072,0.0,0.0,0.0,0.0
11.52,272.0711856,-1.030224,1.3554456000000001,-4.0638984,0.0,0.0,0.0,0.0
11.54,271.89744959999996,-2.1686520000000002,-1.7349216,-4.6006512,0.0,0.0,0.0,0.0
11.559999999999999,272.0684424,-2.9279088,-6.397752,-4.0638984,0.0,0.0,0.0,0.0
11.579999999999998,272.3272176,-0.3252216,-11.4943128,1.8400776,0.0,0.0,0.0,0.0
11.6,272.492724,-1.6806672000000002,-8.6206584,0.3834384,0.0,0.0,0.0,0.0
11.62,272.6338464,-1.8976848000000002,-7.1024496,-0.7668768,0.0,0.0,0.0,0.0
11.64,272.84568240000004,-2.0601432,-7.2652128,-3.1437072,0.0,0.0,0.0,0.0
11.66,272.984976,-3.1446216000000002,-11.4943128,-1.7635728,0.0,0.0,0.0,0.0
11.68,272.97583199999997,-3.7953696000000003,-8.4582,-10.5814368,0.0,0.0,0.0,0.0
11.7,272.8566552,-0.3252216,2.0601432,-6.2109096,0.0,0.0,0.0,0.0
11.719999999999999,272.5710576,-0.37947600000000004,4.933797600000001,-7.2076056,0.0,0.0,0.0,0.0
11.739999999999998,272.517108,0.2170176,17.783556,-8.2811112,0.0,0.0,0.0,0.0
11.76,272.5896504,-0.5422392,4.3376088,1.3036296,0.0,0.0,0.0,0.0
11.78,272.4369456,1.6806672000000002,7.1024496,15.488716800000002,0.0,0.0,0.0,0.0
11.8,272.2193184,-0.9759696,-4.445812800000001,12.2682,0.0,0.0,0.0,0.0
11.82,271.9084224,-6.2349888,-18.3800496,2.7602688,0.0,0.0,0.0,0.0
11.84,271.677384,-13.662964800000001,2.4941784,2.8370784000000002,0.0,0.0,0.0,0.0
11.86,271.4186088,0.2170176,13.771473600000002,-5.4440328000000004,0.0,0.0,0.0,0.0
11.879999999999999,271.2332904,7.6989432,19.3017648,1.3801344,0.0,0.0,0.0,0.0
11.899999999999999,271.3372272,13.3377432,20.711464799999998,6.9774816,0.0,0.0,0.0,0.0
11.92,271.4844456,16.482364800000003,29.386377600000003,10.121188800000002,0.0,0.0,0.0,0.0
11.94,271.63379760000004,18.705271200000002,12.524536800000002,-2.3003256,0.0,0.0,0.0,0.0
11.96,271.6554384,13.1207256,9.0001344,-7.0542912,0.0,0.0,0.0,0.0
11.98,271.69353839999997,10.5183432,-6.9399912,12.498324000000002,0.0,0.0,0.0,0.0
12.0,271.6036224,13.3919976,1.030224,6.9774816,0.0,0.0,0.0,0.0
12.02,271.5091344,10.138867200000002,2.548128,12.651638400000001,0.0,0.0,0.0,0.0
12.04,271.3201584,4.012082400000001,10.843564800000001,16.7920416,0.0,0.0,0.0,0.0
12.059999999999999,271.2210984,4.7170848,6.2349888,11.04138,0.0,0.0,0.0,0.0
12.079999999999998,271.008348,1.4097000000000002,7.5904344,7.8976728000000005,0.0,0.0,0.0,0.0
12.1,270.8471088,0.4879848,8.0784192,6.0572904,0.0,0.0,0.0,0.0
12.12,270.8608248,-0.3252216,5.205069600000001,1.7635728,0.0,0.0,0.0,0.0
12.14,270.9150792,-1.030224,7.5364848,0.6135624,0.0,0.0,0.0,0.0
12.16,270.9924984,-3.1446216000000002,5.964021600000001,-0.6135624,0.0,0.0,0.0,0.0
12.18,271.12691520000004,-2.3856696,4.7713392,-2.3003256,0.0,0.0,0.0,0.0
12.2,271.026636,-1.2469368,6.018276,-5.2139088000000005,0.0,0.0,0.0,0.0
12.219999999999999,270.89709600000003,-2.3856696,1.6264128000000002,-4.8304704,0.0,0.0,0.0,0.0
12.239999999999998,270.5386512,-1.030224,3.198876,-4.6006512,0.0,0.0,0.0,0.0
12.26,270.1805112,-1.1926824,1.6264128000000002,-1.7635728,0.0,0.0,0.0,0.0
12.28,269.8616904,-1.3554456000000001,2.7651456,-0.6135624,0.0,0.0,0.0,0.0
12.3,269.6513784,-2.7108912000000003,4.120591200000001,-2.223516,0.0,0.0,0.0,0.0
12.32,269.4380184,-0.3252216,4.8795432000000005,-4.2172128,0.0,0.0,0.0,0.0
12.34,269.3127456,3.0903671999999998,13.0664712,-9.2013024,0.0,0.0,0.0,0.0
12.36,269.1640032,11.3315496,-0.7046976,-14.185087200000002,0.0,0.0,0.0,0.0
12.379999999999999,269.08719360000003,5.3132736,2.3856696,-6.5175384,0.0,0.0,0.0,0.0
12.399999999999999,268.9491192,8.7834216,-2.9279088,-2.223516,0.0,0.0,0.0,0.0
12.42,268.86103199999997,6.5605152,-15.560649600000001,-7.9744824,0.0,0.0,0.0,0.0
12.44,268.7689824,19.0847472,-11.6028216,-21.699321599999998,0.0,0.0,0.0,0.0
12.46,268.70863199999997,17.458334400000002,-7.2652128,-15.795345600000001,0.0,0.0,0.0,0.0
12.48,268.6513296,19.247510400000003,4.7170848,-6.8241672,0.0,0.0,0.0,0.0
12.5,268.59859919999997,11.440058400000002,5.801258400000001,-0.996696,0.0,0.0,0.0,0.0
12.52,268.5553176,15.7234128,7.915960800000001,2.5304496,0.0,0.0,0.0,0.0
12.54,268.5336768,13.988186400000002,7.807452,4.984089600000001,0.0,0.0,0.0,0.0
12.559999999999999,268.486128,13.608710400000001,7.8617064,7.744358400000001,0.0,0.0,0.0,0.0
12.58,268.419072,14.476171200000001,8.94588,8.6645496,0.0,0.0,0.0,0.0
12.6,268.30629600000003,13.174980000000001,7.427976000000001,6.594043200000001,0.0,0.0,0.0,0.0
12.62,268.2950184,16.2653472,8.6749128,13.111581600000001,0.0,0.0,0.0,0.0
12.639999999999999,268.24868879999997,10.843564800000001,10.735360799999999,11.5781328,0.0,0.0,0.0,0.0
12.66,268.230096,13.283488800000002,15.343632000000001,12.7281432,0.0,0.0,0.0,0.0
12.68,268.2380208,5.638800000000001,16.8075864,10.1979984,0.0,0.0,0.0,0.0
12.7,268.266672,1.6806672000000002,10.355580000000002,1.9936968000000002,0.0,0.0,0.0,0.0
12.719999999999999,268.4029176,-7.210958400000001,14.367967200000002,6.0572904,0.0,0.0,0.0,0.0
12.74,268.43979840000003,-4.012082400000001,1.0844784,2.6069544000000002,0.0,0.0,0.0,0.0
12.76,268.382496,1.1387328,0.16276320000000002,9.5079312,0.0,0.0,0.0,0.0
12.78,268.3498824,5.367528,-7.3194672,11.1181896,0.0,0.0,0.0,0.0
12.799999999999999,268.2200376,9.976104,-2.6023824,-7.9744824,0.0,0.0,0.0,0.0
12.82,268.1231112,4.7713392,-3.9035736000000005,-2.3003256,0.0,0.0,0.0,0.0
12.84,268.16304,4.012082400000001,1.8434304000000001,-10.274503200000002,0.0,0.0,0.0,0.0
12.86,268.0374624,10.138867200000002,-1.789176,2.5304496,0.0,0.0,0.0,0.0
12.879999999999999,267.86464079999996,15.181173600000001,-8.3496912,1.0735056,0.0,0.0,0.0,0.0
12.9,267.7442448,18.81378,-11.2230408,-26.683411200000002,0.0,0.0,0.0,0.0
12.92,267.6473184,22.2836232,25.4282448,-18.4791096,0.0,0.0,0.0,0.0
12.94,267.649452,3.0903671999999998,32.5852536,4.677156,0.0,0.0,0.0,0.0
12.959999999999999,267.57934800000004,-24.1270536,-2.7651456,1.6867632000000001,0.0,0.0,0.0,0.0
12.98,267.4007352,-29.386377600000003,21.904147200000004,-12.804952800000002,0.0,0.0,0.0,0.0
13.0,267.3367272,-13.662964800000001,34.4829384,-18.172176,0.0,0.0,0.0,0.0
13.02,267.1575048,-12.795504,27.759660000000004,-10.5046272,0.0,0.0,0.0,0.0
13.04,267.0151632,-25.9162296,26.458468800000002,-6.364224,0.0,0.0,0.0,0.0
13.059999999999999,267.0669792,-28.3561536,11.2230408,-4.8304704,0.0,0.0,0.0,0.0
13.08,267.0846576,-22.1211648,3.6868608000000003,-3.7572696000000003,0.0,0.0,0.0,0.0
13.1,267.13434,-22.2293688,-7.4822304,-6.4407288000000005,0.0,0.0,0.0,0.0
13.12,267.0889248,-19.572732000000002,-8.94588,-2.683764,0.0,0.0,0.0,0.0
13.139999999999999,266.99717999999996,-14.0424408,5.5845456,8.1277968,0.0,0.0,0.0,0.0
13.16,266.7176784,-12.5787912,35.024872800000004,15.335402400000001,0.0,0.0,0.0,0.0
13.18,266.5835664,-20.006462400000004,24.235562400000003,2.9903928,0.0,0.0,0.0,0.0
13.2,266.34856560000003,-23.151084,7.427976000000001,-5.6741568000000004,0.0,0.0,0.0,0.0
13.219999999999999,266.1108216,-13.8799824,-8.8919304,-5.137404,0.0,0.0,0.0,0.0
13.24,265.794744,-7.915960800000001,0.5422392,-4.907280000000001,0.0,0.0,0.0,0.0
13.26,265.67952959999997,-9.5423736,28.410408,-3.910584,0.0,0.0,0.0,0.0
13.28,265.7721888,-15.235428,31.934505600000005,5.597347200000001,0.0,0.0,0.0,0.0
13.299999999999999,265.6213128,-22.9886256,19.844004,8.8943688,0.0,0.0,0.0,0.0
13.32,265.5771168,-13.174980000000001,10.4640888,12.2682,0.0,0.0,0.0,0.0
13.34,265.3354104,-2.1143976,16.970349600000002,-2.683764,0.0,0.0,0.0,0.0
13.36,265.09797119999996,20.8739232,33.8864448,32.9708256,0.0,0.0,0.0,0.0
13.379999999999999,264.8526072,16.2113976,-0.9217152000000001,34.581084000000004,0.0,0.0,0.0,0.0
13.4,264.5901744,2.9818584,-18.9222888,2.3003256,0.0,0.0,0.0,0.0
13.42,264.3777288,-6.506260800000001,-4.3376088,-17.5589184,0.0,0.0,0.0,0.0
13.44,264.2286816,7.3194672,-6.5605152,-23.539704000000004,0.0,0.0,0.0,0.0
13.459999999999999,264.0994464,12.416028,-1.789176,-14.185087200000002,0.0,0.0,0.0,0.0
13.48,264.0811584,19.193256,-10.193121600000001,0.23012400000000002,0.0,0.0,0.0,0.0
13.5,264.0610416,18.7595256,-19.518477600000004,8.741054400000001,0.0,0.0,0.0,0.0
13.52,263.9696016,14.259458400000002,-25.645262400000004,-0.3834384,0.0,0.0,0.0,0.0
13.54,263.9211384,10.0303584,-14.693188800000001,-6.8241672,0.0,0.0,0.0,0.0
13.559999999999999,263.8525584,9.976104,-14.205204,-10.5046272,0.0,0.0,0.0,0.0
13.58,263.775444,4.1748456,-11.657076,-9.814560000000002,0.0,0.0,0.0,0.0
13.6,263.6696784,7.3737216000000005,-2.2771608000000003,-14.2618968,0.0,0.0,0.0,0.0
13.62,263.511792,5.259324,8.0784192,-15.4119072,0.0,0.0,0.0,0.0
13.639999999999999,263.4288864,4.6628304,9.108643200000001,-6.4407288000000005,0.0,0.0,0.0,0.0
13.66,263.33836080000003,-1.4097000000000002,5.638800000000001,-8.4344256,0.0,0.0,0.0,0.0
13.68,263.2746576,-0.4879848,-2.7651456,-8.971178400000001,0.0,0.0,0.0,0.0
13.7,263.2127832,0.0542544,1.6806672000000002,-2.1470112,0.0,0.0,0.0,0.0
13.719999999999999,263.138412,-6.506260800000001,0.5422392,0.4599432,0.0,0.0,0.0,0.0
13.74,263.107932,-19.898258400000003,-7.753197600000001,-15.795345600000001,0.0,0.0,0.0,0.0
13.76,263.0481912,2.3314152,1.2469368,12.5748288,0.0,0.0,0.0,0.0
13.78,262.9863168,5.801258400000001,3.6326064,12.1913904,0.0,0.0,0.0,0.0
13.799999999999999,262.9579704,7.6446888,11.3315496,3.910584,0.0,0.0,0.0,0.0
13.82,262.978392,9.488119200000002,12.7412496,3.5271456,0.0,0.0,0.0,0.0
13.84,262.992108,8.4582,9.4338648,0.6900672,0.0,0.0,0.0,0.0
13.86,262.9762584,7.807452,9.4338648,1.6867632000000001,0.0,0.0,0.0,0.0
13.879999999999999,262.9719912,10.138867200000002,3.5240976,6.0572904,0.0,0.0,0.0,0.0
13.9,262.9491312,10.843564800000001,-5.205069600000001,4.523841600000001,0.0,0.0,0.0,0.0
13.92,262.9945464,11.006328,-8.6206584,5.4440328000000004,0.0,0.0,0.0,0.0
13.94,262.9680288,9.7051368,-8.6206584,7.591044000000001,0.0,0.0,0.0,0.0
13.959999999999999,262.9716864,10.355580000000002,-6.668719200000001,10.1979984,0.0,0.0,0.0,0.0
13.98,262.9183464,12.795504,-2.3856696,8.971178400000001,0.0,0.0,0.0,0.0
14.0,262.865616,12.416028,-0.5964936000000001,6.9009768,0.0,0.0,0.0,0.0
14.02,262.8467184,10.4640888,1.6806672000000002,3.910584,0.0,0.0,0.0,0.0
14.04,262.6589616,9.3256608,2.6023824,3.68046,0.0,0.0,0.0,0.0
14.059999999999999,262.533384,7.6989432,0.8674608,5.060594400000001,0.0,0.0,0.0,0.0
14.08,262.422132,7.156704,-0.1085088,5.597347200000001,0.0,0.0,0.0,0.0
14.1,262.2282792,6.4520064,-0.0542544,4.2937176,0.0,0.0,0.0,0.0
14.12,262.1182464,5.5302912,-0.3252216,4.4473368,0.0,0.0,0.0,0.0
14.139999999999999,262.0161384,6.343497600000001,0.8132064000000001,5.750661600000001,0.0,0.0,0.0,0.0
14.16,261.84331679999997,7.5364848,1.5724632,6.9009768,0.0,0.0,0.0,0.0
14.18,261.7293216,6.7229735999999995,1.0844784,7.2076056,0.0,0.0,0.0,0.0
14.2,261.4900536,6.0725304,1.3011912,6.594043200000001,0.0,0.0,0.0,0.0
14.219999999999999,261.3916032,6.343497600000001,0.4879848,6.9774816,0.0,0.0,0.0,0.0
14.24,261.22365840000003,6.4520064,-0.5964936000000001,7.437729600000001,0.0,0.0,0.0,0.0
14.26,261.0974712,6.777228,-0.2709672,4.907280000000001,0.0,0.0,0.0,0.0
14.28,260.9203824,8.024164800000001,0.4337304,3.2205168000000004,0.0,0.0,0.0,0.0
14.299999999999999,260.79541439999997,8.186928,2.4399240000000004,0.30662880000000003,0.0,0.0,0.0,0.0
14.32,260.6597784,7.970215200000001,2.9818584,-3.68046,0.0,0.0,0.0,0.0
14.34,260.5729104,8.6206584,1.8976848000000002,-4.2937176,0.0,0.0,0.0,0.0
14.36,260.4436752,9.596628,1.1387328,-3.6036504000000003,0.0,0.0,0.0,0.0
14.379999999999999,260.3244984,9.379915200000001,2.4399240000000004,-0.7668768,0.0,0.0,0.0,0.0
14.4,260.2303152,9.813645600000001,8.186928,4.370527200000001,0.0,0.0,0.0,0.0
14.42,260.1647832,11.277295200000001,13.554456,6.1341,0.0,0.0,0.0,0.0
14.44,260.088888,10.735360799999999,14.6389344,4.2937176,0.0,0.0,0.0,0.0
14.459999999999999,259.9343544,9.7051368,10.0303584,1.7635728,0.0,0.0,0.0,0.0
14.48,259.7255664,9.0001344,6.9399912,4.6006512,0.0,0.0,0.0,0.0
14.5,259.70423040000003,9.2714064,5.0423064,7.130796,0.0,0.0,0.0,0.0
14.52,259.6100472,7.753197600000001,1.8976848000000002,5.750661600000001,0.0,0.0,0.0,0.0
14.54,259.52226479999996,6.4520064,2.4399240000000004,4.6006512,0.0,0.0,0.0,0.0
14.559999999999999,259.424424,5.9097672,5.5845456,6.6708528000000005,0.0,0.0,0.0,0.0
