time,baro_altitude,accl_x,accl_y,accl_z,gps_altitude,gyro_roll,gyro_pitch,gyro_yaw
0.0,0.0,-8.4582,1.8434304000000001,5.2907184,0.0,0.0,0.0,0.0
0.019999999999999574,0.04724400000000001,-8.566404,1.9519392,5.2907184,0.0,0.0,0.0,0.0
0.040000000000000036,0.1139952,-8.4582,1.8434304000000001,5.2907184,0.0,0.0,0.0,0.0
0.05999999999999961,0.04541520000000001,-8.5121496,1.8976848000000002,5.2139088000000005,0.0,0.0,0.0,0.0
0.08000000000000007,0.0024384000000000025,-8.3496912,1.8434304000000001,5.2139088000000005,0.0,0.0,0.0,0.0
0.09999999999999964,-0.0847344,-8.4582,1.9519392,5.2907184,0.0,0.0,0.0,0.0
0.1200000000000001,-0.004876800000000005,-8.5121496,1.8976848000000002,5.2907184,0.0,0.0,0.0,0.0
0.13999999999999968,0.024993600000000008,-8.4582,1.7349216,5.367223200000001,0.0,0.0,0.0,0.0
0.16000000000000014,0.04511040000000001,-8.4582,1.7349216,5.2907184,0.0,0.0,0.0,0.0
0.17999999999999972,-0.1566672,-8.4582,1.7349216,5.2907184,0.0,0.0,0.0,0.0
0.20000000000000018,-0.23164800000000002,-8.4582,1.8434304000000001,5.367223200000001,0.0,0.0,0.0,0.0
0.21999999999999975,-0.12161519999999999,-8.5121496,1.789176,5.2139088000000005,0.0,0.0,0.0,0.0
0.23999999999999932,-0.0795528,-8.566404,1.8434304000000001,5.2139088000000005,0.0,0.0,0.0,0.0
0.2599999999999998,-0.1146048,-8.566404,1.8434304000000001,5.2907184,0.0,0.0,0.0,0.0
0.27999999999999936,-0.2386584,-8.4582,1.8434304000000001,5.2907184,0.0,0.0,0.0,0.0
0.2999999999999998,-0.16794479999999998,-8.4039456,1.789176,5.2907184,0.0,0.0,0.0,0.0
0.3199999999999994,-0.24048719999999998,-8.4582,1.8434304000000001,5.2907184,0.0,0.0,0.0,0.0
0.33999999999999986,-0.1969008,-8.5121496,1.8976848000000002,5.2907184,0.0,0.0,0.0,0.0
0.35999999999999943,-0.2569464,-8.5121496,1.8976848000000002,5.2907184,0.0,0.0,0.0,0.0
0.3799999999999999,-0.23530560000000003,-8.4582,1.8434304000000001,5.2907184,0.0,0.0,0.0,0.0
0.39999999999999947,-0.3986784,-8.566404,1.8434304000000001,5.2907184,0.0,0.0,0.0,0.0
0.41999999999999993,-0.3054096,-8.5121496,1.789176,5.2907184,0.0,0.0,0.0,0.0
0.4399999999999995,-0.47884080000000007,-8.5121496,1.789176,5.2139088000000005,0.0,0.0,0.0,0.0
0.45999999999999996,-0.4925568000000001,-8.5121496,1.8976848000000002,5.2139088000000005,0.0,0.0,0.0,0.0
0.47999999999999954,-0.38069520000000007,-8.4582,1.8434304000000001,5.2907184,0.0,0.0,0.0,0.0
0.5,-0.2218944,-8.4039456,1.789176,5.2907184,0.0,0.0,0.0,0.0
0.5199999999999996,-0.1109472,-8.566404,1.8434304000000001,5.2907184,0.0,0.0,0.0,0.0
0.54,0.024384000000000006,-8.4582,1.8434304000000001,5.2907184,0.0,0.0,0.0,0.0
0.5599999999999996,0.2599944,-8.566404,1.9519392,5.2139088000000005,0.0,0.0,0.0,0.0
0.5800000000000001,0.20299680000000003,-8.566404,1.8434304000000001,5.2139088000000005,0.0,0.0,0.0,0.0
0.5999999999999996,0.09753600000000003,-8.566404,1.8434304000000001,5.2907184,0.0,0.0,0.0,0.0
0.6200000000000001,0.1216152,-8.5121496,1.8976848000000002,5.2907184,0.0,0.0,0.0,0.0
0.6399999999999997,-0.032004,-8.5121496,1.8976848000000002,5.2139088000000005,0.0,0.0,0.0,0.0
0.6600000000000001,-0.02438399999999999,-8.4582,1.7349216,5.2907184,0.0,0.0,0.0,0.0
0.6799999999999997,-0.10271759999999999,-8.4582,1.8434304000000001,5.2139088000000005,0.0,0.0,0.0,0.0
0.7000000000000002,-0.11795760000000001,-8.5121496,1.8976848000000002,5.2139088000000005,0.0,0.0,0.0,0.0
0.7199999999999998,-0.2615184,-8.4582,1.8434304000000001,5.2139088000000005,0.0,0.0,0.0,0.0
0.7399999999999998,-0.24079200000000003,-8.4582,1.9519392,5.2907184,0.0,0.0,0.0,0.0
0.7599999999999998,-0.286512,-8.4582,1.8434304000000001,5.2139088000000005,0.0,0.0,0.0,0.0
0.7799999999999998,-0.086868,-8.4582,1.9519392,5.2907184,0.0,0.0,0.0,0.0
0.7999999999999998,-0.1088136,-8.5121496,1.8976848000000002,5.2907184,0.0,0.0,0.0,0.0
0.8199999999999998,-0.1597152,-8.566404,1.8434304000000001,5.2139088000000005,0.0,0.0,0.0,0.0
0.8399999999999999,-0.2310384,-8.4582,1.8434304000000001,5.2139088000000005,0.0,0.0,0.0,0.0
0.8599999999999999,-0.05334,-8.5121496,1.8976848000000002,5.2139088000000005,0.0,0.0,0.0,0.0
0.8799999999999999,-0.1121664,-8.4582,1.8434304000000001,5.2139088000000005,0.0,0.0,0.0,0.0
0.8999999999999999,-0.0573024,-8.566404,1.8434304000000001,5.2139088000000005,0.0,0.0,0.0,0.0
0.9199999999999999,0.0173736,-8.5121496,1.8976848000000002,5.2907184,0.0,0.0,0.0,0.0
0.94,0.108204,-8.566404,1.8434304000000001,5.2907184,0.0,0.0,0.0,0.0
0.96,0.09022080000000002,-8.4582,1.8434304000000001,5.2907184,0.0,0.0,0.0,0.0
0.9799999999999995,0.15727680000000002,-8.566404,1.9519392,5.2907184,0.0,0.0,0.0,0.0
0.9999999999999996,0.3392424,-8.4582,1.8434304000000001,5.2139088000000005,0.0,0.0,0.0,0.0
1.0199999999999996,0.224028,-8.4039456,1.8976848000000002,5.2907184,0.0,0.0,0.0,0.0
1.0399999999999996,0.1597152,-8.4039456,1.789176,5.137404,0.0,0.0,0.0,0.0
1.0599999999999996,0.070104,-8.4039456,1.8976848000000002,5.2139088000000005,0.0,0.0,0.0,0.0
1.0799999999999996,0.013106400000000013,-8.5121496,1.789176,5.137404,0.0,0.0,0.0,0.0
1.0999999999999996,-0.0481584,-8.5121496,1.8976848000000002,5.137404,0.0,0.0,0.0,0.0
1.1199999999999997,-0.19537680000000002,-8.566404,1.8434304000000001,5.2139088000000005,0.0,0.0,0.0,0.0
1.1399999999999997,-0.2734056,-8.6206584,1.789176,5.2139088000000005,0.0,0.0,0.0,0.0
1.1599999999999997,-0.27889200000000003,-8.5121496,1.8976848000000002,5.2907184,0.0,0.0,0.0,0.0
1.1799999999999997,-0.2761488,-8.5121496,1.8976848000000002,5.2907184,0.0,0.0,0.0,0.0
1.1999999999999997,-0.26730960000000004,-8.5121496,1.789176,5.2907184,0.0,0.0,0.0,0.0
1.2199999999999998,-0.20421599999999998,-8.6206584,1.8976848000000002,5.2907184,0.0,0.0,0.0,0.0
1.2399999999999998,-0.2173224,-8.5121496,1.8976848000000002,5.2139088000000005,0.0,0.0,0.0,0.0
1.2599999999999998,-0.23957280000000003,-8.4582,1.8434304000000001,5.2907184,0.0,0.0,0.0,0.0
1.2799999999999998,-0.35356800000000005,-8.5121496,1.789176,5.2907184,0.0,0.0,0.0,0.0
1.2999999999999998,-0.3706368,-8.566404,1.8434304000000001,5.2139088000000005,0.0,0.0,0.0,0.0
1.3199999999999998,-0.362712,-8.5121496,1.8976848000000002,5.2139088000000005,0.0,0.0,0.0,0.0
1.3399999999999999,-0.35143440000000004,-8.5121496,1.8976848000000002,5.2907184,0.0,0.0,0.0,0.0
1.3599999999999999,-0.25633680000000003,-8.5121496,1.8976848000000002,5.2139088000000005,0.0,0.0,0.0,0.0
1.38,-0.14478,-8.5121496,1.789176,5.2907184,0.0,0.0,0.0,0.0
1.4,-0.124968,-8.5121496,1.8976848000000002,5.2139088000000005,0.0,0.0,0.0,0.0
1.42,-0.1274064,-8.5121496,1.8976848000000002,5.2907184,0.0,0.0,0.0,0.0
1.44,-0.1139952,-8.5121496,1.8976848000000002,5.2907184,0.0,0.0,0.0,0.0
1.46,-0.0719328,-8.5121496,1.8976848000000002,5.2139088000000005,0.0,0.0,0.0,0.0
1.4799999999999995,0.05760720000000002,-8.5121496,1.8976848000000002,5.2139088000000005,0.0,0.0,0.0,0.0
1.4999999999999996,0.0710184,-8.566404,1.9519392,5.367223200000001,0.0,0.0,0.0,0.0
1.5199999999999996,-0.02468879999999999,-8.5121496,1.6806672000000002,5.2139088000000005,0.0,0.0,0.0,0.0
1.5399999999999996,-0.1392936,-8.4582,1.8434304000000001,5.2139088000000005,0.0,0.0,0.0,0.0
1.5599999999999996,-0.0643128,-8.4582,1.8434304000000001,5.2907184,0.0,0.0,0.0,0.0
1.5799999999999996,-0.2901696,-8.566404,1.7349216,5.2907184,0.0,0.0,0.0,0.0
1.5999999999999996,-0.0185928,-8.4039456,1.8976848000000002,5.2907184,0.0,0.0,0.0,0.0
1.6199999999999997,0.059740800000000024,-8.4582,1.8434304000000001,5.2907184,0.0,0.0,0.0,0.0
1.6399999999999997,0.0362712,-8.566404,1.8434304000000001,5.2139088000000005,0.0,0.0,0.0,0.0
1.6599999999999997,0.029870400000000012,-8.4039456,1.789176,5.2907184,0.0,0.0,0.0,0.0
1.6799999999999997,0.0374904,-8.4039456,1.8976848000000002,5.2907184,0.0,0.0,0.0,0.0
1.6999999999999997,-0.0569976,-8.5121496,1.8976848000000002,5.2907184,0.0,0.0,0.0,0.0
1.7199999999999998,-0.0512064,-8.4039456,1.8976848000000002,5.2907184,0.0,0.0,0.0,0.0
1.7399999999999998,-0.16276320000000002,-8.5121496,1.8976848000000002,5.2139088000000005,0.0,0.0,0.0,0.0
1.7599999999999998,-0.16581120000000002,-8.4582,1.8434304000000001,5.2139088000000005,0.0,0.0,0.0,0.0
1.7799999999999998,-0.0658368,-8.5121496,1.8976848000000002,5.137404,0.0,0.0,0.0,0.0
1.7999999999999998,-0.0694944,-8.566404,1.8434304000000001,5.2907184,0.0,0.0,0.0,0.0
1.8199999999999998,0.04572000000000001,-8.4582,1.8434304000000001,5.2907184,0.0,0.0,0.0,0.0
1.8399999999999999,-0.029565599999999994,-8.566404,1.8434304000000001,5.367223200000001,0.0,0.0,0.0,0.0
1.8599999999999999,-0.0923544,-8.5121496,1.789176,5.2907184,0.0,0.0,0.0,0.0
1.88,-0.18958560000000002,-8.566404,1.8434304000000001,5.2907184,0.0,0.0,0.0,0.0
1.9,-0.2801112,-8.4582,1.8434304000000001,5.2907184,0.0,0.0,0.0,0.0
1.92,-0.2334768,-8.5121496,1.8976848000000002,5.2139088000000005,0.0,0.0,0.0,0.0
1.94,-0.1243584,-8.4582,1.8434304000000001,5.137404,0.0,0.0,0.0,0.0
1.96,-0.16764,-8.5121496,1.789176,5.2907184,0.0,0.0,0.0,0.0
1.9799999999999995,-0.1527048,-8.4582,1.8434304000000001,5.2907184,0.0,0.0,0.0,0.0
1.9999999999999996,-0.2548128,-8.5121496,1.789176,5.2139088000000005,0.0,0.0,0.0,0.0
2.0199999999999996,-0.051816,-8.5121496,1.789176,5.137404,0.0,0.0,0.0,0.0
2.0399999999999996,0.1591056,-8.5121496,1.789176,5.2907184,0.0,0.0,0.0,0.0
2.0599999999999996,0.08991600000000001,-8.5121496,1.8976848000000002,5.2139088000000005,0.0,0.0,0.0,0.0
2.0799999999999996,-0.0536448,-8.5121496,1.789176,5.2907184,0.0,0.0,0.0,0.0
2.0999999999999996,-0.004267200000000004,-8.4582,1.8434304000000001,5.2907184,0.0,0.0,0.0,0.0
2.1199999999999997,-0.2145792,-8.4582,1.8434304000000001,5.2139088000000005,0.0,0.0,0.0,0.0
2.1399999999999997,-0.24627840000000004,-8.5121496,1.789176,5.2907184,0.0,0.0,0.0,0.0
2.1599999999999997,-0.2023872,-8.5121496,1.8976848000000002,5.2139088000000005,0.0,0.0,0.0,0.0
2.1799999999999997,-0.09936479999999999,-8.5121496,1.789176,5.2139088000000005,0.0,0.0,0.0,0.0
2.1999999999999997,-0.0347472,-8.4582,1.8434304000000001,5.2139088000000005,0.0,0.0,0.0,0.0
2.2199999999999998,-0.1502664,-8.566404,1.8434304000000001,5.2907184,0.0,0.0,0.0,0.0
2.2399999999999998,-0.2734056,-8.566404,1.8434304000000001,5.2907184,0.0,0.0,0.0,0.0
2.26,-0.318516,-8.4039456,1.8976848000000002,5.2907184,0.0,0.0,0.0,0.0
2.28,-0.134112,-8.4582,1.8434304000000001,5.2907184,0.0,0.0,0.0,0.0
2.3,-0.1862328,-8.5121496,1.8976848000000002,5.2907184,0.0,0.0,0.0,0.0
2.32,-0.1606296,-8.566404,1.8434304000000001,5.2907184,0.0,0.0,0.0,0.0
2.34,-0.2557272,-8.6206584,1.8976848000000002,5.367223200000001,0.0,0.0,0.0,0.0
2.36,-0.2292096,-8.566404,1.8434304000000001,5.2139088000000005,0.0,0.0,0.0,0.0
2.38,-0.0566928,-8.5121496,1.789176,5.2907184,0.0,0.0,0.0,0.0
2.4,-0.1207008,-8.566404,1.8434304000000001,5.2139088000000005,0.0,0.0,0.0,0.0
2.42,-0.073152,-8.5121496,1.789176,5.2907184,0.0,0.0,0.0,0.0
2.44,-0.05334,-8.566404,1.9519392,5.2139088000000005,0.0,0.0,0.0,0.0
2.46,-0.1057656,-8.4039456,1.789176,5.2139088000000005,0.0,0.0,0.0,0.0
2.4799999999999995,-0.2167128,-8.5121496,1.8976848000000002,5.2907184,0.0,0.0,0.0,0.0
2.4999999999999996,-0.3380232,-8.4582,1.8434304000000001,5.2907184,0.0,0.0,0.0,0.0
2.5199999999999996,-0.3313176,-8.5121496,1.789176,5.2907184,0.0,0.0,0.0,0.0
2.5399999999999996,-0.18836640000000002,-8.566404,1.8434304000000001,5.2139088000000005,0.0,0.0,0.0,0.0
2.5599999999999996,-0.27310080000000003,-8.4582,1.9519392,5.2907184,0.0,0.0,0.0,0.0
2.5799999999999996,-0.19110960000000002,-8.5121496,1.789176,5.367223200000001,0.0,0.0,0.0,0.0
2.5999999999999996,-0.19110960000000002,-8.5121496,1.789176,5.367223200000001,0.0,0.0,0.0,0.0
2.6199999999999997,-0.12313919999999999,-8.4582,1.8434304000000001,5.2907184,0.0,0.0,0.0,0.0
2.6399999999999997,-0.23591520000000002,-8.4582,1.8434304000000001,5.2139088000000005,0.0,0.0,0.0,0.0
2.6599999999999997,-0.1597152,-8.5121496,1.789176,5.367223200000001,0.0,0.0,0.0,0.0
2.6799999999999997,-0.1810512,-8.4582,1.7349216,5.2139088000000005,0.0,0.0,0.0,0.0
2.6999999999999997,-0.13502640000000002,-8.5121496,1.789176,5.2907184,0.0,0.0,0.0,0.0
2.7199999999999998,-0.1831848,-8.4582,1.8434304000000001,5.2907184,0.0,0.0,0.0,0.0
2.7399999999999998,-0.1880616,-8.566404,1.8434304000000001,5.2139088000000005,0.0,0.0,0.0,0.0
2.76,-0.15849600000000003,-8.566404,1.8434304000000001,5.2907184,0.0,0.0,0.0,0.0
2.78,-0.1033272,-8.5121496,1.8976848000000002,5.2139088000000005,0.0,0.0,0.0,0.0
2.8,-0.1271016,-8.4582,1.9519392,5.2139088000000005,0.0,0.0,0.0,0.0
2.82,0.06979919999999999,-8.5121496,1.789176,5.2139088000000005,0.0,0.0,0.0,0.0
2.84,0.0384048,-8.4582,1.7349216,5.2139088000000005,0.0,0.0,0.0,0.0
2.8599999999999994,0.12405360000000001,-8.5121496,1.789176,5.2139088000000005,0.0,0.0,0.0,0.0
2.88,-0.028955999999999992,-8.4582,1.8434304000000001,5.2907184,0.0,0.0,0.0,0.0
2.8999999999999995,-0.153924,-8.5121496,1.789176,5.2139088000000005,0.0,0.0,0.0,0.0
2.92,-0.2191512,-8.6749128,1.8434304000000001,5.2139088000000005,0.0,0.0,0.0,0.0
2.9399999999999995,-0.1871472,-8.4582,1.8434304000000001,5.2139088000000005,0.0,0.0,0.0,0.0
2.96,-0.20756880000000003,-8.5121496,1.789176,5.2139088000000005,0.0,0.0,0.0,0.0
2.9799999999999995,-0.13959839999999998,-8.566404,1.8434304000000001,5.2907184,0.0,0.0,0.0,0.0
3.0,-0.1502664,-8.5121496,1.8976848000000002,5.137404,0.0,0.0,0.0,0.0
3.0199999999999996,-0.20939760000000002,-8.566404,1.9519392,5.2139088000000005,0.0,0.0,0.0,0.0
3.04,-0.1865376,-8.4582,1.8434304000000001,5.2907184,0.0,0.0,0.0,0.0
3.0599999999999996,-0.1167384,-8.5121496,1.789176,5.2139088000000005,0.0,0.0,0.0,0.0
3.08,-0.1286256,-8.4582,1.8434304000000001,5.2139088000000005,0.0,0.0,0.0,0.0
3.0999999999999996,-0.20177759999999997,-8.5121496,1.8976848000000002,5.137404,0.0,0.0,0.0,0.0
3.1199999999999997,-0.21061680000000002,-8.4039456,1.789176,5.2139088000000005,0.0,0.0,0.0,0.0
3.1399999999999997,-0.13228320000000002,-8.5121496,1.8976848000000002,5.367223200000001,0.0,0.0,0.0,0.0
3.1599999999999997,-0.1353312,-8.4582,1.8434304000000001,5.2907184,0.0,0.0,0.0,0.0
3.1799999999999997,-0.17190719999999998,-8.5121496,1.789176,5.2907184,0.0,0.0,0.0,0.0
3.1999999999999997,-0.2660904,-8.4039456,1.8976848000000002,5.2139088000000005,0.0,0.0,0.0,0.0
3.2199999999999998,-0.3889248,-8.5121496,1.8976848000000002,5.2907184,0.0,0.0,0.0,0.0
3.2399999999999998,-0.3343656,-8.5121496,1.789176,5.2907184,0.0,0.0,0.0,0.0
3.26,-0.2688336,-8.4582,1.8434304000000001,5.2907184,0.0,0.0,0.0,0.0
3.28,-0.2801112,-8.5121496,1.789176,5.2139088000000005,0.0,0.0,0.0,0.0
3.3,-0.12374879999999999,-8.4582,1.7349216,5.2139088000000005,0.0,0.0,0.0,0.0
3.32,-0.16398240000000003,-8.4582,1.8434304000000001,5.2907184,0.0,0.0,0.0,0.0
3.34,-0.049682399999999995,-8.5121496,1.8976848000000002,5.2907184,0.0,0.0,0.0,0.0
3.3599999999999994,-0.0435864,-8.5121496,1.789176,5.2139088000000005,0.0,0.0,0.0,0.0
3.38,-0.010667999999999993,-8.566404,1.8434304000000001,5.2907184,0.0,0.0,0.0,0.0
3.3999999999999995,-0.1365504,-8.6206584,1.8976848000000002,5.2139088000000005,0.0,0.0,0.0,0.0
3.42,-0.138684,-8.566404,1.8434304000000001,5.2139088000000005,0.0,0.0,0.0,0.0
3.4399999999999995,-0.10759439999999999,-8.4039456,1.789176,5.2907184,0.0,0.0,0.0,0.0
3.46,-0.0344424,-8.5121496,1.8976848000000002,5.2139088000000005,0.0,0.0,0.0,0.0
3.4799999999999995,-0.1286256,-8.4039456,1.8976848000000002,5.2907184,0.0,0.0,0.0,0.0
3.5,-0.07528560000000001,-8.5121496,1.789176,5.2139088000000005,0.0,0.0,0.0,0.0
3.5199999999999996,-0.14782800000000001,-8.5121496,1.8976848000000002,5.2907184,0.0,0.0,0.0,0.0
3.54,-0.0064007999999999895,-8.4582,1.8434304000000001,5.2139088000000005,0.0,0.0,0.0,0.0
3.5599999999999996,0.0201168,-8.4582,1.8434304000000001,5.2139088000000005,0.0,0.0,0.0,0.0
3.58,0.0381,-8.5121496,1.8976848000000002,5.2139088000000005,0.0,0.0,0.0,0.0
3.5999999999999996,-0.1664208,-8.4582,1.8434304000000001,5.2907184,0.0,0.0,0.0,0.0
3.6199999999999997,-0.1289304,-8.4039456,1.789176,5.2907184,0.0,0.0,0.0,0.0
3.6399999999999997,-0.0664464,-8.5121496,1.789176,5.367223200000001,0.0,0.0,0.0,0.0
3.6599999999999997,-0.1146048,-8.4582,1.8434304000000001,5.2139088000000005,0.0,0.0,0.0,0.0
3.6799999999999997,-0.054864,-8.6206584,1.8976848000000002,5.2907184,0.0,0.0,0.0,0.0
3.6999999999999997,0.024384000000000006,-8.5121496,1.789176,5.2907184,0.0,0.0,0.0,0.0
3.7199999999999998,-0.012191999999999995,-8.566404,1.8434304000000001,5.2139088000000005,0.0,0.0,0.0,0.0
3.7399999999999998,0.0408432,-8.4582,1.8434304000000001,5.2139088000000005,0.0,0.0,0.0,0.0
3.76,-0.08656319999999999,-8.4582,1.9519392,5.2139088000000005,0.0,0.0,0.0,0.0
3.78,-0.10424159999999999,-8.5121496,1.8976848000000002,5.2139088000000005,0.0,0.0,0.0,0.0
3.8,-0.16520160000000003,-8.5121496,1.8976848000000002,5.2907184,0.0,0.0,0.0,0.0
3.82,-0.1292352,-8.5121496,1.8976848000000002,5.2907184,0.0,0.0,0.0,0.0
3.84,0.0006096000000000006,-8.566404,1.8434304000000001,5.137404,0.0,0.0,0.0,0.0
3.86,-0.0621792,-8.4039456,1.8976848000000002,5.2907184,0.0,0.0,0.0,0.0
3.88,-0.0466344,-8.5121496,1.8976848000000002,5.2139088000000005,0.0,0.0,0.0,0.0
3.9,-0.1002792,-8.4582,1.9519392,5.2907184,0.0,0.0,0.0,0.0
3.92,0.1871472,-8.4582,1.8434304000000001,5.2907184,0.0,0.0,0.0,0.0
3.9399999999999995,-0.0015240000000000015,-8.4039456,1.8976848000000002,5.2139088000000005,0.0,0.0,0.0,0.0
3.96,-0.021945600000000003,-8.5121496,1.8976848000000002,5.2139088000000005,0.0,0.0,0.0,0.0
3.9799999999999995,-0.1365504,-8.4039456,1.789176,5.2907184,0.0,0.0,0.0,0.0
4.0,-0.294132,-8.566404,1.8434304000000001,5.137404,0.0,0.0,0.0,0.0
4.02,-0.2307336,-8.4582,1.8434304000000001,5.2907184,0.0,0.0,0.0,0.0
4.04,-0.2599944,-8.566404,1.7349216,5.2907184,0.0,0.0,0.0,0.0
4.06,-0.1289304,-8.4582,1.8434304000000001,5.2139088000000005,0.0,0.0,0.0,0.0
4.08,-0.2048256,-8.4582,1.8434304000000001,5.2907184,0.0,0.0,0.0,0.0
4.1,-0.23042880000000002,-8.5121496,1.789176,5.2907184,0.0,0.0,0.0,0.0
4.12,-0.23012400000000002,-8.4582,1.8434304000000001,5.2907184,0.0,0.0,0.0,0.0
4.14,-0.3447288,-8.5121496,1.789176,5.2139088000000005,0.0,0.0,0.0,0.0
4.16,-0.19812,-8.4582,1.8434304000000001,5.2139088000000005,0.0,0.0,0.0,0.0
4.18,-0.181356,-8.5121496,1.789176,5.2907184,0.0,0.0,0.0,0.0
4.199999999999999,-0.09936479999999999,-8.5121496,1.8976848000000002,5.2139088000000005,0.0,0.0,0.0,0.0
4.22,-0.20086320000000002,-8.5121496,1.8976848000000002,5.137404,0.0,0.0,0.0,0.0
4.24,-0.11582400000000001,-8.4582,1.8434304000000001,5.2907184,0.0,0.0,0.0,0.0
4.26,-0.131064,-8.5121496,1.8976848000000002,5.2907184,0.0,0.0,0.0,0.0
4.279999999999999,-0.24627840000000004,-8.566404,1.8434304000000001,5.2907184,0.0,0.0,0.0,0.0
4.3,-0.219456,-8.4582,1.9519392,5.2139088000000005,0.0,0.0,0.0,0.0
4.319999999999999,-0.24688800000000002,-8.4039456,1.789176,5.2139088000000005,0.0,0.0,0.0,0.0
4.34,-0.1840992,-8.5121496,1.8976848000000002,5.2139088000000005,0.0,0.0,0.0,0.0
4.359999999999999,-0.13380720000000002,-8.566404,1.8434304000000001,5.2907184,0.0,0.0,0.0,0.0
4.38,-0.21305520000000003,-8.4582,1.8434304000000001,5.2907184,0.0,0.0,0.0,0.0
4.3999999999999995,-0.1581912,-8.4582,1.8434304000000001,5.2139088000000005,0.0,0.0,0.0,0.0
4.42,0.014630399999999997,-8.5121496,1.8976848000000002,5.2139088000000005,0.0,0.0,0.0,0.0
4.4399999999999995,-0.149352,-8.4039456,1.789176,5.137404,0.0,0.0,0.0,0.0
4.46,-0.1316736,-8.5121496,1.8976848000000002,5.2139088000000005,0.0,0.0,0.0,0.0
4.4799999999999995,-0.1030224,-8.4582,1.8434304000000001,5.2139088000000005,0.0,0.0,0.0,0.0
4.5,-0.0316992,-8.566404,1.8434304000000001,5.2907184,0.0,0.0,0.0,0.0
4.52,-0.1414272,-8.5121496,1.8976848000000002,5.367223200000001,0.0,0.0,0.0,0.0
4.54,0.0356616,-8.566404,1.8434304000000001,5.2907184,0.0,0.0,0.0,0.0
4.56,-0.028346399999999994,-8.5121496,1.789176,5.2907184,0.0,0.0,0.0,0.0
4.58,0.033527999999999995,-8.5121496,1.8976848000000002,5.2139088000000005,0.0,0.0,0.0,0.0
4.6,-0.0344424,-8.566404,1.8434304000000001,5.2139088000000005,0.0,0.0,0.0,0.0
4.62,-0.02468879999999999,-8.5121496,1.8976848000000002,5.2907184,0.0,0.0,0.0,0.0
4.64,-0.1365504,-8.5121496,1.8976848000000002,5.2907184,0.0,0.0,0.0,0.0
4.66,-0.1411224,-8.4582,1.8434304000000001,5.2907184,0.0,0.0,0.0,0.0
4.68,-0.17739359999999998,-8.5121496,1.8976848000000002,5.2907184,0.0,0.0,0.0,0.0
4.7,0.02926080000000001,-8.4582,1.9519392,5.2907184,0.0,0.0,0.0,0.0
4.72,0.02651760000000001,-8.4582,1.8434304000000001,5.2907184,0.0,0.0,0.0,0.0
4.739999999999999,0.0381,-8.4582,1.8434304000000001,5.2907184,0.0,0.0,0.0,0.0
4.76,-0.0368808,-8.4582,1.8434304000000001,5.2907184,0.0,0.0,0.0,0.0
4.779999999999999,-0.0972312,-8.5121496,1.8976848000000002,5.2139088000000005,0.0,0.0,0.0,0.0
4.8,0.005181600000000005,-8.729167200000001,1.8976848000000002,5.2907184,0.0,0.0,0.0,0.0
4.819999999999999,0.014935199999999997,-154.14254160000002,48.850600799999995,-36.7277904,0.0,0.0,0.0,0.0
4.84,0.025603200000000007,-17.458334400000002,15.9401256,-98.2989144,0.0,0.0,0.0,0.0
4.859999999999999,0.0368808,-0.5964936000000001,2.4399240000000004,128.8929096,0.0,0.0,0.0,0.0
4.88,0.049072800000000014,-5.801258400000001,0.0542544,156.9561504,0.0,0.0,0.0,0.0
4.8999999999999995,0.8491728000000001,-6.9942456,-2.0061936,134.64357120000003,0.0,0.0,0.0,0.0
4.92,1.7032224,-0.0542544,-9.813645600000001,144.534636,0.0,0.0,0.0,0.0
4.9399999999999995,2.5484328000000005,17.3498256,0.4337304,156.9561504,0.0,0.0,0.0,0.0
4.96,3.6365688000000005,-3.5240976,-2.0061936,146.8349616,0.0,0.0,0.0,0.0
4.9799999999999995,4.4128944,-2.7651456,-2.548128,146.60483760000002,0.0,0.0,0.0,0.0
5.0,5.1459384,-3.4698432,-2.9279088,142.15780560000002,0.0,0.0,0.0,0.0
5.02,6.4151256000000005,-0.650748,-2.3856696,142.31112,0.0,0.0,0.0,0.0
5.04,8.062264800000001,0.1085088,-1.0844784,144.6879504,0.0,0.0,0.0,0.0
5.06,10.0154232,-0.2709672,-1.4639544,141.6210528,0.0,0.0,0.0,0.0
5.08,12.385243200000001,-0.8132064000000001,-1.4639544,139.16741280000002,0.0,0.0,0.0,0.0
5.1,15.2448768,-0.9759696,-1.3011912,138.63066,0.0,0.0,0.0,0.0
5.12,18.2678832,1.7349216,-0.3252216,134.64357120000003,0.0,0.0,0.0,0.0
5.14,21.3265512,2.3314152,-1.030224,135.0270096,0.0,0.0,0.0,0.0
5.16,24.7043448,1.5182088,0.0,133.953504,0.0,0.0,0.0,0.0
5.18,28.157424,0.9759696,-0.9759696,131.8833024,0.0,0.0,0.0,0.0
5.199999999999999,31.8967104,1.1387328,-1.1387328,132.49656000000002,0.0,0.0,0.0,0.0
5.22,35.6015544,1.2469368,-1.6806672000000002,129.1995384,0.0,0.0,0.0,0.0
5.24,39.341755199999994,0.3252216,0.5422392,128.2793472,0.0,0.0,0.0,0.0
5.26,42.7762416,0.7589520000000001,-0.4337304,126.20914560000001,0.0,0.0,0.0,0.0
5.279999999999999,46.0753968,0.1085088,-0.2170176,122.52868560000002,0.0,0.0,0.0,0.0
5.3,49.304448,1.2469368,0.9217152000000001,119.38497840000001,0.0,0.0,0.0,0.0
5.319999999999999,53.083968,2.8194000000000004,2.6023824,117.8515296,0.0,0.0,0.0,0.0
5.34,57.1871856,3.7411152,0.5964936000000001,117.3912816,0.0,0.0,0.0,0.0
5.359999999999999,61.5607608,2.3314152,-2.8736544000000004,114.7843272,0.0,0.0,0.0,0.0
5.38,65.6039328,-1.2469368,1.5724632,110.8737432,0.0,0.0,0.0,0.0
5.3999999999999995,69.3349896,1.2469368,2.3314152,110.95055280000001,0.0,0.0,0.0,0.0
5.42,72.978264,2.9279088,-0.650748,107.730036,0.0,0.0,0.0,0.0
5.4399999999999995,76.667868,1.9519392,1.3011912,103.9730712,0.0,0.0,0.0,0.0
5.46,80.3431464,2.0061936,0.8132064000000001,101.9793744,0.0,0.0,0.0,0.0
5.4799999999999995,84.2781144,1.8434304000000001,0.650748,100.75255440000001,0.0,0.0,0.0,0.0
5.5,88.28318639999999,2.6023824,2.2771608000000003,97.2254088,0.0,0.0,0.0,0.0
5.52,92.206572,2.8736544000000004,0.5964936000000001,95.2320168,0.0,0.0,0.0,0.0
5.54,96.1479408,2.7108912000000003,1.8434304000000001,90.7078704,0.0,0.0,0.0,0.0
5.56,100.2042192,2.0061936,2.9818584,90.2479272,0.0,0.0,0.0,0.0
5.58,104.21508240000001,1.1387328,0.0542544,85.95420960000001,0.0,0.0,0.0,0.0
5.6,108.00313680000001,2.4941784,1.5182088,83.73038880000001,0.0,0.0,0.0,0.0
5.62,111.718344,3.4698432,-0.1085088,80.89331040000002,0.0,0.0,0.0,0.0
5.64,115.3817352,4.3376088,0.3252216,77.74960320000001,0.0,0.0,0.0,0.0
5.66,119.20941359999999,5.0423064,-3.4158936000000004,76.9830312,0.0,0.0,0.0,0.0
5.68,122.9291928,0.37947600000000004,1.2469368,68.47179600000001,0.0,0.0,0.0,0.0
5.699999999999999,126.668784,5.801258400000001,1.030224,70.0820544,0.0,0.0,0.0,0.0
5.72,130.62051599999998,4.988052,0.0,65.9416512,0.0,0.0,0.0,0.0
5.74,134.4161904,6.018276,2.0061936,63.48801120000001,0.0,0.0,0.0,0.0
5.76,138.31062,6.2892432000000005,0.7589520000000001,59.5006176,0.0,0.0,0.0,0.0
5.779999999999999,142.1325072,6.9942456,2.1143976,54.440023200000006,0.0,0.0,0.0,0.0
5.8,146.028156,10.247376,-0.4879848,49.8396768,0.0,0.0,0.0,0.0
5.82,149.6836224,9.217152,2.9279088,45.4691496,0.0,0.0,0.0,0.0
5.84,153.122376,7.2652128,4.7713392,38.7982968,0.0,0.0,0.0,0.0
5.859999999999999,156.25907279999998,8.3496912,3.6868608000000003,29.980432800000003,0.0,0.0,0.0,0.0
5.88,159.03610559999998,9.7051368,2.548128,22.312884,0.0,0.0,0.0,0.0
5.8999999999999995,161.52815040000002,7.915960800000001,-0.9759696,16.101974400000003,0.0,0.0,0.0,0.0
5.92,163.6309656,5.367528,6.777228,7.8976728000000005,0.0,0.0,0.0,0.0
5.9399999999999995,165.50304720000003,7.1024496,2.2229064000000003,1.2268200000000002,0.0,0.0,0.0,0.0
5.96,166.9889472,4.6628304,2.2771608000000003,-4.523841600000001,0.0,0.0,0.0,0.0
5.9799999999999995,167.80367760000001,5.8555128,2.0601432,-8.2811112,0.0,0.0,0.0,0.0
6.0,168.14322479999998,7.156704,0.7589520000000001,-10.1979984,0.0,0.0,0.0,0.0
6.02,168.08409360000002,8.3496912,0.3252216,-12.651638400000001,0.0,0.0,0.0,0.0
6.04,167.7555192,6.1807343999999995,0.2170176,-16.5622224,0.0,0.0,0.0,0.0
6.06,167.5613616,5.801258400000001,3.198876,-18.4023,0.0,0.0,0.0,0.0
6.08,167.33520000000001,5.5845456,0.2709672,-19.1691768,0.0,0.0,0.0,0.0
6.1,166.90726080000002,4.988052,-0.9759696,-21.239378400000003,0.0,0.0,0.0,0.0
6.119999999999999,166.58356320000001,5.1508152,-1.1387328,-23.3863896,0.0,0.0,0.0,0.0
6.14,166.5491208,3.4158936000000004,1.030224,-23.4628944,0.0,0.0,0.0,0.0
6.16,166.61556720000002,5.3132736,-2.2771608000000003,-24.076456800000003,0.0,0.0,0.0,0.0
6.18,166.8130776,5.7470040000000004,-1.8434304000000001,-23.9231424,0.0,0.0,0.0,0.0
6.199999999999999,166.8728184,3.3616392,-1.0844784,-25.1496576,0.0,0.0,0.0,0.0
6.22,167.257476,5.9097672,-2.3314152,-24.9198384,0.0,0.0,0.0,0.0
6.24,167.6768808,4.6628304,0.1085088,-26.376477600000005,0.0,0.0,0.0,0.0
6.26,168.2456376,4.933797600000001,-0.5964936000000001,-26.453287200000002,0.0,0.0,0.0,0.0
6.279999999999999,168.9113208,5.205069600000001,-0.1085088,-27.1433544,0.0,0.0,0.0,0.0
6.3,169.6864272,3.1446216000000002,-0.1085088,-24.843028800000003,0.0,0.0,0.0,0.0
6.32,170.37649439999998,1.5182088,-1.1926824,-25.533096,0.0,0.0,0.0,0.0
6.34,171.151296,4.7713392,1.5182088,-22.8496368,0.0,0.0,0.0,0.0
6.359999999999999,172.1062344,4.2291,2.0601432,-23.079456,0.0,0.0,0.0,0.0
6.38,173.1398112,3.6868608000000003,-0.7589520000000001,-23.999647200000002,0.0,0.0,0.0,0.0
6.3999999999999995,174.0176352,6.7229735999999995,-1.6264128000000002,-23.7695232,0.0,0.0,0.0,0.0
6.42,175.0978464,1.9519392,-2.6023824,-25.916534400000003,0.0,0.0,0.0,0.0
6.4399999999999995,176.0536992,3.8496240000000004,0.37947600000000004,-23.539704000000004,0.0,0.0,0.0,0.0
6.46,177.13970160000002,2.3856696,-0.2170176,-23.9231424,0.0,0.0,0.0,0.0
6.4799999999999995,178.1851656,3.3073848000000003,0.7046976,-22.08276,0.0,0.0,0.0,0.0
6.5,179.1029184,3.4698432,0.8674608,-22.312884,0.0,0.0,0.0,0.0
6.52,180.04109280000003,4.554321600000001,-0.1085088,-21.9294456,0.0,0.0,0.0,0.0
6.54,181.090824,2.548128,0.16276320000000002,-23.3863896,0.0,0.0,0.0,0.0
6.56,182.04728640000002,6.0725304,-1.9519392,-22.6195128,0.0,0.0,0.0,0.0
6.58,183.18358080000002,3.578352,-1.7349216,-21.699321599999998,0.0,0.0,0.0,0.0
6.6,184.2516,2.548128,0.5964936000000001,-20.4725016,0.0,0.0,0.0,0.0
6.619999999999999,185.2175112,2.4399240000000004,0.37947600000000004,-21.0092544,0.0,0.0,0.0,0.0
6.64,186.0307176,3.198876,0.7046976,-20.5493112,0.0,0.0,0.0,0.0
6.66,186.7457784,3.4158936000000004,0.0542544,-20.85594,0.0,0.0,0.0,0.0
6.68,187.267596,3.7953696000000003,0.4337304,-18.632424,0.0,0.0,0.0,0.0
6.699999999999999,187.685172,2.9818584,-0.5964936000000001,-20.242377600000005,0.0,0.0,0.0,0.0
6.72,188.0061264,0.650748,0.0,-17.7122328,0.0,0.0,0.0,0.0
6.74,188.453268,3.8496240000000004,-1.030224,-19.398996,0.0,0.0,0.0,0.0
6.76,188.86474800000002,2.3856696,-0.9759696,-19.0158624,0.0,0.0,0.0,0.0
6.779999999999999,189.3237768,3.0361128,0.0,-18.785738400000003,0.0,0.0,0.0,0.0
6.8,189.85047120000002,2.4399240000000004,-1.2469368,-19.4758056,0.0,0.0,0.0,0.0
6.82,190.4859792,2.548128,0.9217152000000001,-17.482108800000002,0.0,0.0,0.0,0.0
6.84,191.1528816,3.7411152,-0.0542544,-17.0986704,0.0,0.0,0.0,0.0
6.859999999999999,191.8968984,3.1446216000000002,0.0,-17.482108800000002,0.0,0.0,0.0,0.0
6.88,192.6948648,3.198876,-2.0061936,-17.942356800000002,0.0,0.0,0.0,0.0
6.9,193.6110936,3.9035736000000005,-0.1085088,-16.4854128,0.0,0.0,0.0,0.0
6.92,194.3825424,2.6023824,-0.2170176,-16.4854128,0.0,0.0,0.0,0.0
6.9399999999999995,195.16069679999998,2.7651456,-0.2709672,-17.5589184,0.0,0.0,0.0,0.0
6.96,195.9687216,2.0601432,0.2170176,-16.3320984,0.0,0.0,0.0,0.0
6.9799999999999995,196.7532768,2.2229064000000003,0.0542544,-16.178784,0.0,0.0,0.0,0.0
7.0,197.33300640000002,2.3856696,1.0844784,-15.795345600000001,0.0,0.0,0.0,0.0
7.02,197.9590656,3.3073848000000003,0.0542544,-15.795345600000001,0.0,0.0,0.0,0.0
7.039999999999999,198.67199280000003,2.6023824,0.3252216,-14.72184,0.0,0.0,0.0,0.0
7.06,199.3507824,1.3554456000000001,0.37947600000000004,-15.2585928,0.0,0.0,0.0,0.0
7.08,200.0384112,2.1686520000000002,1.0844784,-14.951964,0.0,0.0,0.0,0.0
7.1,200.68245360000003,2.3856696,-0.5422392,-14.5685256,0.0,0.0,0.0,0.0
7.119999999999999,201.2317032,2.8194000000000004,-1.1926824,-15.0284688,0.0,0.0,0.0,0.0
7.14,201.9546888,1.8434304000000001,1.0844784,-13.8016488,0.0,0.0,0.0,0.0
7.16,202.510644,2.2771608000000003,0.650748,-13.571829600000001,0.0,0.0,0.0,0.0
7.18,203.2903224,1.2469368,1.789176,-13.341705600000001,0.0,0.0,0.0,0.0
7.199999999999999,204.1398,2.6023824,0.650748,-12.651638400000001,0.0,0.0,0.0,0.0
7.22,204.9127728,3.4698432,-0.1085088,-13.725144,0.0,0.0,0.0,0.0
7.24,205.4352,2.2771608000000003,0.2170176,-12.345009600000001,0.0,0.0,0.0,0.0
7.26,205.8683208,2.2229064000000003,-0.5964936000000001,-12.1913904,0.0,0.0,0.0,0.0
7.279999999999999,206.5550352,0.5964936000000001,-0.0542544,-13.725144,0.0,0.0,0.0,0.0
7.3,207.206088,1.9519392,-0.3252216,-13.725144,0.0,0.0,0.0,0.0
7.32,207.9714408,1.7349216,0.8674608,-13.264896000000002,0.0,0.0,0.0,0.0
7.34,208.5536088,2.9279088,0.7589520000000001,-13.1883912,0.0,0.0,0.0,0.0
7.359999999999999,208.7822088,1.2469368,0.0542544,-12.5748288,0.0,0.0,0.0,0.0
7.38,208.8989472,2.548128,0.2709672,-11.8082568,0.0,0.0,0.0,0.0
7.4,209.0675016,2.1686520000000002,-0.4337304,-11.7314472,0.0,0.0,0.0,0.0
7.42,209.2765944,1.1387328,-0.16276320000000002,-11.194694400000001,0.0,0.0,0.0,0.0
7.4399999999999995,210.0151248,1.6264128000000002,-0.2170176,-11.04138,0.0,0.0,0.0,0.0
7.46,210.49731839999998,2.3314152,1.030224,-10.888065600000001,0.0,0.0,0.0,0.0
7.4799999999999995,210.918552,3.3073848000000003,0.16276320000000002,-10.5814368,0.0,0.0,0.0,0.0
7.5,211.27760640000002,1.6264128000000002,-0.5422392,-11.3480088,0.0,0.0,0.0,0.0
7.52,211.65860640000002,3.578352,-0.2170176,-10.3513128,0.0,0.0,0.0,0.0
7.539999999999999,212.09751839999998,1.9519392,0.1085088,-10.5046272,0.0,0.0,0.0,0.0
7.56,212.5876368,2.0061936,-0.0542544,-10.428122400000001,0.0,0.0,0.0,0.0
7.58,213.25575840000002,1.4097000000000002,-0.3252216,-10.274503200000002,0.0,0.0,0.0,0.0
7.6,214.0354368,0.8132064000000001,0.8132064000000001,-10.274503200000002,0.0,0.0,0.0,0.0
7.619999999999999,214.7800632,1.8976848000000002,0.37947600000000004,-9.5079312,0.0,0.0,0.0,0.0
7.64,215.39210160000002,2.2229064000000003,0.9217152000000001,-9.737750400000001,0.0,0.0,0.0,0.0
7.66,216.07119600000001,1.7349216,-0.1085088,-9.967874400000001,0.0,0.0,0.0,0.0
7.68,216.6719568,1.3011912,0.8674608,-9.891369599999999,0.0,0.0,0.0,0.0
7.699999999999999,217.25199120000002,2.0061936,2.0061936,-9.3546168,0.0,0.0,0.0,0.0
7.72,217.78935360000003,1.1387328,0.37947600000000004,-9.1244928,0.0,0.0,0.0,0.0
7.74,218.37700800000002,0.5964936000000001,-0.0542544,-10.121188800000002,0.0,0.0,0.0,0.0
7.76,219.10426080000002,0.0542544,-0.0542544,-10.044684,0.0,0.0,0.0,0.0
7.779999999999999,219.9260016,1.2469368,0.2709672,-9.584436,0.0,0.0,0.0,0.0
7.8,220.73890319999998,1.3011912,0.5422392,-9.2778072,0.0,0.0,0.0,0.0
7.82,221.42988480000002,1.3011912,0.5422392,-8.357616,0.0,0.0,0.0,0.0
7.84,222.12574320000002,0.5964936000000001,0.2709672,-8.2811112,0.0,0.0,0.0,0.0
7.859999999999999,222.7764912,1.0844784,0.4337304,-8.2811112,0.0,0.0,0.0,0.0
7.88,223.5092304,1.030224,-0.2709672,-7.8976728000000005,0.0,0.0,0.0,0.0
7.9,224.07890160000002,1.4097000000000002,0.4337304,-7.9744824,0.0,0.0,0.0,0.0
7.92,224.7403176,0.7046976,0.16276320000000002,-8.357616,0.0,0.0,0.0,0.0
7.9399999999999995,225.4684848,0.7589520000000001,1.0844784,-8.2811112,0.0,0.0,0.0,0.0
7.96,226.28717760000004,1.3011912,0.3252216,-7.5142344,0.0,0.0,0.0,0.0
7.9799999999999995,226.91567519999998,1.1926824,0.1085088,-8.2811112,0.0,0.0,0.0,0.0
8.0,227.6090952,1.2469368,0.16276320000000002,-8.1277968,0.0,0.0,0.0,0.0
8.02,228.31226880000003,1.6264128000000002,-0.3252216,-7.591044000000001,0.0,0.0,0.0,0.0
8.04,228.97307519999998,0.9217152000000001,0.37947600000000004,-7.36092,0.0,0.0,0.0,0.0
8.059999999999999,229.573836,0.7046976,0.37947600000000004,-7.437729600000001,0.0,0.0,0.0,0.0
8.08,230.3309592,0.4337304,0.5422392,-7.6675488,0.0,0.0,0.0,0.0
8.1,231.1956768,0.7589520000000001,0.2170176,-7.2076056,0.0,0.0,0.0,0.0
8.12,232.0311336,0.7589520000000001,0.2170176,-7.2841104,0.0,0.0,0.0,0.0
8.14,232.7272968,0.9217152000000001,0.7046976,-6.8241672,0.0,0.0,0.0,0.0
8.16,233.47558080000002,0.8132064000000001,0.37947600000000004,-7.2076056,0.0,0.0,0.0,0.0
8.18,234.206796,1.1387328,0.5964936000000001,-7.130796,0.0,0.0,0.0,0.0
8.2,234.78804960000002,1.1926824,-0.650748,-7.437729600000001,0.0,0.0,0.0,0.0
8.219999999999999,235.4253864,1.4097000000000002,0.1085088,-6.9009768,0.0,0.0,0.0,0.0
8.24,235.9642728,1.0844784,0.1085088,-6.9009768,0.0,0.0,0.0,0.0
8.26,236.53242,0.8674608,0.7589520000000001,-6.9009768,0.0,0.0,0.0,0.0
8.28,237.125256,0.2709672,0.5964936000000001,-6.8241672,0.0,0.0,0.0,0.0
8.3,237.67968720000002,0.2709672,0.16276320000000002,-6.8241672,0.0,0.0,0.0,0.0
8.32,238.31367120000002,0.5964936000000001,0.4879848,-6.1341,0.0,0.0,0.0,0.0
8.34,238.93089120000002,0.5964936000000001,0.5964936000000001,-6.0572904,0.0,0.0,0.0,0.0
8.36,239.6304072,2.1143976,1.030224,-5.4440328000000004,0.0,0.0,0.0,0.0
8.379999999999999,240.4771416,0.5964936000000001,1.030224,-9.3546168,0.0,0.0,0.0,0.0
8.4,241.5591816,2.2229064000000003,-0.7046976,-6.5175384,0.0,0.0,0.0,0.0
8.42,242.4202416,1.2469368,0.0542544,-5.750661600000001,0.0,0.0,0.0,0.0
8.44,242.9786352,0.5964936000000001,-0.2709672,-5.750661600000001,0.0,0.0,0.0,0.0
8.46,243.4029168,1.1926824,0.4337304,-5.903976000000001,0.0,0.0,0.0,0.0
8.48,243.8363424,0.4337304,0.3252216,-5.6741568000000004,0.0,0.0,0.0,0.0
8.5,244.158516,0.5964936000000001,0.37947600000000004,-5.750661600000001,0.0,0.0,0.0,0.0
8.52,244.4986728,0.3252216,0.8674608,-5.597347200000001,0.0,0.0,0.0,0.0
8.54,244.79646240000002,1.6264128000000002,0.0,-5.4440328000000004,0.0,0.0,0.0,0.0
8.559999999999999,245.0884608,0.8674608,0.7589520000000001,-5.597347200000001,0.0,0.0,0.0,0.0
8.58,245.5249344,1.0844784,-0.3252216,-5.367223200000001,0.0,0.0,0.0,0.0
8.6,245.94129120000002,1.3554456000000001,0.4879848,-5.137404,0.0,0.0,0.0,0.0
8.62,246.40397760000002,0.8674608,0.1085088,-5.137404,0.0,0.0,0.0,0.0
8.64,246.9209184,1.3554456000000001,0.16276320000000002,-4.907280000000001,0.0,0.0,0.0,0.0
8.66,247.4207904,1.1387328,0.8132064000000001,-4.8304704,0.0,0.0,0.0,0.0
8.68,247.99533840000004,1.0844784,0.0,-5.2139088000000005,0.0,0.0,0.0,0.0
8.7,248.58482160000003,0.4337304,0.3252216,-4.984089600000001,0.0,0.0,0.0,0.0
8.719999999999999,249.08896080000002,0.7046976,0.5964936000000001,-4.7539656,0.0,0.0,0.0,0.0
8.739999999999998,249.6287616,1.1387328,0.37947600000000004,-4.677156,0.0,0.0,0.0,0.0
8.76,250.1389968,0.8674608,0.650748,-4.4473368,0.0,0.0,0.0,0.0
8.78,250.4395296,0.8674608,0.5422392,-4.523841600000001,0.0,0.0,0.0,0.0
8.8,250.8190056,0.4337304,0.1085088,-4.6006512,0.0,0.0,0.0,0.0
8.82,251.18537519999998,0.8132064000000001,-0.0542544,-4.7539656,0.0,0.0,0.0,0.0
8.84,251.7184704,0.5422392,0.4337304,-4.6006512,0.0,0.0,0.0,0.0
8.86,252.0851448,0.650748,0.5422392,-4.4473368,0.0,0.0,0.0,0.0
8.879999999999999,252.5136936,0.4337304,0.4337304,-4.370527200000001,0.0,0.0,0.0,0.0
8.899999999999999,252.9477288,0.4337304,0.650748,-4.1404032,0.0,0.0,0.0,0.0
8.92,253.31318400000004,0.4879848,0.37947600000000004,-4.2172128,0.0,0.0,0.0,0.0
8.94,253.81793280000002,0.8132064000000001,0.7046976,-3.910584,0.0,0.0,0.0,0.0
8.96,254.30530800000003,0.8132064000000001,0.7046976,-4.2172128,0.0,0.0,0.0,0.0
8.98,254.7780528,0.37947600000000004,0.2709672,-4.2172128,0.0,0.0,0.0,0.0
9.0,255.166368,0.8132064000000001,0.5964936000000001,-3.6036504000000003,0.0,0.0,0.0,0.0
9.02,255.6019272,0.8674608,0.5422392,-3.68046,0.0,0.0,0.0,0.0
9.04,256.0310856,0.4879848,0.37947600000000004,-3.68046,0.0,0.0,0.0,0.0
9.059999999999999,256.4544528,0.4879848,0.37947600000000004,-3.6036504000000003,0.0,0.0,0.0,0.0
9.08,256.9360368,0.7589520000000001,0.3252216,-3.6036504000000003,0.0,0.0,0.0,0.0
9.1,257.3438592,0.5964936000000001,0.5964936000000001,-3.450336,0.0,0.0,0.0,0.0
9.120000000000001,257.920236,0.7046976,0.5964936000000001,-3.5271456,0.0,0.0,0.0,0.0
9.14,258.3326304,0.5422392,0.5422392,-3.450336,0.0,0.0,0.0,0.0
9.16,258.705096,0.37947600000000004,0.5964936000000001,-3.450336,0.0,0.0,0.0,0.0
9.18,259.1156616,0.4337304,0.3252216,-3.450336,0.0,0.0,0.0,0.0
9.2,259.4881272,0.4337304,0.3252216,-3.3738312000000006,0.0,0.0,0.0,0.0
9.219999999999999,260.021832,0.5422392,0.650748,-3.1437072,0.0,0.0,0.0,0.0
9.239999999999998,260.5591944,0.650748,0.5422392,-3.2970216000000003,0.0,0.0,0.0,0.0
9.26,261.1474584,0.5422392,0.4337304,-3.0672024,0.0,0.0,0.0,0.0
9.28,261.6302616,0.5964936000000001,0.5964936000000001,-2.9903928,0.0,0.0,0.0,0.0
9.3,262.03534080000003,0.650748,0.5422392,-2.7602688,0.0,0.0,0.0,0.0
9.32,262.4462112,0.7589520000000001,0.4337304,-2.9135831999999997,0.0,0.0,0.0,0.0
9.34,262.5940392,0.4337304,0.3252216,-2.9903928,0.0,0.0,0.0,0.0
9.36,262.61568,0.2709672,0.16276320000000002,-2.9135831999999997,0.0,0.0,0.0,0.0
9.379999999999999,262.75466880000005,0.37947600000000004,0.0542544,-2.7602688,0.0,0.0,0.0,0.0
9.399999999999999,263.1097608,0.2170176,0.1085088,-2.8370784000000002,0.0,0.0,0.0,0.0
9.42,263.6014032,0.3252216,0.1085088,-2.6069544000000002,0.0,0.0,0.0,0.0
9.44,264.1591872,0.2709672,0.16276320000000002,-2.7602688,0.0,0.0,0.0,0.0
9.46,264.7486704,0.3252216,0.3252216,-2.6069544000000002,0.0,0.0,0.0,0.0
9.48,265.3012728,0.4337304,0.3252216,-2.6069544000000002,0.0,0.0,0.0,0.0
9.5,265.723116,0.2709672,0.16276320000000002,-2.5304496,0.0,0.0,0.0,0.0
9.52,266.21689200000003,0.16276320000000002,0.37947600000000004,-2.6069544000000002,0.0,0.0,0.0,0.0
9.54,266.719812,0.2709672,0.4879848,-2.4536400000000005,0.0,0.0,0.0,0.0
9.559999999999999,267.2678424,0.4337304,0.3252216,-2.4536400000000005,0.0,0.0,0.0,0.0
9.58,267.80490000000003,-0.0542544,0.16276320000000002,-2.5304496,0.0,0.0,0.0,0.0
9.6,268.1849856,0.0,0.2170176,-2.4536400000000005,0.0,0.0,0.0,0.0
9.620000000000001,268.60012320000004,0.16276320000000002,0.0542544,-2.4536400000000005,0.0,0.0,0.0,0.0
9.64,269.0341584,0.37947600000000004,0.37947600000000004,-2.223516,0.0,0.0,0.0,0.0
9.66,269.18808240000004,0.1085088,0.5422392,-2.3768304000000002,0.0,0.0,0.0,0.0
9.68,269.4617928,0.1085088,0.2170176,-2.223516,0.0,0.0,0.0,0.0
9.7,269.767812,0.2709672,0.16276320000000002,-2.223516,0.0,0.0,0.0,0.0
9.719999999999999,270.2231832,0.2170176,0.1085088,-2.3003256,0.0,0.0,0.0,0.0
9.739999999999998,270.4030152,-0.0542544,0.0542544,-2.1470112,0.0,0.0,0.0,0.0
9.76,270.4950648,-0.2709672,0.37947600000000004,-1.9936968000000002,0.0,0.0,0.0,0.0
9.78,270.6124128,-0.0542544,0.4879848,-1.9936968000000002,0.0,0.0,0.0,0.0
9.8,270.831564,0.2709672,0.37947600000000004,-2.0702016,0.0,0.0,0.0,0.0
9.82,271.02816,0.4337304,-0.1085088,-1.9936968000000002,0.0,0.0,0.0,0.0
9.84,271.26590400000003,0.0542544,0.2709672,-2.0702016,0.0,0.0,0.0,0.0
9.86,271.543272,0.2170176,0.1085088,-2.0702016,0.0,0.0,0.0,0.0
9.879999999999999,271.7822352,0.4337304,0.3252216,-1.9936968000000002,0.0,0.0,0.0,0.0
9.899999999999999,272.0986176,0.4337304,0.1085088,-1.9936968000000002,0.0,0.0,0.0,0.0
9.92,272.47077840000003,0.5964936000000001,0.5964936000000001,-1.9936968000000002,0.0,0.0,0.0,0.0
9.94,272.78990400000004,0.1085088,0.5422392,-1.9168872,0.0,0.0,0.0,0.0
9.96,273.0410592,-0.1085088,0.2170176,-1.7635728,0.0,0.0,0.0,0.0
9.98,273.4049904,-0.1085088,0.4337304,-1.9936968000000002,0.0,0.0,0.0,0.0
10.0,273.7046088,0.2170176,0.1085088,-1.7635728,0.0,0.0,0.0,0.0
10.02,273.9265032,0.2170176,0.0,-1.8400776,0.0,0.0,0.0,0.0
10.04,274.2035664,0.2170176,0.2170176,-1.6867632000000001,0.0,0.0,0.0,0.0
10.059999999999999,274.4559408,0.1085088,0.3252216,-1.6102584000000002,0.0,0.0,0.0,0.0
10.08,274.8460848,0.37947600000000004,0.2709672,-1.7635728,0.0,0.0,0.0,0.0
10.1,275.0975448,0.3252216,0.2170176,-1.5334488,0.0,0.0,0.0,0.0
10.120000000000001,275.3633304,0.37947600000000004,0.2709672,-1.5334488,0.0,0.0,0.0,0.0
10.14,275.6806272,0.4337304,0.3252216,-1.4569440000000002,0.0,0.0,0.0,0.0
10.16,276.002496,0.16276320000000002,0.0542544,-1.6102584000000002,0.0,0.0,0.0,0.0
10.18,276.269196,0.2709672,0.2709672,-1.5334488,0.0,0.0,0.0,0.0
10.2,276.5599752,0.1085088,0.1085088,-1.5334488,0.0,0.0,0.0,0.0
10.219999999999999,276.9452424,0.2170176,0.1085088,-1.4569440000000002,0.0,0.0,0.0,0.0
10.239999999999998,277.2512616,0.16276320000000002,0.16276320000000002,-1.4569440000000002,0.0,0.0,0.0,0.0
10.26,277.4652312,0.0542544,0.0542544,-1.4569440000000002,0.0,0.0,0.0,0.0
10.28,277.69718400000005,0.0542544,0.0542544,-1.4569440000000002,0.0,0.0,0.0,0.0
10.3,277.896828,-0.0542544,0.0542544,-1.4569440000000002,0.0,0.0,0.0,0.0
10.32,278.1671856,0.0,-0.1085088,-1.4569440000000002,0.0,0.0,0.0,0.0
10.34,278.5116096,0.2170176,0.1085088,-1.2268200000000002,0.0,0.0,0.0,0.0
10.36,278.68656480000004,0.1085088,0.1085088,-1.4569440000000002,0.0,0.0,0.0,0.0
10.379999999999999,278.9599704,0.1085088,0.2170176,-1.1500104,0.0,0.0,0.0,0.0
10.399999999999999,279.1855224,-0.1085088,0.0,-1.3801344,0.0,0.0,0.0,0.0
10.42,279.407112,-0.0542544,0.16276320000000002,-1.2268200000000002,0.0,0.0,0.0,0.0
10.44,279.6232152,-0.3252216,0.2170176,-1.3036296,0.0,0.0,0.0,0.0
10.46,279.8271264,-0.0542544,-0.0542544,-1.2268200000000002,0.0,0.0,0.0,0.0
10.48,280.1179056,0.0542544,0.16276320000000002,-1.1500104,0.0,0.0,0.0,0.0
10.5,280.2474456,-0.2170176,0.2170176,-1.3036296,0.0,0.0,0.0,0.0
10.52,280.4501376,0.0,0.0,-0.996696,0.0,0.0,0.0,0.0
10.54,280.7653008,-0.1085088,0.0,-1.1500104,0.0,0.0,0.0,0.0
10.559999999999999,281.0783304,0.0,0.2170176,-1.2268200000000002,0.0,0.0,0.0,0.0
10.58,281.29199520000003,-0.16276320000000002,0.37947600000000004,-1.0735056,0.0,0.0,0.0,0.0
10.6,281.61477840000003,-0.0542544,0.2709672,-1.0735056,0.0,0.0,0.0,0.0
10.620000000000001,281.87263920000004,-0.16276320000000002,0.4879848,-1.0735056,0.0,0.0,0.0,0.0
10.64,282.14756880000004,0.0542544,0.2709672,-0.996696,0.0,0.0,0.0,0.0
10.66,282.4499304,-0.0542544,0.16276320000000002,-1.1500104,0.0,0.0,0.0,0.0
10.68,282.7245552,-0.16276320000000002,0.2709672,-1.0735056,0.0,0.0,0.0,0.0
10.7,282.9165792,-0.2170176,0.2170176,-0.9201912000000001,0.0,0.0,0.0,0.0
10.719999999999999,283.1098224,-0.1085088,0.0,-1.0735056,0.0,0.0,0.0,0.0
10.739999999999998,283.3051992,-0.3252216,-0.1085088,-1.0735056,0.0,0.0,0.0,0.0
10.76,283.39206720000004,-0.5422392,0.0,-0.996696,0.0,0.0,0.0,0.0
10.78,283.61944800000003,-0.8132064000000001,0.2709672,-0.996696,0.0,0.0,0.0,0.0
10.8,283.81147200000004,-0.7046976,0.37947600000000004,-1.0735056,0.0,0.0,0.0,0.0
10.82,283.94863200000003,0.37947600000000004,0.2709672,-0.9201912000000001,0.0,0.0,0.0,0.0
10.84,284.2208184,-0.4879848,-0.16276320000000002,-0.996696,0.0,0.0,0.0,0.0
10.86,284.4390552,-0.3252216,0.5422392,-0.6900672,0.0,0.0,0.0,0.0
10.879999999999999,284.5493928,-0.3252216,0.3252216,-0.7668768,0.0,0.0,0.0,0.0
10.899999999999999,284.7642768,0.0,0.4337304,-0.8433816000000001,0.0,0.0,0.0,0.0
10.92,284.8983888,0.0,0.4337304,-0.7668768,0.0,0.0,0.0,0.0
10.94,284.9867808,-0.16276320000000002,0.4879848,-0.7668768,0.0,0.0,0.0,0.0
10.96,285.076392,-0.2170176,0.4337304,-0.7668768,0.0,0.0,0.0,0.0
10.98,285.21629520000005,-0.0542544,0.4879848,-0.7668768,0.0,0.0,0.0,0.0
11.0,285.41136720000003,0.0542544,0.37947600000000004,-0.7668768,0.0,0.0,0.0,0.0
11.02,285.51957120000003,0.2709672,0.2709672,-0.7668768,0.0,0.0,0.0,0.0
11.04,285.690564,0.2709672,0.37947600000000004,-0.6900672,0.0,0.0,0.0,0.0
11.059999999999999,285.792672,0.2170176,0.2170176,-0.6135624,0.0,0.0,0.0,0.0
11.08,285.93348960000003,0.1085088,0.1085088,-0.5367528,0.0,0.0,0.0,0.0
11.1,286.0596768,0.1085088,0.1085088,-0.6900672,0.0,0.0,0.0,0.0
11.120000000000001,286.2221352,-0.7589520000000001,0.3252216,-0.996696,0.0,0.0,0.0,0.0
11.14,286.3056504,0.1085088,0.0,-0.6135624,0.0,0.0,0.0,0.0
11.16,286.4199504,-0.37947600000000004,0.37947600000000004,-0.0768096,0.0,0.0,0.0,0.0
11.18,286.524192,-109.6834992,-10.355580000000002,-154.809444,0.0,0.0,0.0,0.0
11.2,286.6238616,50.2060464,-2.3856696,156.9561504,0.0,0.0,0.0,0.0
11.219999999999999,286.71895920000003,-3.7411152,-4.8252888,5.367223200000001,0.0,0.0,0.0,0.0
11.239999999999998,286.8094848,0.7589520000000001,-3.2531304000000003,-0.30662880000000003,0.0,0.0,0.0,0.0
11.26,286.8951336,1.4097000000000002,-3.0361128,-2.4536400000000005,0.0,0.0,0.0,0.0
11.28,287.24900640000004,2.1143976,-3.957828,-2.3768304000000002,0.0,0.0,0.0,0.0
11.3,287.5867248,2.0061936,-5.9097672,-4.4473368,0.0,0.0,0.0,0.0
11.32,287.6745072,2.2771608000000003,-8.1326736,-6.1341,0.0,0.0,0.0,0.0
11.34,287.82081120000004,10.4098344,0.1085088,-38.4148584,0.0,0.0,0.0,0.0
11.36,287.9677248,-1.8434304000000001,-6.2892432000000005,-28.446984,0.0,0.0,0.0,0.0
11.379999999999999,288.2505792,-3.5240976,-3.6326064,-11.04138,0.0,0.0,0.0,0.0
11.399999999999999,288.5230704,-1.3011912,-2.0601432,-28.753612800000003,0.0,0.0,0.0,0.0
11.42,288.7129608,26.241756000000002,-11.7110256,-135.41014320000002,0.0,0.0,0.0,0.0
11.44,288.90650880000004,17.729301600000003,9.379915200000001,-85.87740000000001,0.0,0.0,0.0,0.0
11.46,289.1037144,3.4698432,-62.567820000000005,-121.8386184,0.0,0.0,0.0,0.0
11.48,289.3045776,17.40408,-5.367528,17.942356800000002,0.0,0.0,0.0,0.0
11.5,289.8230424,-3.4158936000000004,1.1387328,31.2837576,0.0,0.0,0.0,0.0
11.52,290.4140496,2.0601432,5.421782400000001,12.2682,0.0,0.0,0.0,0.0
11.54,290.81547120000005,6.506260800000001,8.1326736,-15.565221600000001,0.0,0.0,0.0,0.0
11.559999999999999,291.100764,-1.789176,-0.7046976,-23.6162088,0.0,0.0,0.0,0.0
11.58,291.1751352,5.476036800000001,-2.2229064000000003,-4.2937176,0.0,0.0,0.0,0.0
11.6,291.0068856,2.7108912000000003,-1.5182088,10.734751200000002,0.0,0.0,0.0,0.0
11.620000000000001,291.09162000000003,2.8736544000000004,-4.5000672,6.1341,0.0,0.0,0.0,0.0
11.64,291.2092728,2.1143976,-2.8736544000000004,-5.4440328000000004,0.0,0.0,0.0,0.0
11.66,291.01145759999997,2.3856696,-0.9759696,-8.741054400000001,0.0,0.0,0.0,0.0
11.68,290.6728248,5.5302912,-1.4097000000000002,-1.4569440000000002,0.0,0.0,0.0,0.0
11.7,290.4478824,9.108643200000001,-2.9279088,2.683764,0.0,0.0,0.0,0.0
11.719999999999999,290.2668312,16.4281104,-3.4158936000000004,-3.8337744,0.0,0.0,0.0,0.0
11.739999999999998,290.1875832,25.591008,-4.554321600000001,-13.1883912,0.0,0.0,0.0,0.0
11.76,290.07815999999997,32.639508,-6.397752,-16.178784,0.0,0.0,0.0,0.0
11.78,290.0787696,35.7298752,-10.0303584,-16.5622224,0.0,0.0,0.0,0.0
11.8,289.9672128,22.012656,-8.4582,-15.565221600000001,0.0,0.0,0.0,0.0
11.82,289.56304800000004,11.2230408,-6.343497600000001,-11.8082568,0.0,0.0,0.0,0.0
11.84,289.2829368,6.5605152,-4.2833544,-4.677156,0.0,0.0,0.0,0.0
11.86,288.97783200000003,4.7713392,-2.8194000000000004,-0.0768096,0.0,0.0,0.0,0.0
11.879999999999999,288.715704,2.6023824,-1.6264128000000002,-1.1500104,0.0,0.0,0.0,0.0
11.899999999999999,288.4822272,0.7046976,-1.4639544,-3.7572696000000003,0.0,0.0,0.0,0.0
11.92,288.2265,0.1085088,-1.0844784,-2.8370784000000002,0.0,0.0,0.0,0.0
11.94,288.0295992,0.2170176,-0.7589520000000001,-0.23012400000000002,0.0,0.0,0.0,0.0
11.96,287.810448,0.0542544,-0.4879848,-0.0768096,0.0,0.0,0.0,0.0
11.98,287.6714592,-0.3252216,-0.4337304,-1.9936968000000002,0.0,0.0,0.0,0.0
12.0,287.5794096,-0.4337304,-0.4337304,-2.7602688,0.0,0.0,0.0,0.0
12.02,287.5001616,-0.2709672,-0.37947600000000004,-1.7635728,0.0,0.0,0.0,0.0
12.04,287.4334104,-0.0542544,-0.16276320000000002,-1.2268200000000002,0.0,0.0,0.0,0.0
12.059999999999999,287.4358488,0.0542544,-0.0542544,-2.223516,0.0,0.0,0.0,0.0
12.08,287.473644,0.16276320000000002,-0.0542544,-3.2205168000000004,0.0,0.0,0.0,0.0
12.1,287.58916320000003,0.7046976,-0.0542544,-3.2970216000000003,0.0,0.0,0.0,0.0
12.120000000000001,287.767776,0.9217152000000001,0.0542544,-2.9903928,0.0,0.0,0.0,0.0
12.14,287.8878672,0.8132064000000001,0.37947600000000004,-3.2970216000000003,0.0,0.0,0.0,0.0
12.16,288.040572,0.9759696,0.8674608,-4.0638984,0.0,0.0,0.0,0.0
12.18,288.3033096,1.3554456000000001,1.030224,-4.370527200000001,0.0,0.0,0.0,0.0
12.2,288.4468704,1.7349216,1.4097000000000002,-4.0638984,0.0,0.0,0.0,0.0
12.219999999999999,288.5599512,1.7349216,2.1686520000000002,-3.910584,0.0,0.0,0.0,0.0
12.239999999999998,288.7175328,2.2771608000000003,2.8194000000000004,-3.8337744,0.0,0.0,0.0,0.0
12.26,288.703512,3.6326064,2.6566368,-3.2970216000000003,0.0,0.0,0.0,0.0
12.28,288.5392248,4.0663368,-0.5964936000000001,-1.9936968000000002,0.0,0.0,0.0,0.0
12.3,288.1143336,2.3314152,-0.5964936000000001,-0.9201912000000001,0.0,0.0,0.0,0.0
12.32,287.78575920000003,2.2229064000000003,-0.7046976,-1.2268200000000002,0.0,0.0,0.0,0.0
12.34,287.2761336,2.2771608000000003,-0.2170176,0.6135624,0.0,0.0,0.0,0.0
12.36,286.7506584,3.198876,1.3554456000000001,2.3768304000000002,0.0,0.0,0.0,0.0
12.379999999999999,286.327596,4.2291,1.7349216,-1.6867632000000001,0.0,0.0,0.0,0.0
12.399999999999999,286.00908000000004,5.3132736,0.5422392,-6.8241672,0.0,0.0,0.0,0.0
12.42,285.6957456,6.885736800000001,0.4879848,-5.9807856,0.0,0.0,0.0,0.0
12.44,285.4872624,12.144756000000001,-1.6264128000000002,-3.2205168000000004,0.0,0.0,0.0,0.0
12.46,285.2376312,16.9160952,-2.7108912000000003,-5.4440328000000004,0.0,0.0,0.0,0.0
12.48,285.23366880000003,19.844004,-2.0601432,-10.811256,0.0,0.0,0.0,0.0
12.5,285.1958736,19.6269864,-1.4097000000000002,-12.114885600000001,0.0,0.0,0.0,0.0
12.52,285.2693304,20.1149712,-1.1387328,-8.6645496,0.0,0.0,0.0,0.0
12.54,285.2842656,21.253704000000003,-1.3011912,-8.1277968,0.0,0.0,0.0,0.0
12.559999999999999,285.3534552,16.590873600000002,-0.5422392,-10.9645704,0.0,0.0,0.0,0.0
12.58,285.493968,9.813645600000001,0.7046976,-7.8976728000000005,0.0,0.0,0.0,0.0
12.6,285.75304800000004,6.397752,1.4097000000000002,-2.5304496,0.0,0.0,0.0,0.0
12.620000000000001,286.0599816,3.3616392,2.1686520000000002,-1.1500104,0.0,0.0,0.0,0.0
12.64,286.3163184,2.1686520000000002,2.1686520000000002,-1.5334488,0.0,0.0,0.0,0.0
12.66,286.4272656,3.2531304000000003,3.4698432,0.0768096,0.0,0.0,0.0,0.0
12.68,286.4001384,4.988052,3.9035736000000005,1.3036296,0.0,0.0,0.0,0.0
12.7,286.2410328,8.3496912,1.1926824,-2.683764,0.0,0.0,0.0,0.0
12.719999999999999,286.1383152,11.1148368,-1.030224,-5.903976000000001,0.0,0.0,0.0,0.0
12.739999999999998,285.99018240000004,13.825728,-2.3314152,-2.6069544000000002,0.0,0.0,0.0,0.0
12.759999999999998,285.9261744,16.1571432,-3.3616392,0.996696,0.0,0.0,0.0,0.0
12.780000000000001,285.83382,10.5725976,-0.9217152000000001,-0.6135624,0.0,0.0,0.0,0.0
12.8,285.53755440000003,9.813645600000001,-0.8132064000000001,-2.4536400000000005,0.0,0.0,0.0,0.0
12.82,285.3208416,10.4098344,-0.7589520000000001,-0.6900672,0.0,0.0,0.0,0.0
12.84,285.007812,9.7593912,-0.5422392,0.7668768,0.0,0.0,0.0,0.0
12.86,284.58779760000004,9.4338648,0.2170176,-0.3834384,0.0,0.0,0.0,0.0
12.879999999999999,284.2302672,9.0001344,0.9759696,-1.7635728,0.0,0.0,0.0,0.0
12.899999999999999,283.8885864,9.4338648,1.3011912,-1.8400776,0.0,0.0,0.0,0.0
12.919999999999998,283.6508424,6.7229735999999995,0.9759696,-1.3036296,0.0,0.0,0.0,0.0
12.940000000000001,283.3957248,7.753197600000001,1.1387328,-1.5334488,0.0,0.0,0.0,0.0
12.96,283.27502400000003,9.7593912,1.7349216,-3.1437072,0.0,0.0,0.0,0.0
12.98,283.279596,11.3315496,1.1387328,-5.2139088000000005,0.0,0.0,0.0,0.0
13.0,283.3561008,10.8978192,-0.16276320000000002,-5.2907184,0.0,0.0,0.0,0.0
13.02,283.442664,10.843564800000001,-0.9759696,-2.9135831999999997,0.0,0.0,0.0,0.0
13.04,283.66913040000003,13.174980000000001,-1.789176,-1.0735056,0.0,0.0,0.0,0.0
13.059999999999999,283.7812968,10.355580000000002,-1.5724632,-3.1437072,0.0,0.0,0.0,0.0
13.079999999999998,283.9376592,10.4098344,-2.4941784,-3.5271456,0.0,0.0,0.0,0.0
13.100000000000001,284.04403440000004,9.4338648,-2.3856696,0.0768096,0.0,0.0,0.0,0.0
13.120000000000001,284.212284,8.7834216,-2.3856696,1.5334488,0.0,0.0,0.0,0.0
13.14,284.11627200000004,7.6989432,-2.2771608000000003,-0.3834384,0.0,0.0,0.0,0.0
13.16,284.0970696,5.0423064,-1.1387328,-1.3036296,0.0,0.0,0.0,0.0
13.18,283.96935840000003,6.668719200000001,-2.4399240000000004,-0.5367528,0.0,0.0,0.0,0.0
13.2,283.6919904,8.024164800000001,-2.8194000000000004,-2.0702016,0.0,0.0,0.0,0.0
13.219999999999999,283.1509704,13.7172192,-4.0663368,-6.0572904,0.0,0.0,0.0,0.0
13.239999999999998,282.5986728,21.470416800000002,-5.205069600000001,-10.888065600000001,0.0,0.0,0.0,0.0
13.259999999999998,281.88178320000003,26.621232000000003,-7.6446888,-10.044684,0.0,0.0,0.0,0.0
13.280000000000001,281.2401792,23.151084,-7.970215200000001,-3.910584,0.0,0.0,0.0,0.0
13.3,280.60741440000004,21.470416800000002,-7.048500000000001,-0.996696,0.0,0.0,0.0,0.0
13.32,280.0618224,15.235428,-4.7170848,-2.223516,0.0,0.0,0.0,0.0
13.34,279.7771392,18.6510168,-5.096560800000001,-5.2907184,0.0,0.0,0.0,0.0
13.36,279.5509776,25.3742952,-5.421782400000001,-7.2841104,0.0,0.0,0.0,0.0
13.379999999999999,279.21417360000004,24.45258,-2.4399240000000004,-9.6612456,0.0,0.0,0.0,0.0
13.399999999999999,278.9297952,25.0487688,-1.9519392,-10.5814368,0.0,0.0,0.0,0.0
13.419999999999998,278.7764808,15.8316168,-0.8674608,-8.2811112,0.0,0.0,0.0,0.0
13.440000000000001,278.6886984,13.5005064,0.2709672,-7.0542912,0.0,0.0,0.0,0.0
13.46,278.652732,11.6028216,0.7589520000000001,-9.1244928,0.0,0.0,0.0,0.0
13.48,278.67102,11.657076,0.0542544,-9.047683200000002,0.0,0.0,0.0,0.0
13.5,278.821896,17.837810400000002,-2.6566368,-7.2841104,0.0,0.0,0.0,0.0
13.52,278.8926096,18.054828,-3.5240976,-6.9774816,0.0,0.0,0.0,0.0
13.54,278.8106184,16.1571432,-4.445812800000001,-6.8241672,0.0,0.0,0.0,0.0
13.559999999999999,278.8243344,13.608710400000001,-4.3915584,-5.6741568000000004,0.0,0.0,0.0,0.0
13.579999999999998,278.77312800000004,12.958267200000002,-4.608576,-6.2109096,0.0,0.0,0.0,0.0
13.600000000000001,278.858472,10.3013256,-4.012082400000001,-7.8208632,0.0,0.0,0.0,0.0
13.620000000000001,278.8145808,8.024164800000001,-2.7108912000000003,-9.891369599999999,0.0,0.0,0.0,0.0
13.64,278.6947944,8.566404,-2.9279088,-8.817864,0.0,0.0,0.0,0.0
13.66,278.6667528,14.855952000000002,-3.9035736000000005,-7.2076056,0.0,0.0,0.0,0.0
13.68,278.51983920000004,18.705271200000002,-5.367528,-8.817864,0.0,0.0,0.0,0.0
13.7,278.418036,13.283488800000002,-4.1748456,-4.7539656,0.0,0.0,0.0,0.0
13.719999999999999,278.2464336,8.5121496,-2.6566368,1.3801344,0.0,0.0,0.0,0.0
13.739999999999998,278.1351816,8.6206584,-1.4639544,2.0702016,0.0,0.0,0.0,0.0
13.759999999999998,277.9782096,10.0846128,-2.4941784,-1.9936968000000002,0.0,0.0,0.0,0.0
13.780000000000001,277.9041432,8.5121496,-1.6806672000000002,-2.8370784000000002,0.0,0.0,0.0,0.0
13.8,277.9004856,10.681106400000001,-1.5724632,-0.9201912000000001,0.0,0.0,0.0,0.0
13.82,277.73680800000005,9.379915200000001,0.0542544,-0.4599432,0.0,0.0,0.0,0.0
13.84,277.7060232,8.7834216,0.3252216,-4.0638984,0.0,0.0,0.0,0.0
13.86,277.6663992,17.9463192,1.4639544,-4.0638984,0.0,0.0,0.0,0.0
13.879999999999999,277.713948,-3.4158936000000004,0.4879848,-0.6135624,0.0,0.0,0.0,0.0
13.899999999999999,277.7989872,2.2771608000000003,2.1686520000000002,0.23012400000000002,0.0,0.0,0.0,0.0
13.919999999999998,277.8782352,8.1326736,3.9035736000000005,0.0,0.0,0.0,0.0,0.0
13.940000000000001,277.9017048,7.807452,2.3856696,-2.683764,0.0,0.0,0.0,0.0
13.96,278.021796,6.4520064,1.1387328,-3.9870888,0.0,0.0,0.0,0.0
13.98,278.0638584,4.988052,0.5422392,-2.3768304000000002,0.0,0.0,0.0,0.0
14.0,278.0909856,4.8795432000000005,0.4337304,-1.2268200000000002,0.0,0.0,0.0,0.0
14.02,278.0132616,4.988052,0.7589520000000001,-1.9168872,0.0,0.0,0.0,0.0
14.04,277.9583976,4.608576,0.4879848,-2.683764,0.0,0.0,0.0,0.0
14.059999999999999,278.1083592,3.957828,-0.7046976,-2.223516,0.0,0.0,0.0,0.0
14.079999999999998,278.0760504,3.6326064,-1.1387328,-2.0702016,0.0,0.0,0.0,0.0
14.100000000000001,277.94803440000004,3.3073848000000003,-0.5964936000000001,-2.683764,0.0,0.0,0.0,0.0
14.120000000000001,277.7267496,2.9818584,0.16276320000000002,-2.8370784000000002,0.0,0.0,0.0,0.0
14.14,277.52344800000003,2.7108912000000003,0.2170176,-2.3003256,0.0,0.0,0.0,0.0
14.16,277.4856528,2.3856696,0.0,-2.223516,0.0,0.0,0.0,0.0
14.18,277.3000296,1.3011912,-0.1085088,-3.2970216000000003,0.0,0.0,0.0,0.0
14.2,277.06990559999997,-7.6989432,0.4337304,-5.367223200000001,0.0,0.0,0.0,0.0
14.219999999999999,276.7977192,-7.5904344,-0.5422392,-6.1341,0.0,0.0,0.0,0.0
14.239999999999998,276.6322128,-12.686995200000002,-0.4337304,-7.130796,0.0,0.0,0.0,0.0
14.259999999999998,276.467316,1.8976848000000002,-2.7651456,-10.044684,0.0,0.0,0.0,0.0
14.280000000000001,276.62124,10.4098344,-2.9279088,-9.584436,0.0,0.0,0.0,0.0
14.3,277.0729536,17.9463192,-2.4399240000000004,-6.9774816,0.0,0.0,0.0,0.0
14.32,277.4432856,20.3319888,-0.7046976,-6.594043200000001,0.0,0.0,0.0,0.0
14.34,277.7240064,29.223614400000002,-6.885736800000001,-12.421514400000001,0.0,0.0,0.0,0.0
14.36,277.7511336,43.5373272,-11.006328,-28.1400504,0.0,0.0,0.0,0.0
14.379999999999999,277.5103416,61.7003592,-19.4102736,-16.715536800000002,0.0,0.0,0.0,0.0
14.399999999999999,277.01016480000004,50.9110488,-18.163032,-9.2013024,0.0,0.0,0.0,0.0
14.419999999999998,276.532848,22.771608,-5.638800000000001,2.8370784000000002,0.0,0.0,0.0,0.0
14.440000000000001,275.9473272,15.7234128,-2.2771608000000003,6.2109096,0.0,0.0,0.0,0.0
14.46,275.2292184,12.144756000000001,-2.0601432,-0.6135624,0.0,0.0,0.0,0.0
14.48,274.7674464,12.795504,-0.4337304,-4.2172128,0.0,0.0,0.0,0.0
14.5,274.3846176,17.40408,0.4879848,-1.5334488,0.0,0.0,0.0,0.0
14.52,274.111212,28.193390400000002,-1.5182088,-3.0672024,0.0,0.0,0.0,0.0
14.54,274.1045064,34.53719280000001,-7.1024496,-12.804952800000002,0.0,0.0,0.0,0.0
14.559999999999999,274.2520296,21.3076536,-8.0784192,-16.5622224,0.0,0.0,0.0,0.0
14.579999999999998,274.5550008,17.0788584,-7.8617064,-7.2076056,0.0,0.0,0.0,0.0
14.600000000000001,274.8637632,13.7172192,-12.3075192,-1.6102584000000002,0.0,0.0,0.0,0.0
14.620000000000001,275.21641680000005,8.295436800000001,-6.343497600000001,-3.8337744,0.0,0.0,0.0,0.0
14.64,275.33559360000004,7.5904344,-3.2531304000000003,-3.450336,0.0,0.0,0.0,0.0
14.66,275.5571832,8.837676,-1.2469368,2.0702016,0.0,0.0,0.0,0.0
14.68,275.6303352,12.036552,-1.3011912,2.0702016,0.0,0.0,0.0,0.0
14.7,275.5340184,10.789310400000002,0.2709672,-3.2205168000000004,0.0,0.0,0.0,0.0
14.719999999999999,275.3322408,10.3013256,0.7589520000000001,-4.677156,0.0,0.0,0.0,0.0
14.739999999999998,275.1746592,11.385804,1.1926824,-1.0735056,0.0,0.0,0.0,0.0
14.759999999999998,274.95855600000004,8.729167200000001,2.0061936,0.23012400000000002,0.0,0.0,0.0,0.0
14.780000000000001,274.7671416,7.915960800000001,2.6023824,-1.5334488,0.0,0.0,0.0,0.0
14.8,274.5757272,5.8555128,2.9279088,-1.9936968000000002,0.0,0.0,0.0,0.0
14.82,274.32121920000003,6.8314824000000005,3.7953696000000003,0.15331440000000002,0.0,0.0,0.0,0.0
14.84,274.1636376,6.9942456,2.9818584,0.5367528,0.0,0.0,0.0,0.0
14.86,273.89175600000004,10.735360799999999,2.4941784,-1.3801344,0.0,0.0,0.0,0.0
14.879999999999999,273.7356984,13.771473600000002,-0.650748,-3.450336,0.0,0.0,0.0,0.0
