time,baro_altitude,accl_x,accl_y,accl_z,gps_altitude,gyro_roll,gyro_pitch,gyro_yaw
0.0,0.0,-4.2833544,-7.427976000000001,4.523841600000001,0.0,0.0,0.0,0.0
0.019999999999999574,0.017373599999999982,-4.2291,-7.4822304,4.6006512,0.0,0.0,0.0,0.0
0.03999999999999915,0.0920496,-4.2833544,-7.427976000000001,4.677156,0.0,0.0,0.0,0.0
0.05999999999999961,0.1267968,-4.2291,-7.4822304,4.6006512,0.0,0.0,0.0,0.0
0.07999999999999918,0.1807464,-4.2291,-7.4822304,4.6006512,0.0,0.0,0.0,0.0
0.09999999999999964,0.2127504,-4.2833544,-7.5364848,4.523841600000001,0.0,0.0,0.0,0.0
0.11999999999999922,0.10759439999999999,-4.2291,-7.4822304,4.6006512,0.0,0.0,0.0,0.0
0.13999999999999968,0.028041599999999993,-4.3376088,-7.4822304,4.523841600000001,0.0,0.0,0.0,0.0
0.15999999999999925,-0.04541520000000001,-4.2291,-7.4822304,4.370527200000001,0.0,0.0,0.0,0.0
0.17999999999999972,0.01706879999999998,-4.3376088,-7.4822304,4.6006512,0.0,0.0,0.0,0.0
0.1999999999999993,-0.011887200000000011,-4.1748456,-7.6446888,4.523841600000001,0.0,0.0,0.0,0.0
0.21999999999999975,-0.015240000000000014,-4.1748456,-7.6446888,4.6006512,0.0,0.0,0.0,0.0
0.23999999999999932,-0.04846320000000001,-4.2833544,-7.5364848,4.677156,0.0,0.0,0.0,0.0
0.2599999999999998,0.028346399999999994,-4.2291,-7.4822304,4.6006512,0.0,0.0,0.0,0.0
0.27999999999999936,0.1408176,-4.3915584,-7.5364848,4.4473368,0.0,0.0,0.0,0.0
0.2999999999999998,0.2130552,-4.2833544,-7.427976000000001,4.7539656,0.0,0.0,0.0,0.0
0.3199999999999994,0.1335024,-4.3376088,-7.4822304,4.677156,0.0,0.0,0.0,0.0
0.33999999999999986,0.184404,-4.2833544,-7.5364848,4.677156,0.0,0.0,0.0,0.0
0.35999999999999943,0.1063752,-4.3376088,-7.3737216000000005,4.677156,0.0,0.0,0.0,0.0
0.3799999999999999,0.1069848,-4.3376088,-7.5904344,4.4473368,0.0,0.0,0.0,0.0
0.39999999999999947,0.1240536,-4.2291,-7.5904344,4.6006512,0.0,0.0,0.0,0.0
0.41999999999999993,0.3179064,-4.2291,-7.4822304,4.6006512,0.0,0.0,0.0,0.0
0.4399999999999995,0.2862072,-4.3376088,-7.5904344,4.4473368,0.0,0.0,0.0,0.0
0.45999999999999996,0.2718816,-4.3915584,-7.5364848,4.523841600000001,0.0,0.0,0.0,0.0
0.47999999999999954,0.18836640000000002,-4.2291,-7.5904344,4.4473368,0.0,0.0,0.0,0.0
0.5,0.1374648,-4.1748456,-7.6446888,4.6006512,0.0,0.0,0.0,0.0
0.5199999999999996,-0.036576,-4.3376088,-7.4822304,4.523841600000001,0.0,0.0,0.0,0.0
0.5399999999999996,0.1094232,-4.2291,-7.4822304,4.677156,0.0,0.0,0.0,0.0
0.5599999999999996,0.27523440000000005,-4.2291,-7.4822304,4.677156,0.0,0.0,0.0,0.0
0.5799999999999996,0.17343119999999998,-4.2291,-7.4822304,4.677156,0.0,0.0,0.0,0.0
0.5999999999999996,0.05943599999999999,-4.2833544,-7.427976000000001,4.677156,0.0,0.0,0.0,0.0
0.6199999999999997,0.16764,-4.2833544,-7.427976000000001,4.7539656,0.0,0.0,0.0,0.0
0.6399999999999997,0.2538984,-4.1748456,-7.5364848,4.6006512,0.0,0.0,0.0,0.0
0.6599999999999997,0.3855720000000001,-4.3915584,-7.427976000000001,4.677156,0.0,0.0,0.0,0.0
0.6799999999999997,0.37094160000000004,-4.2291,-7.3737216000000005,4.6006512,0.0,0.0,0.0,0.0
0.6999999999999997,0.38770560000000004,-4.2833544,-7.5364848,4.677156,0.0,0.0,0.0,0.0
0.7199999999999998,0.1831848,-4.2833544,-7.5364848,4.4473368,0.0,0.0,0.0,0.0
0.7399999999999998,0.20025360000000003,-4.2833544,-7.5364848,4.523841600000001,0.0,0.0,0.0,0.0
0.7599999999999998,0.2801112,-4.3915584,-7.6446888,4.6006512,0.0,0.0,0.0,0.0
0.7799999999999994,0.5431536,-4.3376088,-7.4822304,4.6006512,0.0,0.0,0.0,0.0
0.7999999999999994,0.5458968,-4.2291,-7.5904344,4.523841600000001,0.0,0.0,0.0,0.0
0.8199999999999994,0.4087368,-4.1748456,-7.6446888,4.523841600000001,0.0,0.0,0.0,0.0
0.8399999999999994,0.5282184,-4.3915584,-7.427976000000001,4.6006512,0.0,0.0,0.0,0.0
0.8599999999999994,0.5017008,-4.2291,-7.4822304,4.6006512,0.0,0.0,0.0,0.0
0.8799999999999994,0.477012,-4.2833544,-7.5364848,4.6006512,0.0,0.0,0.0,0.0
0.8999999999999995,0.3395472,-4.2291,-7.4822304,4.677156,0.0,0.0,0.0,0.0
0.9199999999999995,0.064008,-4.2291,-7.4822304,4.6006512,0.0,0.0,0.0,0.0
0.9399999999999995,0.24749759999999998,-4.2833544,-7.427976000000001,4.677156,0.0,0.0,0.0,0.0
0.9599999999999995,0.049682400000000015,-4.2291,-7.4822304,4.677156,0.0,0.0,0.0,0.0
0.9799999999999995,0.01432559999999998,-4.2833544,-7.5364848,4.6006512,0.0,0.0,0.0,0.0
0.9999999999999996,0.00975360000000001,-4.2291,-7.4822304,4.523841600000001,0.0,0.0,0.0,0.0
1.0199999999999996,0.0957072,-4.2291,-7.5904344,4.6006512,0.0,0.0,0.0,0.0
1.0399999999999996,0.020421599999999984,-4.3915584,-7.5364848,4.370527200000001,0.0,0.0,0.0,0.0
1.0599999999999996,0.149352,-4.2833544,-7.5364848,4.6006512,0.0,0.0,0.0,0.0
1.0799999999999996,0.1901952,-4.3376088,-7.4822304,4.6006512,0.0,0.0,0.0,0.0
1.0999999999999996,0.23926799999999998,-4.1748456,-7.5364848,4.6006512,0.0,0.0,0.0,0.0
1.1199999999999997,0.27828240000000004,-4.2833544,-7.5364848,4.523841600000001,0.0,0.0,0.0,0.0
1.1399999999999997,0.2913888,-4.3376088,-7.4822304,4.677156,0.0,0.0,0.0,0.0
1.1599999999999997,0.16794479999999998,-4.2291,-7.4822304,4.677156,0.0,0.0,0.0,0.0
1.1799999999999997,0.16885920000000001,-4.2833544,-7.5364848,4.523841600000001,0.0,0.0,0.0,0.0
1.1999999999999997,0.0713232,-4.2833544,-7.5364848,4.523841600000001,0.0,0.0,0.0,0.0
1.2199999999999998,0.16062959999999998,-4.2291,-7.4822304,4.677156,0.0,0.0,0.0,0.0
1.2399999999999998,0.15057120000000002,-4.2833544,-7.3194672,4.7539656,0.0,0.0,0.0,0.0
1.2599999999999998,0.11033760000000001,-4.3376088,-7.4822304,4.523841600000001,0.0,0.0,0.0,0.0
1.2799999999999994,0.3118104,-4.2833544,-7.5364848,4.4473368,0.0,0.0,0.0,0.0
1.2999999999999994,0.43677839999999996,-4.3915584,-7.427976000000001,4.6006512,0.0,0.0,0.0,0.0
1.3199999999999994,0.48097439999999997,-4.2291,-7.3737216000000005,4.7539656,0.0,0.0,0.0,0.0
1.3399999999999994,0.3435096,-4.3376088,-7.4822304,4.523841600000001,0.0,0.0,0.0,0.0
1.3599999999999994,0.3300984,-4.2833544,-7.6446888,4.523841600000001,0.0,0.0,0.0,0.0
1.3799999999999994,0.1987296,-4.2833544,-7.5364848,4.6006512,0.0,0.0,0.0,0.0
1.3999999999999995,0.176784,-4.2833544,-7.427976000000001,4.677156,0.0,0.0,0.0,0.0
1.4199999999999995,0.45872399999999997,-4.2833544,-7.5364848,4.677156,0.0,0.0,0.0,0.0
1.4399999999999995,0.580644,-4.2291,-7.5904344,4.4473368,0.0,0.0,0.0,0.0
1.4599999999999995,0.48889920000000003,-4.2833544,-7.5364848,4.677156,0.0,0.0,0.0,0.0
1.4799999999999995,0.46085760000000003,-4.2833544,-7.427976000000001,4.6006512,0.0,0.0,0.0,0.0
1.4999999999999996,0.20177759999999997,-4.3376088,-7.4822304,4.7539656,0.0,0.0,0.0,0.0
1.5199999999999996,0.1298448,-4.0663368,-7.5364848,4.523841600000001,0.0,0.0,0.0,0.0
1.5399999999999996,0.24201120000000004,-4.2291,-7.4822304,4.7539656,0.0,0.0,0.0,0.0
1.5599999999999996,0.20086320000000002,-4.3376088,-7.3737216000000005,4.677156,0.0,0.0,0.0,0.0
1.5799999999999996,0.36850320000000003,-4.2833544,-7.427976000000001,4.677156,0.0,0.0,0.0,0.0
1.5999999999999996,0.4696968,-4.2291,-7.5904344,4.523841600000001,0.0,0.0,0.0,0.0
1.6199999999999997,0.530352,-4.3915584,-7.427976000000001,4.523841600000001,0.0,0.0,0.0,0.0
1.6399999999999997,0.5733288000000001,-4.2833544,-7.427976000000001,4.677156,0.0,0.0,0.0,0.0
1.6599999999999997,0.470916,-4.2833544,-7.5364848,4.370527200000001,0.0,0.0,0.0,0.0
1.6799999999999997,0.5370576,-4.3376088,-7.5904344,4.4473368,0.0,0.0,0.0,0.0
1.6999999999999997,0.5519928000000001,-4.3915584,-7.5364848,4.4473368,0.0,0.0,0.0,0.0
1.7199999999999998,0.45933360000000006,-4.2833544,-7.5364848,4.523841600000001,0.0,0.0,0.0,0.0
1.7399999999999998,0.3179064,-4.2291,-7.4822304,4.6006512,0.0,0.0,0.0,0.0
1.7599999999999998,0.2898648,-4.1748456,-7.6446888,4.523841600000001,0.0,0.0,0.0,0.0
1.7799999999999994,0.2883408,-4.2833544,-7.5364848,4.523841600000001,0.0,0.0,0.0,0.0
1.7999999999999994,0.3227832,-4.2833544,-7.427976000000001,4.6006512,0.0,0.0,0.0,0.0
1.8199999999999994,0.2517648,-4.2833544,-7.427976000000001,4.7539656,0.0,0.0,0.0,0.0
1.8399999999999994,0.2325624,-4.2291,-7.3737216000000005,4.7539656,0.0,0.0,0.0,0.0
1.8599999999999994,0.1054608,-4.2291,-7.4822304,4.6006512,0.0,0.0,0.0,0.0
1.8799999999999994,0.02743199999999999,-4.2291,-7.4822304,4.523841600000001,0.0,0.0,0.0,0.0
1.8999999999999995,0.0384048,-4.2291,-7.3737216000000005,4.6006512,0.0,0.0,0.0,0.0
1.9199999999999995,0.004876800000000005,-4.2291,-7.4822304,4.6006512,0.0,0.0,0.0,0.0
1.9399999999999995,-0.1118616,-4.2833544,-7.5364848,4.677156,0.0,0.0,0.0,0.0
1.9599999999999995,-0.08381999999999998,-4.445812800000001,-7.4822304,4.4473368,0.0,0.0,0.0,0.0
1.9799999999999995,-0.10271759999999999,-4.3376088,-7.5904344,4.4473368,0.0,0.0,0.0,0.0
1.9999999999999996,0.1880616,-4.2291,-7.5904344,4.6006512,0.0,0.0,0.0,0.0
2.0199999999999996,0.35478719999999997,-4.2833544,-7.5364848,4.523841600000001,0.0,0.0,0.0,0.0
2.0399999999999996,0.2517648,-4.2291,-7.5904344,4.523841600000001,0.0,0.0,0.0,0.0
2.0599999999999996,0.26761440000000003,-4.2833544,-7.5364848,4.523841600000001,0.0,0.0,0.0,0.0
2.0799999999999996,0.277368,-4.2291,-7.4822304,4.6006512,0.0,0.0,0.0,0.0
2.0999999999999996,0.3148584,-4.2833544,-7.427976000000001,4.677156,0.0,0.0,0.0,0.0
2.1199999999999997,0.406908,-4.2833544,-7.5364848,4.6006512,0.0,0.0,0.0,0.0
2.1399999999999997,0.40843199999999996,-4.2291,-7.3737216000000005,4.6006512,0.0,0.0,0.0,0.0
2.1599999999999997,0.368808,-4.3376088,-7.4822304,4.6006512,0.0,0.0,0.0,0.0
2.1799999999999997,0.20116799999999999,-4.1748456,-7.427976000000001,4.7539656,0.0,0.0,0.0,0.0
2.1999999999999997,0.0673608,-4.2833544,-7.5364848,4.523841600000001,0.0,0.0,0.0,0.0
2.2199999999999998,0.1283208,-4.2833544,-7.5364848,4.4473368,0.0,0.0,0.0,0.0
2.2399999999999998,0.16245839999999998,-4.3915584,-7.6446888,4.523841600000001,0.0,0.0,0.0,0.0
2.26,0.2078736,-4.445812800000001,-7.3737216000000005,4.677156,0.0,0.0,0.0,0.0
2.2799999999999994,0.06065519999999999,-4.2833544,-7.5364848,4.6006512,0.0,0.0,0.0,0.0
2.2999999999999994,0.22768560000000002,-4.2291,-7.5904344,4.4473368,0.0,0.0,0.0,0.0
2.3199999999999994,0.22890480000000002,-4.2291,-7.4822304,4.6006512,0.0,0.0,0.0,0.0
2.3399999999999994,0.3465576,-4.120591200000001,-7.4822304,4.677156,0.0,0.0,0.0,0.0
2.3599999999999994,0.40233599999999997,-4.2291,-7.5904344,4.6006512,0.0,0.0,0.0,0.0
2.3799999999999994,0.3608832,-4.2291,-7.6989432,4.523841600000001,0.0,0.0,0.0,0.0
2.3999999999999995,0.24079200000000003,-4.2291,-7.4822304,4.677156,0.0,0.0,0.0,0.0
2.4199999999999995,0.2770632,-4.1748456,-7.427976000000001,4.677156,0.0,0.0,0.0,0.0
2.4399999999999995,0.3700272,-4.2291,-7.4822304,4.677156,0.0,0.0,0.0,0.0
2.4599999999999995,0.2950464,-4.3376088,-7.5904344,4.4473368,0.0,0.0,0.0,0.0
2.4799999999999995,0.1502664,-4.3915584,-7.427976000000001,4.677156,0.0,0.0,0.0,0.0
2.4999999999999996,-0.0789432,-4.2291,-7.4822304,4.677156,0.0,0.0,0.0,0.0
2.5199999999999996,-0.02103120000000002,-4.2833544,-7.427976000000001,4.677156,0.0,0.0,0.0,0.0
2.5399999999999996,0.0950976,-4.3915584,-7.427976000000001,4.523841600000001,0.0,0.0,0.0,0.0
2.5599999999999996,0.3243072,-4.2833544,-7.5364848,4.4473368,0.0,0.0,0.0,0.0
2.5799999999999996,0.39075360000000003,-4.2291,-7.4822304,4.677156,0.0,0.0,0.0,0.0
2.5999999999999996,0.406908,-4.2291,-7.4822304,4.7539656,0.0,0.0,0.0,0.0
2.6199999999999997,0.3172968,-4.2291,-7.5904344,4.523841600000001,0.0,0.0,0.0,0.0
2.6399999999999997,0.30906720000000004,-4.2291,-7.5904344,4.4473368,0.0,0.0,0.0,0.0
2.6599999999999993,0.20330160000000003,-4.3376088,-7.4822304,4.677156,0.0,0.0,0.0,0.0
2.6799999999999997,0.018287999999999985,-4.2833544,-7.5364848,4.677156,0.0,0.0,0.0,0.0
2.6999999999999993,-0.008839200000000009,-4.2833544,-7.5364848,4.523841600000001,0.0,0.0,0.0,0.0
2.7199999999999998,0.02468879999999999,-4.2291,-7.5904344,4.6006512,0.0,0.0,0.0,0.0
2.7399999999999993,0.007315200000000007,-4.2833544,-7.5364848,4.6006512,0.0,0.0,0.0,0.0
2.76,-0.08595360000000002,-4.3915584,-7.3194672,4.7539656,0.0,0.0,0.0,0.0
2.7799999999999994,-0.17129760000000002,-4.2833544,-7.5364848,4.677156,0.0,0.0,0.0,0.0
2.8,-0.04785360000000001,-4.2833544,-7.5364848,4.4473368,0.0,0.0,0.0,0.0
2.8199999999999994,-0.27523440000000005,-4.3915584,-7.3194672,4.6006512,0.0,0.0,0.0,0.0
2.84,-0.3660648,-4.3376088,-7.3737216000000005,4.7539656,0.0,0.0,0.0,0.0
2.8599999999999994,-0.1972056,-4.2833544,-7.5364848,4.4473368,0.0,0.0,0.0,0.0
2.88,-0.22280880000000003,-4.2833544,-7.5364848,4.4473368,0.0,0.0,0.0,0.0
2.8999999999999995,-0.05516880000000002,-4.2833544,-7.427976000000001,4.6006512,0.0,0.0,0.0,0.0
2.9199999999999995,0.112776,-4.2833544,-7.427976000000001,4.4473368,0.0,0.0,0.0,0.0
2.9399999999999995,0.0950976,-4.2291,-7.4822304,4.6006512,0.0,0.0,0.0,0.0
2.9599999999999995,0.07955279999999999,-4.1748456,-7.6446888,4.4473368,0.0,0.0,0.0,0.0
2.9799999999999995,0.1289304,-4.1748456,-7.427976000000001,4.6006512,0.0,0.0,0.0,0.0
2.9999999999999996,0.16276320000000002,-4.2291,-7.5904344,4.6006512,0.0,0.0,0.0,0.0
3.0199999999999996,-0.030479999999999993,-4.1748456,-7.5364848,4.6006512,0.0,0.0,0.0,0.0
3.0399999999999996,-0.15209520000000004,-4.2833544,-7.5364848,4.6006512,0.0,0.0,0.0,0.0
3.0599999999999996,-0.26273760000000007,-4.2833544,-7.5364848,4.6006512,0.0,0.0,0.0,0.0
3.0799999999999996,-0.1161288,-4.2833544,-7.427976000000001,4.677156,0.0,0.0,0.0,0.0
3.0999999999999996,-0.31059120000000007,-4.2833544,-7.427976000000001,4.7539656,0.0,0.0,0.0,0.0
3.1199999999999997,-0.37886640000000005,-4.2291,-7.5904344,4.523841600000001,0.0,0.0,0.0,0.0
3.1399999999999997,-0.40843199999999996,-4.3915584,-7.427976000000001,4.677156,0.0,0.0,0.0,0.0
3.1599999999999993,-0.6077712000000001,-4.3915584,-7.427976000000001,4.677156,0.0,0.0,0.0,0.0
3.1799999999999997,-0.4904232,-4.2833544,-7.5364848,4.523841600000001,0.0,0.0,0.0,0.0
3.1999999999999993,-0.5882640000000001,-4.3915584,-7.427976000000001,4.4473368,0.0,0.0,0.0,0.0
3.2199999999999998,-0.7732776,-4.2291,-7.4822304,4.6006512,0.0,0.0,0.0,0.0
3.2399999999999993,-0.7248144000000001,-4.2291,-7.5904344,4.523841600000001,0.0,0.0,0.0,0.0
3.26,-0.7933944,-4.120591200000001,-7.5904344,4.6006512,0.0,0.0,0.0,0.0
3.2799999999999994,-0.7555992,-4.1748456,-7.6446888,4.523841600000001,0.0,0.0,0.0,0.0
3.3,-0.4492752000000001,-4.2291,-7.5904344,4.4473368,0.0,0.0,0.0,0.0
3.3199999999999994,-0.1709928,-4.2291,-7.4822304,4.677156,0.0,0.0,0.0,0.0
3.34,-0.25298400000000004,-4.1748456,-7.5364848,4.6006512,0.0,0.0,0.0,0.0
3.3599999999999994,-0.2237232,-4.2291,-7.5904344,4.6006512,0.0,0.0,0.0,0.0
3.38,-0.24079200000000003,-4.3376088,-7.3737216000000005,4.677156,0.0,0.0,0.0,0.0
3.3999999999999995,-0.2417064,-4.3376088,-7.3737216000000005,4.6006512,0.0,0.0,0.0,0.0
3.4199999999999995,-0.2801112,-4.3915584,-7.3194672,4.6006512,0.0,0.0,0.0,0.0
3.4399999999999995,-0.36576000000000003,-4.2833544,-7.427976000000001,4.677156,0.0,0.0,0.0,0.0
3.4599999999999995,-0.38618160000000007,-4.1748456,-7.6446888,4.523841600000001,0.0,0.0,0.0,0.0
3.4799999999999995,-0.33710880000000004,-4.3915584,-7.427976000000001,4.6006512,0.0,0.0,0.0,0.0
3.4999999999999996,-0.33406080000000005,-4.3376088,-7.4822304,4.4473368,0.0,0.0,0.0,0.0
3.5199999999999996,-0.41727120000000006,-4.2291,-7.5904344,4.523841600000001,0.0,0.0,0.0,0.0
3.5399999999999996,-0.21732240000000003,-4.2833544,-7.427976000000001,4.6006512,0.0,0.0,0.0,0.0
3.5599999999999996,-0.2599944,-4.1748456,-7.6446888,4.6006512,0.0,0.0,0.0,0.0
3.5799999999999996,-0.13136880000000004,-4.2291,-7.4822304,4.6006512,0.0,0.0,0.0,0.0
3.5999999999999996,-0.1825752,-4.2291,-7.4822304,4.6006512,0.0,0.0,0.0,0.0
3.6199999999999997,-0.09692640000000002,-4.1748456,-7.5364848,4.523841600000001,0.0,0.0,0.0,0.0
3.6399999999999997,0.0003048000000000003,-4.3915584,-7.427976000000001,4.6006512,0.0,0.0,0.0,0.0
3.6599999999999997,-0.012801600000000012,-4.3376088,-7.3737216000000005,4.6006512,0.0,0.0,0.0,0.0
3.6799999999999997,0.1377696,-4.3376088,-7.4822304,4.6006512,0.0,0.0,0.0,0.0
3.6999999999999997,0.0996696,-4.3376088,-7.4822304,4.6006512,0.0,0.0,0.0,0.0
3.7199999999999998,0.09479280000000001,-4.3376088,-7.4822304,4.4473368,0.0,0.0,0.0,0.0
3.7399999999999993,0.0841248,-4.2833544,-7.427976000000001,4.677156,0.0,0.0,0.0,0.0
3.76,0.004267200000000004,-4.3376088,-7.4822304,4.677156,0.0,0.0,0.0,0.0
3.7799999999999994,-0.062484000000000026,-4.1748456,-7.5364848,4.523841600000001,0.0,0.0,0.0,0.0
3.8,-0.1837944,-4.2291,-7.4822304,4.6006512,0.0,0.0,0.0,0.0
3.8199999999999994,-0.27828240000000004,-4.1748456,-7.6446888,4.6006512,0.0,0.0,0.0,0.0
3.8399999999999994,-0.1825752,-4.3376088,-7.4822304,4.6006512,0.0,0.0,0.0,0.0
3.8599999999999994,-0.40142160000000005,-4.3376088,-7.4822304,4.6006512,0.0,0.0,0.0,0.0
3.8799999999999994,-0.4050792000000001,-4.2833544,-7.427976000000001,4.523841600000001,0.0,0.0,0.0,0.0
3.8999999999999995,-0.283464,-4.3915584,-7.3194672,4.6006512,0.0,0.0,0.0,0.0
3.9199999999999995,-0.3636264,-4.3376088,-7.3737216000000005,4.6006512,0.0,0.0,0.0,0.0
3.9399999999999995,-0.18989040000000001,-4.3376088,-7.4822304,4.523841600000001,0.0,0.0,0.0,0.0
3.9599999999999995,-0.29778960000000004,-4.2833544,-7.5364848,4.4473368,0.0,0.0,0.0,0.0
3.9799999999999995,-0.2139696,-4.3376088,-7.4822304,4.677156,0.0,0.0,0.0,0.0
3.9999999999999996,-0.16245839999999998,-4.2833544,-7.427976000000001,4.677156,0.0,0.0,0.0,0.0
4.02,-0.20330160000000003,-4.2833544,-7.5364848,4.6006512,0.0,0.0,0.0,0.0
4.039999999999999,-0.21976080000000003,-4.2833544,-7.427976000000001,4.6006512,0.0,0.0,0.0,0.0
4.06,-0.28315920000000006,-4.3376088,-7.4822304,4.6006512,0.0,0.0,0.0,0.0
4.079999999999999,-0.39776400000000006,-4.2833544,-7.427976000000001,4.6006512,0.0,0.0,0.0,0.0
4.1,-0.4514088,-4.2833544,-7.5364848,4.677156,0.0,0.0,0.0,0.0
4.119999999999999,-0.39166800000000007,-4.2291,-7.5904344,4.6006512,0.0,0.0,0.0,0.0
4.14,-0.3383280000000001,-4.2291,-7.4822304,4.6006512,0.0,0.0,0.0,0.0
4.159999999999999,-0.41087039999999997,-4.3376088,-7.4822304,4.6006512,0.0,0.0,0.0,0.0
4.18,-0.18409920000000005,-4.2291,-7.4822304,4.523841600000001,0.0,0.0,0.0,0.0
4.199999999999999,-0.08808719999999998,-4.3376088,-7.4822304,4.523841600000001,0.0,0.0,0.0,0.0
4.22,-0.28133040000000004,-4.3376088,-7.4822304,4.6006512,0.0,0.0,0.0,0.0
4.239999999999999,-0.3691128,-4.3376088,-7.4822304,4.6006512,0.0,0.0,0.0,0.0
4.26,-0.6376416,-4.3376088,-7.5904344,4.523841600000001,0.0,0.0,0.0,0.0
4.279999999999999,-0.446532,-4.2833544,-7.5364848,4.6006512,0.0,0.0,0.0,0.0
4.3,-0.2740152,-4.2833544,-7.5364848,4.6006512,0.0,0.0,0.0,0.0
4.319999999999999,-0.1709928,-4.2833544,-7.6446888,4.6006512,0.0,0.0,0.0,0.0
4.34,-0.22494240000000001,-4.1748456,-7.6446888,4.6006512,0.0,0.0,0.0,0.0
4.359999999999999,0.109728,-4.2291,-7.5904344,4.6006512,0.0,0.0,0.0,0.0
4.38,0.35143440000000004,-4.2291,-7.4822304,4.677156,0.0,0.0,0.0,0.0
4.3999999999999995,0.48006,-4.3376088,-7.4822304,4.6006512,0.0,0.0,0.0,0.0
4.42,0.5650992,-4.1748456,-7.5364848,4.4473368,0.0,0.0,0.0,0.0
4.4399999999999995,0.598932,-4.2291,-7.5904344,4.523841600000001,0.0,0.0,0.0,0.0
4.46,0.542544,-4.2291,-7.4822304,4.6006512,0.0,0.0,0.0,0.0
4.4799999999999995,0.5666232,-4.2833544,-7.5364848,4.677156,0.0,0.0,0.0,0.0
4.5,0.4383024,-4.2291,-7.5904344,4.6006512,0.0,0.0,0.0,0.0
4.52,0.2923032,-4.2833544,-7.5364848,4.523841600000001,0.0,0.0,0.0,0.0
4.539999999999999,0.3706368,-4.445812800000001,-7.4822304,4.523841600000001,0.0,0.0,0.0,0.0
4.56,0.3953256,-4.3915584,-7.427976000000001,4.523841600000001,0.0,0.0,0.0,0.0
4.579999999999999,0.41026080000000004,-2.548128,-8.295436800000001,5.367223200000001,0.0,0.0,0.0,0.0
4.6,-1.9891248000000001,-37.0310664,-10.138867200000002,-3.450336,0.0,0.0,0.0,0.0
4.619999999999999,-2.5965911999999998,-22.175419200000004,-54.4894008,28.370174400000003,0.0,0.0,0.0,0.0
4.64,-1.9226784000000001,-37.410542400000004,-40.98889440000001,42.095318400000004,0.0,0.0,0.0,0.0
4.659999999999999,-1.3548360000000002,-42.452848800000005,-88.1048784,43.0920144,0.0,0.0,0.0,0.0
4.68,-0.6879336,-37.6818144,-93.5266608,59.5774272,0.0,0.0,0.0,0.0
4.699999999999999,0.1700784,-42.1276272,-96.67128240000001,51.909878400000004,0.0,0.0,0.0,0.0
4.72,0.9293352,-40.6094184,-91.89994320000001,61.341,0.0,0.0,0.0,0.0
4.739999999999999,1.641348,-37.8442728,-95.31583680000001,52.523136,0.0,0.0,0.0,0.0
4.76,2.3143464000000002,-50.74828560000001,-87.399876,51.83306880000001,0.0,0.0,0.0,0.0
4.779999999999999,2.9910023999999997,-38.6035296,-106.0508928,66.63171840000001,0.0,0.0,0.0,0.0
4.8,3.6091368000000004,-32.043014400000004,-86.369652,52.4466312,0.0,0.0,0.0,0.0
4.819999999999999,4.1023032,-38.4407664,-84.63473040000001,49.456238400000004,0.0,0.0,0.0,0.0
4.84,4.4933616,-40.501214399999995,-83.7672696,48.3059232,0.0,0.0,0.0,0.0
4.859999999999999,5.111496,-42.34434,-89.2975608,46.4658456,0.0,0.0,0.0,0.0
4.88,5.724144,-36.4888272,-83.7672696,46.0059024,0.0,0.0,0.0,0.0
4.8999999999999995,6.5894712,-36.2721144,-79.863696,46.389036,0.0,0.0,0.0,0.0
4.92,7.5355704,-36.21786,-77.53228080000001,47.3092272,0.0,0.0,0.0,0.0
4.9399999999999995,8.7642192,-33.2356968,-78.9959304,47.38603680000001,0.0,0.0,0.0,0.0
4.96,9.9724464,-30.091075200000002,-76.2850392,45.8522832,0.0,0.0,0.0,0.0
4.9799999999999995,10.8213144,-28.030932000000004,-75.634596,49.456238400000004,0.0,0.0,0.0,0.0
5.0,11.5223544,-21.470416800000002,-84.1467456,50.6062488,0.0,0.0,0.0,0.0
5.02,12.487656,-19.464223200000003,-73.35743520000001,50.7595632,0.0,0.0,0.0,0.0
5.039999999999999,13.694359200000001,-17.837810400000002,-70.4295264,51.0664968,0.0,0.0,0.0,0.0
5.06,14.8016976,-16.373856,-76.8815328,52.906574400000004,0.0,0.0,0.0,0.0
5.08,15.375636,-26.0789928,-71.7307176,49.3794288,0.0,0.0,0.0,0.0
5.1,15.9453072,-23.6933232,-75.9598176,50.7595632,0.0,0.0,0.0,0.0
5.119999999999999,16.5838632,-30.091075200000002,-65.1162528,49.456238400000004,0.0,0.0,0.0,0.0
5.14,17.2324776,-29.3321232,-71.51400480000001,47.1559128,0.0,0.0,0.0,0.0
5.159999999999999,18.0377592,-31.121299200000003,-71.5682592,48.076104,0.0,0.0,0.0,0.0
5.18,19.008852,-30.633314400000003,-69.8872872,39.7949928,0.0,0.0,0.0,0.0
5.199999999999999,20.204277600000005,-30.9042816,-68.4236376,39.3350496,0.0,0.0,0.0,0.0
5.22,21.671889600000004,-33.452714400000005,-74.8753392,41.481756000000004,0.0,0.0,0.0,0.0
5.239999999999999,23.070312,-27.109216800000002,-63.218568000000005,45.085711200000006,0.0,0.0,0.0,0.0
5.26,24.5946168,-24.9945144,-61.320883200000004,44.5489584,0.0,0.0,0.0,0.0
5.279999999999999,26.0890512,-24.3983256,-60.399168,42.938700000000004,0.0,0.0,0.0,0.0
5.3,27.4688808,-19.6269864,-63.001550400000006,39.1814304,0.0,0.0,0.0,0.0
5.319999999999999,28.8420048,-19.464223200000003,-56.549544000000004,46.695969600000005,0.0,0.0,0.0,0.0
5.34,30.0718728,-27.705405600000002,-63.1643136,56.0502816,0.0,0.0,0.0,0.0
5.359999999999999,31.773571200000003,-20.3859384,-56.7123072,40.638374400000004,0.0,0.0,0.0,0.0
5.38,33.147,-22.2293688,-57.6882768,38.4148584,0.0,0.0,0.0,0.0
5.3999999999999995,34.520428800000005,-22.9343712,-57.851040000000005,39.3350496,0.0,0.0,0.0,0.0
5.42,35.6536752,-18.054828,-57.200292,37.1880384,0.0,0.0,0.0,0.0
5.4399999999999995,36.6982248,-24.5065296,-52.4832072,35.7310944,0.0,0.0,0.0,0.0
5.459999999999999,37.954305600000005,-19.7354952,-51.29052480000001,31.130443200000002,0.0,0.0,0.0,0.0
5.4799999999999995,39.4621512,-22.9886256,-44.8927728,37.3413528,0.0,0.0,0.0,0.0
5.5,40.741396800000004,-16.753332,-52.21224000000001,35.57778,0.0,0.0,0.0,0.0
5.52,41.884092,-15.6691584,-51.561492,28.370174400000003,0.0,0.0,0.0,0.0
5.539999999999999,43.0405032,-15.235428,-46.0312008,28.9837368,0.0,0.0,0.0,0.0
5.56,44.4730632,-13.9342368,-53.0797008,29.980432800000003,0.0,0.0,0.0,0.0
5.58,46.020227999999996,-19.518477600000004,-39.145464000000004,32.510577600000005,0.0,0.0,0.0,0.0
5.6,47.436328800000005,-19.789749600000004,-40.826436,31.590691200000002,0.0,0.0,0.0,0.0
5.619999999999999,48.833532000000005,-15.6691584,-40.826436,30.593690400000003,0.0,0.0,0.0,0.0
5.64,50.0234712,-17.024604,-35.458908,30.6705,0.0,0.0,0.0,0.0
5.659999999999999,51.190245600000004,-24.5065296,-40.44696,27.910231200000002,0.0,0.0,0.0,0.0
5.68,52.02936,-18.9222888,-29.115105600000003,19.935748800000002,0.0,0.0,0.0,0.0
5.699999999999999,53.2601424,-12.5787912,-32.964729600000005,23.999647200000002,0.0,0.0,0.0,0.0
5.72,54.2775648,-5.3132736,-36.7600992,20.625816,0.0,0.0,0.0,0.0
5.739999999999999,55.724755200000004,-10.138867200000002,-37.4647968,21.392692800000003,0.0,0.0,0.0,0.0
5.76,57.1588392,-16.1571432,-32.4224904,18.708928800000002,0.0,0.0,0.0,0.0
5.779999999999999,57.921144000000005,-19.3017648,-24.9405648,19.398996,0.0,0.0,0.0,0.0
5.8,59.0098896,-13.771473600000002,-25.157277600000004,20.5493112,0.0,0.0,0.0,0.0
5.819999999999999,60.499447200000006,-12.686995200000002,-23.747577600000003,19.0923672,0.0,0.0,0.0,0.0
5.84,62.295024000000005,-15.6691584,-20.1149712,18.4791096,0.0,0.0,0.0,0.0
5.859999999999999,64.16984880000001,-3.3073848000000003,-24.7778016,19.859244,0.0,0.0,0.0,0.0
5.88,65.8904448,-9.1628976,-18.9222888,17.942356800000002,0.0,0.0,0.0,0.0
5.8999999999999995,67.4144448,-3.578352,-21.904147200000004,14.108277600000001,0.0,0.0,0.0,0.0
5.92,69.1258968,-16.753332,-16.970349600000002,12.958267200000002,0.0,0.0,0.0,0.0
5.9399999999999995,70.45665360000001,-9.108643200000001,-29.16936,13.341705600000001,0.0,0.0,0.0,0.0
5.959999999999999,71.8181952,-7.1024496,-14.259458400000002,13.111581600000001,0.0,0.0,0.0,0.0
5.9799999999999995,73.21905600000001,-12.4702824,-10.626852000000001,12.421514400000001,0.0,0.0,0.0,0.0
6.0,74.6888016,-8.186928,-15.6691584,10.044684,0.0,0.0,0.0,0.0
6.02,76.3231392,-6.343497600000001,-17.729301600000003,8.4344256,0.0,0.0,0.0,0.0
6.039999999999999,77.8471392,-4.120591200000001,-13.662964800000001,14.185087200000002,0.0,0.0,0.0,0.0
6.06,79.62016080000001,-9.813645600000001,-11.873788800000002,9.737750400000001,0.0,0.0,0.0,0.0
6.08,81.3895248,-11.0605824,-7.5904344,2.0702016,0.0,0.0,0.0,0.0
6.1,83.079336,-2.9818584,-11.5485672,11.194694400000001,0.0,0.0,0.0,0.0
6.119999999999999,84.8416896,-2.9279088,-14.313712800000001,7.744358400000001,0.0,0.0,0.0,0.0
6.14,86.8189272,8.241182400000001,-17.6750472,5.9807856,0.0,0.0,0.0,0.0
6.159999999999999,88.62822,-1.1387328,-4.0663368,13.49502,0.0,0.0,0.0,0.0
6.18,90.2305536,1.7349216,-10.843564800000001,5.750661600000001,0.0,0.0,0.0,0.0
6.199999999999999,91.7259024,-4.7170848,-6.777228,5.5205376,0.0,0.0,0.0,0.0
6.22,93.96770640000001,-4.0663368,-2.7651456,5.367223200000001,0.0,0.0,0.0,0.0
6.239999999999999,95.4786,-2.9818584,1.2469368,3.6036504000000003,0.0,0.0,0.0,0.0
6.26,96.48139200000001,0.0542544,-0.2709672,-0.15331440000000002,0.0,0.0,0.0,0.0
6.279999999999999,98.00112480000001,-0.7046976,1.8976848000000002,-0.4599432,0.0,0.0,0.0,0.0
6.3,100.0143288,1.1926824,0.8674608,-0.9201912000000001,0.0,0.0,0.0,0.0
6.319999999999999,101.6559816,2.6566368,0.4879848,0.23012400000000002,0.0,0.0,0.0,0.0
6.34,103.325676,20.22348,18.81378,-21.9294456,0.0,0.0,0.0,0.0
6.359999999999999,104.7314136,-0.16276320000000002,3.0903671999999998,4.6006512,0.0,0.0,0.0,0.0
6.38,105.7570656,-0.7046976,1.2469368,-1.2268200000000002,0.0,0.0,0.0,0.0
6.3999999999999995,107.63829120000001,-2.6023824,11.277295200000001,-9.1244928,0.0,0.0,0.0,0.0
6.42,109.40034000000001,-1.789176,9.379915200000001,-11.5781328,0.0,0.0,0.0,0.0
6.4399999999999995,111.4184208,-3.0903671999999998,13.174980000000001,-8.4344256,0.0,0.0,0.0,0.0
6.459999999999999,113.08842,-0.7589520000000001,13.229234400000001,-11.9615712,0.0,0.0,0.0,0.0
6.4799999999999995,114.78341280000001,0.7589520000000001,17.2413168,-8.8943688,0.0,0.0,0.0,0.0
6.5,116.22328800000001,0.16276320000000002,13.825728,-7.437729600000001,0.0,0.0,0.0,0.0
6.52,117.914928,-1.1926824,13.229234400000001,-8.971178400000001,0.0,0.0,0.0,0.0
6.539999999999999,119.41423920000001,0.4337304,12.4702824,-12.345009600000001,0.0,0.0,0.0,0.0
6.56,120.94189680000001,-3.957828,11.1148368,-14.491716000000002,0.0,0.0,0.0,0.0
6.58,122.6874864,-6.777228,13.825728,-13.0350768,0.0,0.0,0.0,0.0
6.6,124.5357936,-0.16276320000000002,12.416028,-14.951964,0.0,0.0,0.0,0.0
6.619999999999999,126.13264080000002,0.7589520000000001,11.928043200000001,-13.1883912,0.0,0.0,0.0,0.0
6.64,127.37104320000002,0.8132064000000001,15.343632000000001,-13.49502,0.0,0.0,0.0,0.0
6.66,129.0392136,2.548128,9.0543888,-11.4248184,0.0,0.0,0.0,0.0
6.68,130.64337600000002,2.1686520000000002,14.6389344,-12.498324000000002,0.0,0.0,0.0,0.0
6.699999999999999,132.0122328,-1.030224,15.777667200000002,-12.2682,0.0,0.0,0.0,0.0
6.72,133.6157856,-0.8674608,14.313712800000001,-13.571829600000001,0.0,0.0,0.0,0.0
6.74,135.00079680000002,-4.6628304,13.012521600000001,-7.8208632,0.0,0.0,0.0,0.0
6.76,136.3556328,-4.5000672,12.958267200000002,-12.804952800000002,0.0,0.0,0.0,0.0
6.779999999999999,137.5205784,-3.8496240000000004,14.909901600000001,-13.341705600000001,0.0,0.0,0.0,0.0
6.799999999999999,138.839448,3.7953696000000003,13.012521600000001,-12.8817624,0.0,0.0,0.0,0.0
6.819999999999999,140.58229440000002,3.4698432,11.4943128,-11.8847616,0.0,0.0,0.0,0.0
6.84,142.3147776,3.7411152,14.367967200000002,-8.58774,0.0,0.0,0.0,0.0
6.859999999999999,143.75983440000002,1.7349216,13.446252000000001,-10.428122400000001,0.0,0.0,0.0,0.0
6.879999999999999,144.79097280000002,-1.5182088,13.771473600000002,-8.817864,0.0,0.0,0.0,0.0
6.8999999999999995,145.98944640000002,-1.8434304000000001,14.096695200000001,-8.2811112,0.0,0.0,0.0,0.0
6.92,147.2156568,-4.988052,13.012521600000001,-8.050987200000002,0.0,0.0,0.0,0.0
6.9399999999999995,148.27636080000002,-2.548128,11.5485672,-11.4248184,0.0,0.0,0.0,0.0
6.959999999999999,149.47574880000002,-5.3132736,9.4338648,-13.49502,0.0,0.0,0.0,0.0
6.9799999999999995,150.6059472,2.3314152,10.789310400000002,-12.7281432,0.0,0.0,0.0,0.0
7.0,151.9568208,-1.9519392,10.626852000000001,-8.971178400000001,0.0,0.0,0.0,0.0
7.02,153.450036,-0.37947600000000004,10.681106400000001,-7.36092,0.0,0.0,0.0,0.0
7.039999999999999,154.667712,0.16276320000000002,13.0664712,-10.657941600000001,0.0,0.0,0.0,0.0
7.06,156.3495984,-1.8976848000000002,13.9342368,-9.814560000000002,0.0,0.0,0.0,0.0
7.08,157.9086504,-1.8976848000000002,12.199010400000002,-8.741054400000001,0.0,0.0,0.0,0.0
7.1,159.17966640000003,-1.789176,9.596628,-7.8976728000000005,0.0,0.0,0.0,0.0
7.119999999999999,160.53054,-1.0844784,8.3496912,-9.6612456,0.0,0.0,0.0,0.0
7.14,161.781744,-1.6264128000000002,7.6989432,-9.6612456,0.0,0.0,0.0,0.0
7.16,163.1887008,0.7046976,12.7412496,-10.1979984,0.0,0.0,0.0,0.0
7.18,164.3323104,-0.16276320000000002,8.4039456,-8.5109304,0.0,0.0,0.0,0.0
7.199999999999999,165.6484368,2.0061936,8.94588,-8.357616,0.0,0.0,0.0,0.0
7.22,166.92158640000002,2.9279088,9.5423736,-9.1244928,0.0,0.0,0.0,0.0
7.24,168.1340808,-1.8976848000000002,8.837676,-8.1277968,0.0,0.0,0.0,0.0
7.26,169.922952,3.2531304000000003,10.5183432,-7.591044000000001,0.0,0.0,0.0,0.0
7.279999999999999,171.45396240000002,-1.4097000000000002,8.7834216,-10.5814368,0.0,0.0,0.0,0.0
7.299999999999999,172.84598400000002,-0.9759696,7.6989432,-7.6675488,0.0,0.0,0.0,0.0
7.319999999999999,174.23892,-3.3616392,8.8919304,-7.591044000000001,0.0,0.0,0.0,0.0
7.34,175.499268,-1.5182088,9.0001344,-9.737750400000001,0.0,0.0,0.0,0.0
7.359999999999999,176.5258344,-1.2469368,8.729167200000001,-8.8943688,0.0,0.0,0.0,0.0
7.379999999999999,177.6197616,-0.650748,9.3256608,-8.741054400000001,0.0,0.0,0.0,0.0
7.3999999999999995,178.60639920000003,-0.3252216,6.614769600000001,-7.5142344,0.0,0.0,0.0,0.0
7.42,179.87893920000002,-0.9759696,9.217152,-7.437729600000001,0.0,0.0,0.0,0.0
7.4399999999999995,181.05851520000002,0.0542544,9.7051368,-6.364224,0.0,0.0,0.0,0.0
7.459999999999999,181.95523680000002,-0.37947600000000004,8.0784192,-4.6006512,0.0,0.0,0.0,0.0
7.4799999999999995,182.72180880000002,0.16276320000000002,8.0784192,-5.060594400000001,0.0,0.0,0.0,0.0
7.5,183.792876,0.9759696,9.6508824,-5.060594400000001,0.0,0.0,0.0,0.0
7.52,184.5847464,1.1926824,7.915960800000001,-4.907280000000001,0.0,0.0,0.0,0.0
7.539999999999999,185.54059920000003,-0.650748,6.506260800000001,-7.2841104,0.0,0.0,0.0,0.0
7.56,186.6394032,2.0601432,5.5302912,-8.971178400000001,0.0,0.0,0.0,0.0
7.58,187.75466640000002,0.37947600000000004,8.729167200000001,-7.591044000000001,0.0,0.0,0.0,0.0
7.6,189.23508,2.8736544000000004,8.295436800000001,-6.1341,0.0,0.0,0.0,0.0
7.619999999999999,190.3975872,-0.8132064000000001,7.427976000000001,-6.6708528000000005,0.0,0.0,0.0,0.0
7.64,191.33515200000002,-0.0542544,10.247376,-5.367223200000001,0.0,0.0,0.0,0.0
7.66,192.2995392,-2.2229064000000003,9.379915200000001,-6.747662400000001,0.0,0.0,0.0,0.0
7.68,193.1322528,-2.3314152,7.210958400000001,-5.5205376,0.0,0.0,0.0,0.0
7.699999999999999,194.15729520000002,0.4879848,8.4039456,-6.5175384,0.0,0.0,0.0,0.0
7.72,194.7918888,-0.4879848,8.94588,-6.9009768,0.0,0.0,0.0,0.0
7.74,195.99188640000003,0.650748,7.915960800000001,-6.594043200000001,0.0,0.0,0.0,0.0
7.76,197.2656456,-1.2469368,8.0784192,-7.2076056,0.0,0.0,0.0,0.0
7.779999999999999,198.3336648,-1.1926824,8.566404,-4.6006512,0.0,0.0,0.0,0.0
7.799999999999999,199.33432320000003,0.37947600000000004,7.1024496,-6.2874144,0.0,0.0,0.0,0.0
7.819999999999999,200.326752,-1.0844784,6.0725304,-6.8241672,0.0,0.0,0.0,0.0
7.84,201.42098400000003,-0.16276320000000002,7.1024496,-6.9009768,0.0,0.0,0.0,0.0
7.859999999999999,202.5417336,-1.0844784,6.7229735999999995,-8.1277968,0.0,0.0,0.0,0.0
7.879999999999999,203.55153600000003,2.2229064000000003,4.5000672,-5.6741568000000004,0.0,0.0,0.0,0.0
7.8999999999999995,204.5037312,-2.2229064000000003,5.1508152,-5.2907184,0.0,0.0,0.0,0.0
7.92,205.46689920000003,0.9759696,5.3132736,-5.060594400000001,0.0,0.0,0.0,0.0
7.9399999999999995,206.4285432,1.5724632,6.018276,-4.4473368,0.0,0.0,0.0,0.0
7.959999999999999,207.43773600000003,-3.1446216000000002,5.5302912,-5.827471200000001,0.0,0.0,0.0,0.0
7.9799999999999995,208.40364720000002,-3.0361128,6.614769600000001,-5.4440328000000004,0.0,0.0,0.0,0.0
8.0,209.3326776,-0.5422392,4.6628304,-5.903976000000001,0.0,0.0,0.0,0.0
8.02,210.1227192,-0.9217152000000001,6.4520064,-6.9009768,0.0,0.0,0.0,0.0
8.04,210.79571760000002,1.0844784,5.964021600000001,-4.4473368,0.0,0.0,0.0,0.0
8.059999999999999,211.63757520000001,0.5964936000000001,5.0423064,-4.2937176,0.0,0.0,0.0,0.0
8.08,212.602572,0.37947600000000004,5.1508152,-4.6006512,0.0,0.0,0.0,0.0
8.1,213.57640800000001,-2.1686520000000002,7.156704,-6.9009768,0.0,0.0,0.0,0.0
8.12,214.47312960000002,-0.2709672,6.885736800000001,-5.903976000000001,0.0,0.0,0.0,0.0
8.14,215.23208160000001,-1.3011912,4.8795432000000005,-3.2970216000000003,0.0,0.0,0.0,0.0
8.16,216.0800352,-0.650748,7.156704,-4.4473368,0.0,0.0,0.0,0.0
8.18,216.88501200000002,-2.0061936,5.6930544,-4.7539656,0.0,0.0,0.0,0.0
8.2,217.87317360000003,-1.4097000000000002,5.096560800000001,-4.6006512,0.0,0.0,0.0,0.0
8.219999999999999,218.593416,0.1085088,4.3376088,-3.9870888,0.0,0.0,0.0,0.0
8.24,219.36456,-1.5182088,4.2291,-6.4407288000000005,0.0,0.0,0.0,0.0
8.26,220.1930064,0.5964936000000001,4.8252888,-4.677156,0.0,0.0,0.0,0.0
8.28,221.08485120000003,-0.2709672,4.8252888,-5.5205376,0.0,0.0,0.0,0.0
8.299999999999999,221.9928504,-0.2709672,4.933797600000001,-4.7539656,0.0,0.0,0.0,0.0
8.32,222.90389760000002,-0.5964936000000001,4.5000672,-4.8304704,0.0,0.0,0.0,0.0
8.34,223.7442312,-0.4337304,5.638800000000001,-3.2205168000000004,0.0,0.0,0.0,0.0
8.36,224.60955840000003,-0.7589520000000001,5.421782400000001,-2.7602688,0.0,0.0,0.0,0.0
8.379999999999999,225.24140880000002,-0.1085088,5.8555128,-4.907280000000001,0.0,0.0,0.0,0.0
8.399999999999999,226.0512624,0.3252216,6.0725304,-3.8337744,0.0,0.0,0.0,0.0
8.42,226.506024,-1.9519392,5.8555128,-4.523841600000001,0.0,0.0,0.0,0.0
8.44,227.47193520000002,0.16276320000000002,5.801258400000001,-3.450336,0.0,0.0,0.0,0.0
8.459999999999999,228.25679520000003,0.4879848,4.933797600000001,-3.68046,0.0,0.0,0.0,0.0
8.48,229.00843200000003,-1.5182088,4.2291,-3.8337744,0.0,0.0,0.0,0.0
8.5,229.7576304,-0.5422392,3.9035736000000005,-3.8337744,0.0,0.0,0.0,0.0
8.52,230.60162160000002,0.4879848,5.801258400000001,-4.7539656,0.0,0.0,0.0,0.0
8.54,231.5148024,-0.4337304,4.012082400000001,-3.2970216000000003,0.0,0.0,0.0,0.0
8.559999999999999,232.1469576,-0.4879848,5.259324,-4.523841600000001,0.0,0.0,0.0,0.0
8.579999999999998,232.90377600000002,0.16276320000000002,4.608576,-4.6006512,0.0,0.0,0.0,0.0
8.6,233.5859184,-0.7046976,2.548128,-5.2139088000000005,0.0,0.0,0.0,0.0
8.62,234.0839616,0.7046976,2.1143976,-2.683764,0.0,0.0,0.0,0.0
8.64,234.7548264,0.650748,2.9279088,-3.7572696000000003,0.0,0.0,0.0,0.0
8.66,235.44184560000002,1.1387328,3.7411152,-5.5205376,0.0,0.0,0.0,0.0
8.68,236.1678792,1.789176,3.8496240000000004,-2.683764,0.0,0.0,0.0,0.0
8.7,236.73389280000004,-0.37947600000000004,4.0663368,-3.6036504000000003,0.0,0.0,0.0,0.0
8.719999999999999,237.54039360000002,-1.9519392,3.9035736000000005,-3.3738312000000006,0.0,0.0,0.0,0.0
8.739999999999998,238.23777600000003,0.5964936000000001,3.3073848000000003,-3.6036504000000003,0.0,0.0,0.0,0.0
8.76,238.86596880000002,0.5422392,3.1446216000000002,-3.450336,0.0,0.0,0.0,0.0
8.78,239.4002832,-0.2709672,3.7411152,-2.8370784000000002,0.0,0.0,0.0,0.0
8.8,240.03792479999998,-1.0844784,3.0361128,-2.3768304000000002,0.0,0.0,0.0,0.0
8.82,240.72829680000004,-0.2170176,3.7953696000000003,-2.3768304000000002,0.0,0.0,0.0,0.0
8.84,241.39215120000003,-0.9759696,4.2291,-3.910584,0.0,0.0,0.0,0.0
8.86,242.14287360000003,-0.650748,3.6868608000000003,-2.9135831999999997,0.0,0.0,0.0,0.0
8.879999999999999,242.86921200000003,-0.4337304,2.9279088,-2.683764,0.0,0.0,0.0,0.0
8.899999999999999,243.4785072,0.5964936000000001,4.0663368,-3.2205168000000004,0.0,0.0,0.0,0.0
8.92,244.19448240000003,0.2170176,3.9035736000000005,-3.2970216000000003,0.0,0.0,0.0,0.0
8.94,244.85559360000002,1.1926824,3.9035736000000005,-3.0672024,0.0,0.0,0.0,0.0
8.96,245.336568,1.4097000000000002,3.2531304000000003,-3.3738312000000006,0.0,0.0,0.0,0.0
8.98,245.94525360000003,0.8132064000000001,3.198876,-3.2970216000000003,0.0,0.0,0.0,0.0
9.0,246.5411376,1.3554456000000001,3.3073848000000003,-3.1437072,0.0,0.0,0.0,0.0
9.02,247.17756000000003,0.5422392,2.9279088,-2.9135831999999997,0.0,0.0,0.0,0.0
9.04,247.71278880000003,0.3252216,3.578352,-1.9936968000000002,0.0,0.0,0.0,0.0
9.059999999999999,248.35896480000002,-0.2709672,3.957828,-2.3768304000000002,0.0,0.0,0.0,0.0
9.079999999999998,248.86859040000002,-0.0542544,2.6566368,-3.6036504000000003,0.0,0.0,0.0,0.0
9.1,249.55469520000003,-0.7589520000000001,3.4698432,-3.1437072,0.0,0.0,0.0,0.0
9.12,250.09998240000002,0.37947600000000004,2.548128,-3.0672024,0.0,0.0,0.0,0.0
9.14,250.7318328,-1.030224,2.6566368,-1.6102584000000002,0.0,0.0,0.0,0.0
9.16,251.22042720000002,-0.0542544,2.7651456,-2.5304496,0.0,0.0,0.0,0.0
9.18,251.7562656,-0.4879848,2.7651456,-3.450336,0.0,0.0,0.0,0.0
9.2,252.21194160000002,-1.030224,2.548128,-2.683764,0.0,0.0,0.0,0.0
9.219999999999999,252.75966720000002,0.2709672,2.9818584,-3.3738312000000006,0.0,0.0,0.0,0.0
9.239999999999998,253.27782720000002,-0.0542544,2.0061936,-3.450336,0.0,0.0,0.0,0.0
9.26,253.97703840000003,-0.650748,2.4941784,-2.683764,0.0,0.0,0.0,0.0
9.28,254.57627520000003,0.0,2.4941784,-2.3768304000000002,0.0,0.0,0.0,0.0
9.3,255.06517440000002,0.4337304,2.8194000000000004,-2.7602688,0.0,0.0,0.0,0.0
9.32,255.6424656,-1.1926824,2.8194000000000004,-2.1470112,0.0,0.0,0.0,0.0
9.34,256.2234144,0.5964936000000001,1.789176,-1.9168872,0.0,0.0,0.0,0.0
9.36,256.6611072,0.0,2.6023824,-1.9936968000000002,0.0,0.0,0.0,0.0
9.379999999999999,257.1722568,0.2170176,2.1686520000000002,-1.9168872,0.0,0.0,0.0,0.0
9.399999999999999,257.636772,-0.16276320000000002,2.9818584,-1.9168872,0.0,0.0,0.0,0.0
9.42,258.0028368,0.5964936000000001,2.7651456,-2.223516,0.0,0.0,0.0,0.0
9.44,258.7114968,-0.4879848,2.8736544000000004,-0.9201912000000001,0.0,0.0,0.0,0.0
9.46,259.3113432,-1.1926824,2.8194000000000004,-0.9201912000000001,0.0,0.0,0.0,0.0
9.48,260.011164,-0.7046976,2.3314152,-2.1470112,0.0,0.0,0.0,0.0
9.5,260.55370800000003,0.1085088,2.3856696,-1.1500104,0.0,0.0,0.0,0.0
9.52,260.98469520000003,0.4337304,2.8194000000000004,-1.7635728,0.0,0.0,0.0,0.0
9.54,261.4303128,0.2170176,2.0601432,-1.8400776,0.0,0.0,0.0,0.0
9.559999999999999,261.7564488,0.2170176,3.0361128,-1.9168872,0.0,0.0,0.0,0.0
9.579999999999998,262.2977736,0.4879848,2.2229064000000003,-0.6900672,0.0,0.0,0.0,0.0
9.6,262.7440008,1.030224,2.548128,-2.5304496,0.0,0.0,0.0,0.0
9.62,263.0737944,0.8132064000000001,2.0061936,-2.4536400000000005,0.0,0.0,0.0,0.0
9.64,263.4877128,-0.16276320000000002,2.3314152,-1.3801344,0.0,0.0,0.0,0.0
9.66,263.7940368,0.4337304,1.1926824,-2.5304496,0.0,0.0,0.0,0.0
9.68,264.3615744,-0.1085088,2.1686520000000002,-2.7602688,0.0,0.0,0.0,0.0
9.7,264.81267840000004,0.16276320000000002,1.789176,-2.4536400000000005,0.0,0.0,0.0,0.0
9.719999999999999,265.2363504,0.0,1.6264128000000002,-2.3003256,0.0,0.0,0.0,0.0
9.739999999999998,265.6280184,0.5964936000000001,2.1143976,-1.8400776,0.0,0.0,0.0,0.0
9.76,266.0867424,0.1085088,1.5182088,-2.3768304000000002,0.0,0.0,0.0,0.0
9.78,266.4598176,0.650748,1.5182088,-1.9168872,0.0,0.0,0.0,0.0
9.8,266.84447520000003,0.37947600000000004,1.8976848000000002,-1.6102584000000002,0.0,0.0,0.0,0.0
9.82,267.361416,0.2170176,1.4097000000000002,-1.9936968000000002,0.0,0.0,0.0,0.0
9.84,267.82196880000004,-0.0542544,1.4639544,-1.7635728,0.0,0.0,0.0,0.0
9.86,268.28343600000005,0.2709672,2.0061936,-1.3801344,0.0,0.0,0.0,0.0
9.879999999999999,268.7933664,0.0542544,1.5724632,-1.4569440000000002,0.0,0.0,0.0,0.0
9.899999999999999,269.12498880000004,0.2170176,1.5182088,-1.3036296,0.0,0.0,0.0,0.0
9.92,269.5114752,0.0,1.6264128000000002,-1.2268200000000002,0.0,0.0,0.0,0.0
9.94,270.0552384,-0.37947600000000004,2.0061936,-1.0735056,0.0,0.0,0.0,0.0
9.96,270.53895600000004,-0.650748,1.5182088,-1.2268200000000002,0.0,0.0,0.0,0.0
9.98,270.87362640000003,-0.16276320000000002,1.789176,-0.9201912000000001,0.0,0.0,0.0,0.0
10.0,271.360392,-0.2170176,1.7349216,-1.5334488,0.0,0.0,0.0,0.0
10.02,271.6737264,-0.8674608,1.7349216,-1.2268200000000002,0.0,0.0,0.0,0.0
10.04,272.0336952,-0.5422392,1.8434304000000001,-1.4569440000000002,0.0,0.0,0.0,0.0
10.059999999999999,272.4342024,-0.16276320000000002,1.2469368,-0.9201912000000001,0.0,0.0,0.0,0.0
10.079999999999998,272.652744,-0.4337304,1.6264128000000002,-0.996696,0.0,0.0,0.0,0.0
10.1,272.9581536,-0.16276320000000002,1.6806672000000002,-1.6102584000000002,0.0,0.0,0.0,0.0
10.12,273.1946784,0.1085088,1.1926824,-1.8400776,0.0,0.0,0.0,0.0
10.14,273.5080128,-0.16276320000000002,1.2469368,-1.6102584000000002,0.0,0.0,0.0,0.0
10.16,273.7902576,0.1085088,1.4097000000000002,-1.6102584000000002,0.0,0.0,0.0,0.0
10.18,274.0600056,-0.1085088,1.4097000000000002,-1.5334488,0.0,0.0,0.0,0.0
10.2,274.2718416,0.4337304,0.8674608,-1.6102584000000002,0.0,0.0,0.0,0.0
10.219999999999999,274.6424784,0.4337304,1.1926824,-2.3768304000000002,0.0,0.0,0.0,0.0
10.239999999999998,274.9302096,0.2709672,1.3554456000000001,-1.9936968000000002,0.0,0.0,0.0,0.0
10.26,275.1591144,-0.0542544,1.2469368,-1.7635728,0.0,0.0,0.0,0.0
10.28,275.4383112,0.2170176,1.3011912,-1.3036296,0.0,0.0,0.0,0.0
10.3,275.7229944,-0.0542544,0.9217152000000001,-1.3801344,0.0,0.0,0.0,0.0
10.32,275.9899992,0.2170176,1.4097000000000002,-0.9201912000000001,0.0,0.0,0.0,0.0
10.34,276.3633792,-0.16276320000000002,1.789176,-0.8433816000000001,0.0,0.0,0.0,0.0
10.36,276.6462336,0.37947600000000004,1.2469368,-0.9201912000000001,0.0,0.0,0.0,0.0
10.379999999999999,277.0089456,0.0542544,1.5724632,-0.6900672,0.0,0.0,0.0,0.0
10.399999999999999,277.3180128,0.1085088,1.5182088,-0.9201912000000001,0.0,0.0,0.0,0.0
10.42,277.65481680000005,-0.0542544,1.4639544,-0.8433816000000001,0.0,0.0,0.0,0.0
10.44,277.930356,-0.1085088,1.4097000000000002,-0.3834384,0.0,0.0,0.0,0.0
10.46,278.2988592,-0.2170176,1.6264128000000002,-0.8433816000000001,0.0,0.0,0.0,0.0
10.48,278.64968400000004,-0.16276320000000002,1.4639544,-0.4599432,0.0,0.0,0.0,0.0
10.5,278.8749312,-0.1085088,1.3011912,-0.6900672,0.0,0.0,0.0,0.0
10.52,279.2004576,-0.4879848,1.4639544,-0.9201912000000001,0.0,0.0,0.0,0.0
10.54,279.4903224,-0.16276320000000002,1.2469368,-1.0735056,0.0,0.0,0.0,0.0
10.559999999999999,279.797256,-0.2709672,1.1387328,-0.7668768,0.0,0.0,0.0,0.0
10.579999999999998,280.1688072,0.0542544,1.030224,-0.9201912000000001,0.0,0.0,0.0,0.0
10.6,280.3995408,-0.16276320000000002,1.1387328,-0.9201912000000001,0.0,0.0,0.0,0.0
10.62,280.6199112,-0.2170176,1.0844784,-0.996696,0.0,0.0,0.0,0.0
10.64,280.88142960000005,0.0,1.1926824,-1.0735056,0.0,0.0,0.0,0.0
10.66,281.14111920000005,-0.2709672,1.4639544,-0.5367528,0.0,0.0,0.0,0.0
10.68,281.40019920000003,-0.16276320000000002,1.2469368,-1.0735056,0.0,0.0,0.0,0.0
10.7,281.72023920000004,0.16276320000000002,1.2469368,-0.996696,0.0,0.0,0.0,0.0
10.719999999999999,282.00705600000003,0.2170176,1.0844784,-0.7668768,0.0,0.0,0.0,0.0
10.739999999999998,282.2027376,0.2709672,1.2469368,-1.0735056,0.0,0.0,0.0,0.0
10.76,282.348432,0.16276320000000002,1.1387328,-1.2268200000000002,0.0,0.0,0.0,0.0
10.78,282.5118048,0.3252216,1.1926824,-0.6900672,0.0,0.0,0.0,0.0
10.8,282.7900872,0.1085088,1.0844784,-0.8433816000000001,0.0,0.0,0.0,0.0
10.82,282.9714432,0.37947600000000004,1.030224,-0.9201912000000001,0.0,0.0,0.0,0.0
10.84,283.131768,0.2709672,1.1387328,-0.6900672,0.0,0.0,0.0,0.0
10.86,283.2637464,0.2709672,1.1387328,-0.5367528,0.0,0.0,0.0,0.0
10.879999999999999,283.3963344,0.0,1.1926824,-0.6135624,0.0,0.0,0.0,0.0
10.899999999999999,283.5917112,0.1085088,1.0844784,-0.7668768,0.0,0.0,0.0,0.0
10.92,283.7316144,-0.2709672,1.1387328,-0.4599432,0.0,0.0,0.0,0.0
10.94,283.87365120000004,-0.16276320000000002,1.1387328,-0.4599432,0.0,0.0,0.0,0.0
10.96,284.0077632,-0.3252216,1.0844784,-0.5367528,0.0,0.0,0.0,0.0
10.98,284.2086264,-0.2170176,0.8674608,-0.6900672,0.0,0.0,0.0,0.0
11.0,284.4177192,-0.2170176,0.8674608,-0.8433816000000001,0.0,0.0,0.0,0.0
11.02,284.62132560000003,-0.3252216,0.7589520000000001,-0.6900672,0.0,0.0,0.0,0.0
11.04,284.7615336,-0.2709672,0.9217152000000001,-0.8433816000000001,0.0,0.0,0.0,0.0
11.059999999999999,284.98038,-0.3252216,0.8674608,-0.5367528,0.0,0.0,0.0,0.0
11.079999999999998,285.2428128,-0.3252216,0.9759696,-0.7668768,0.0,0.0,0.0,0.0
11.1,285.4199016,-0.16276320000000002,0.8132064000000001,-0.8433816000000001,0.0,0.0,0.0,0.0
11.12,285.5479176,-0.650748,0.9759696,-0.8433816000000001,0.0,0.0,0.0,0.0
11.14,285.5750448,-0.2709672,0.8132064000000001,-0.8433816000000001,0.0,0.0,0.0,0.0
11.16,285.79541520000004,-0.3252216,0.7589520000000001,-0.9201912000000001,0.0,0.0,0.0,0.0
11.18,286.012128,-0.37947600000000004,0.8132064000000001,-0.9201912000000001,0.0,0.0,0.0,0.0
11.2,286.0916808,-0.2170176,0.5422392,-0.7668768,0.0,0.0,0.0,0.0
11.219999999999999,286.22457360000004,-0.1085088,0.650748,-0.8433816000000001,0.0,0.0,0.0,0.0
11.239999999999998,286.3544184,-0.2709672,0.7046976,-0.7668768,0.0,0.0,0.0,0.0
11.26,286.4955408,-0.1085088,0.7589520000000001,-0.6900672,0.0,0.0,0.0,0.0
11.28,286.6820784,-0.16276320000000002,0.8132064000000001,-1.0735056,0.0,0.0,0.0,0.0
11.3,286.8353928,-0.2170176,0.4337304,-0.7668768,0.0,0.0,0.0,0.0
11.32,286.9484736,-0.16276320000000002,0.8132064000000001,-0.7668768,0.0,0.0,0.0,0.0
11.34,287.1219048,-0.2170176,0.650748,-0.4599432,0.0,0.0,0.0,0.0
11.36,287.1667104,0.0,0.7589520000000001,-0.6900672,0.0,0.0,0.0,0.0
11.379999999999999,287.3706216,-0.0542544,0.7046976,-0.4599432,0.0,0.0,0.0,0.0
11.399999999999999,287.42944800000004,-0.2170176,0.7589520000000001,-0.6135624,0.0,0.0,0.0,0.0
11.42,287.4870552,-0.0542544,0.8132064000000001,-0.30662880000000003,0.0,0.0,0.0,0.0
11.44,287.4587088,-0.16276320000000002,0.7046976,-0.6135624,0.0,0.0,0.0,0.0
11.46,287.615376,0.0,0.7589520000000001,-0.6900672,0.0,0.0,0.0,0.0
11.48,287.74674480000004,-0.1085088,0.7589520000000001,-0.6135624,0.0,0.0,0.0,0.0
11.5,287.76046080000003,-0.2709672,0.8132064000000001,-0.6900672,0.0,0.0,0.0,0.0
11.52,287.8436712,-0.1085088,0.7589520000000001,-0.4599432,0.0,0.0,0.0,0.0
11.54,288.0244176,-0.16276320000000002,0.7046976,-0.4599432,0.0,0.0,0.0,0.0
11.559999999999999,288.10488480000004,-0.16276320000000002,0.8132064000000001,-0.5367528,0.0,0.0,0.0,0.0
11.579999999999998,288.2588088,-0.16276320000000002,0.7046976,-0.5367528,0.0,0.0,0.0,0.0
11.6,288.377376,-0.16276320000000002,0.7046976,-0.6135624,0.0,0.0,0.0,0.0
11.62,288.5020392,-0.2170176,0.650748,-0.6900672,0.0,0.0,0.0,0.0
11.64,288.6193872,-0.37947600000000004,0.37947600000000004,-0.7668768,0.0,0.0,0.0,0.0
11.66,288.755328,-0.2709672,0.5964936000000001,-0.6135624,0.0,0.0,0.0,0.0
11.68,288.8455488,-0.2170176,0.650748,-0.6900672,0.0,0.0,0.0,0.0
11.7,288.91016640000004,-0.2709672,0.5964936000000001,-0.6900672,0.0,0.0,0.0,0.0
11.719999999999999,289.0854264,-0.0542544,0.5964936000000001,-0.8433816000000001,0.0,0.0,0.0,0.0
11.739999999999998,289.1009712,-0.2709672,0.4879848,-0.6900672,0.0,0.0,0.0,0.0
11.76,289.0650048,-0.2709672,0.5964936000000001,-0.6135624,0.0,0.0,0.0,0.0
11.78,289.1445576,-0.2170176,0.4337304,-0.6135624,0.0,0.0,0.0,0.0
11.8,289.1409,-0.16276320000000002,0.4879848,-0.7668768,0.0,0.0,0.0,0.0
11.82,289.0899984,-0.3252216,0.4337304,-0.9201912000000001,0.0,0.0,0.0,0.0
11.84,289.1479104,-0.0542544,0.4879848,-0.8433816000000001,0.0,0.0,0.0,0.0
11.86,289.1780856,-0.2170176,0.5422392,-0.8433816000000001,0.0,0.0,0.0,0.0
11.879999999999999,289.1597976,-0.1085088,0.4337304,-0.7668768,0.0,0.0,0.0,0.0
11.899999999999999,289.113468,-0.2170176,0.650748,-0.7668768,0.0,0.0,0.0,0.0
11.92,289.0927416,-0.2170176,0.5422392,-0.7668768,0.0,0.0,0.0,0.0
11.94,289.14364320000004,-0.2170176,0.5422392,-0.7668768,0.0,0.0,0.0,0.0
11.96,289.0866456,-0.0542544,0.2709672,-0.8433816000000001,0.0,0.0,0.0,0.0
11.98,289.0592136,-0.1085088,0.3252216,-0.9201912000000001,0.0,0.0,0.0,0.0
12.0,288.9860616,-0.2709672,0.2709672,-0.8433816000000001,0.0,0.0,0.0,0.0
12.02,289.031172,-0.1085088,0.4337304,-0.9201912000000001,0.0,0.0,0.0,0.0
12.04,289.0089216,-0.2709672,0.2709672,-0.9201912000000001,0.0,0.0,0.0,0.0
12.059999999999999,288.990024,-0.2709672,0.37947600000000004,-0.996696,0.0,0.0,0.0,0.0
12.079999999999998,288.9622872,-0.2170176,0.4337304,-0.7668768,0.0,0.0,0.0,0.0
12.1,288.9756984,-0.2709672,0.4879848,-0.6900672,0.0,0.0,0.0,0.0
12.12,288.9403416,-0.16276320000000002,0.37947600000000004,-0.9201912000000001,0.0,0.0,0.0,0.0
12.14,288.9363792,0.0542544,0.4879848,-0.7668768,0.0,0.0,0.0,0.0
12.16,288.9339408,-0.0542544,0.4879848,-0.7668768,0.0,0.0,0.0,0.0
12.18,288.9464376,-0.16276320000000002,0.37947600000000004,-0.8433816000000001,0.0,0.0,0.0,0.0
12.2,289.0198944,-0.1085088,0.4337304,-0.8433816000000001,0.0,0.0,0.0,0.0
12.219999999999999,288.92632080000004,0.0,0.5422392,-0.6135624,0.0,0.0,0.0,0.0
12.239999999999998,288.8114112,0.0,0.650748,-0.6135624,0.0,0.0,0.0,0.0
12.26,288.7760544,-0.0542544,0.5964936000000001,-0.6135624,0.0,0.0,0.0,0.0
12.28,288.6038424,0.0542544,0.7046976,-0.6135624,0.0,0.0,0.0,0.0
12.3,288.52368,0.1085088,0.4337304,-0.7668768,0.0,0.0,0.0,0.0
12.32,288.4118184,0.0,0.5422392,-0.8433816000000001,0.0,0.0,0.0,0.0
12.34,288.49259040000004,0.0,0.5422392,-0.6135624,0.0,0.0,0.0,0.0
12.36,288.4953336,0.0542544,0.5964936000000001,-0.6135624,0.0,0.0,0.0,0.0
12.379999999999999,288.453576,-0.2709672,0.37947600000000004,-0.6900672,0.0,0.0,0.0,0.0
12.399999999999999,288.41242800000003,-0.2170176,0.5422392,-0.7668768,0.0,0.0,0.0,0.0
12.42,288.2490552,0.0542544,0.4879848,-0.6900672,0.0,0.0,0.0,0.0
12.44,288.1765128,-0.0542544,0.4879848,-0.6900672,0.0,0.0,0.0,0.0
12.46,288.0966552,-0.2170176,0.4337304,-0.5367528,0.0,0.0,0.0,0.0
12.48,288.0491064,-0.16276320000000002,0.5964936000000001,-0.8433816000000001,0.0,0.0,0.0,0.0
12.5,287.9683344,-0.16276320000000002,0.7046976,-0.5367528,0.0,0.0,0.0,0.0
12.52,287.96681040000004,0.0,0.650748,-0.5367528,0.0,0.0,0.0,0.0
12.54,287.8650072,-0.0542544,0.4879848,-0.6135624,0.0,0.0,0.0,0.0
12.559999999999999,287.7976464,0.0542544,0.4879848,-0.7668768,0.0,0.0,0.0,0.0
12.58,287.72358,0.0,0.5422392,-0.8433816000000001,0.0,0.0,0.0,0.0
12.6,287.66841120000004,0.0542544,0.5964936000000001,-0.8433816000000001,0.0,0.0,0.0,0.0
12.62,287.59404,0.0542544,0.4879848,-0.6900672,0.0,0.0,0.0,0.0
12.639999999999999,287.3081376,0.0542544,0.37947600000000004,-0.8433816000000001,0.0,0.0,0.0,0.0
12.66,287.1944472,0.2170176,0.4337304,-0.9201912000000001,0.0,0.0,0.0,0.0
12.68,287.00028960000003,0.16276320000000002,0.5964936000000001,-0.9201912000000001,0.0,0.0,0.0,0.0
12.7,286.74943920000004,0.16276320000000002,0.5964936000000001,-0.5367528,0.0,0.0,0.0,0.0
12.719999999999999,286.57356960000004,0.1085088,0.4337304,-0.7668768,0.0,0.0,0.0,0.0
12.74,286.34009280000004,0.0542544,0.5964936000000001,-0.5367528,0.0,0.0,0.0,0.0
12.76,286.158432,0.16276320000000002,0.37947600000000004,-1.1500104,0.0,0.0,0.0,0.0
12.78,285.9112392,-0.0542544,0.4879848,-1.0735056,0.0,0.0,0.0,0.0
12.799999999999999,285.73232160000003,0.2170176,0.3252216,-0.9201912000000001,0.0,0.0,0.0,0.0
12.82,285.59881920000004,0.0542544,0.4879848,-0.9201912000000001,0.0,0.0,0.0,0.0
12.84,285.3467496,0.1085088,0.4337304,-1.0735056,0.0,0.0,0.0,0.0
12.86,285.22635360000004,-0.0542544,0.4879848,-0.996696,0.0,0.0,0.0,0.0
12.879999999999999,285.0727344,0.0,0.5422392,-0.8433816000000001,0.0,0.0,0.0,0.0
12.9,284.998668,-0.16276320000000002,0.5964936000000001,-1.0735056,0.0,0.0,0.0,0.0
12.92,284.884368,-0.0542544,0.7046976,-0.9201912000000001,0.0,0.0,0.0,0.0
12.94,284.7353208,-0.0542544,0.5964936000000001,-0.8433816000000001,0.0,0.0,0.0,0.0
12.959999999999999,284.5914552,0.0,0.4337304,-0.996696,0.0,0.0,0.0,0.0
12.98,284.4046128,-0.2170176,0.4337304,-1.0735056,0.0,0.0,0.0,0.0
13.0,284.2659288,0.2709672,0.37947600000000004,-0.9201912000000001,0.0,0.0,0.0,0.0
13.02,284.1565056,-0.0542544,0.4879848,-1.1500104,0.0,0.0,0.0,0.0
13.04,284.0345856,-0.16276320000000002,0.37947600000000004,-1.0735056,0.0,0.0,0.0,0.0
13.059999999999999,283.96204320000004,0.0542544,0.4879848,-1.0735056,0.0,0.0,0.0,0.0
13.08,283.78617360000004,0.16276320000000002,0.4879848,-0.996696,0.0,0.0,0.0,0.0
13.1,283.53288480000003,0.1085088,0.5422392,-0.996696,0.0,0.0,0.0,0.0
13.12,283.2884352,-0.16276320000000002,0.5964936000000001,-0.7668768,0.0,0.0,0.0,0.0
13.139999999999999,283.0272216,-0.2170176,0.650748,-0.9201912000000001,0.0,0.0,0.0,0.0
13.16,282.88609920000005,0.0542544,0.5964936000000001,-0.8433816000000001,0.0,0.0,0.0,0.0
13.18,282.82483440000004,0.1085088,0.650748,-0.8433816000000001,0.0,0.0,0.0,0.0
13.2,282.6965136,0.2170176,0.650748,-1.1500104,0.0,0.0,0.0,0.0
13.219999999999999,282.4371288,-0.16276320000000002,0.7046976,-0.996696,0.0,0.0,0.0,0.0
13.24,282.2612592,0.2709672,0.5964936000000001,-0.7668768,0.0,0.0,0.0,0.0
13.26,282.0957528,-0.2170176,0.5422392,-0.9201912000000001,0.0,0.0,0.0,0.0
13.28,281.84276880000004,-0.2709672,0.8132064000000001,-0.9201912000000001,0.0,0.0,0.0,0.0
13.299999999999999,281.59953840000003,-0.37947600000000004,0.8132064000000001,-0.7668768,0.0,0.0,0.0,0.0
13.32,281.3672808,-0.4337304,0.7589520000000001,-0.9201912000000001,0.0,0.0,0.0,0.0
13.34,281.1310608,0.0,0.7589520000000001,-0.7668768,0.0,0.0,0.0,0.0
13.36,281.01493200000004,-0.2170176,0.8674608,-0.996696,0.0,0.0,0.0,0.0
13.379999999999999,280.82930880000004,0.0,0.650748,-1.0735056,0.0,0.0,0.0,0.0
13.4,280.6223496,-0.16276320000000002,0.7046976,-0.9201912000000001,0.0,0.0,0.0,0.0
13.42,280.3967976,-0.0542544,0.7046976,-0.6135624,0.0,0.0,0.0,0.0
13.44,280.06974720000005,0.2709672,0.5964936000000001,-1.0735056,0.0,0.0,0.0,0.0
13.459999999999999,279.7673856,0.2709672,0.8132064000000001,-0.7668768,0.0,0.0,0.0,0.0
13.48,279.4506984,0.3252216,0.7589520000000001,-0.996696,0.0,0.0,0.0,0.0
13.5,279.1361448,0.37947600000000004,0.8132064000000001,-0.7668768,0.0,0.0,0.0,0.0
13.52,278.8846848,0.4337304,0.7589520000000001,-1.1500104,0.0,0.0,0.0,0.0
13.54,278.51801040000004,0.5422392,0.650748,-0.996696,0.0,0.0,0.0,0.0
13.559999999999999,278.2119912,0.5422392,0.7589520000000001,-1.0735056,0.0,0.0,0.0,0.0
13.58,277.9702848,0.5422392,0.9759696,-0.8433816000000001,0.0,0.0,0.0,0.0
13.6,277.761192,0.5422392,0.5422392,-1.3036296,0.0,0.0,0.0,0.0
13.62,277.55392800000004,0.4879848,0.8132064000000001,-1.2268200000000002,0.0,0.0,0.0,0.0
13.639999999999999,277.2893616,0.5964936000000001,0.9217152000000001,-1.0735056,0.0,0.0,0.0,0.0
13.66,276.9979728,0.5964936000000001,0.7046976,-0.996696,0.0,0.0,0.0,0.0
13.68,276.6248976,0.2709672,0.8132064000000001,-0.8433816000000001,0.0,0.0,0.0,0.0
13.7,276.2667576,0.2709672,0.8132064000000001,-0.996696,0.0,0.0,0.0,0.0
13.719999999999999,275.91075120000005,0.37947600000000004,0.8132064000000001,-0.7668768,0.0,0.0,0.0,0.0
13.74,275.667216,0.37947600000000004,0.9217152000000001,-1.2268200000000002,0.0,0.0,0.0,0.0
13.76,275.3511384,0.37947600000000004,1.030224,-0.996696,0.0,0.0,0.0,0.0
13.78,275.04511920000004,0.2170176,0.9759696,-0.996696,0.0,0.0,0.0,0.0
13.799999999999999,274.821396,0.16276320000000002,1.1387328,-0.8433816000000001,0.0,0.0,0.0,0.0
13.82,274.412964,0.37947600000000004,0.9217152000000001,-0.8433816000000001,0.0,0.0,0.0,0.0
13.84,274.22185440000004,0.0542544,0.9217152000000001,-0.8433816000000001,0.0,0.0,0.0,0.0
13.86,273.92711280000003,0.1085088,1.0844784,-0.996696,0.0,0.0,0.0,0.0
13.879999999999999,273.6156072,-0.1085088,1.0844784,-1.0735056,0.0,0.0,0.0,0.0
13.9,273.362928,-0.2170176,0.8674608,-0.996696,0.0,0.0,0.0,0.0
13.92,273.0267336,-0.16276320000000002,0.9217152000000001,-1.0735056,0.0,0.0,0.0,0.0
13.94,272.72863920000003,0.3252216,0.8674608,-1.1500104,0.0,0.0,0.0,0.0
13.959999999999999,272.5244232,0.16276320000000002,0.8132064000000001,-1.6102584000000002,0.0,0.0,0.0,0.0
13.98,272.1931056,-0.2170176,0.9759696,-1.3036296,0.0,0.0,0.0,0.0
14.0,271.849596,-0.16276320000000002,0.9217152000000001,-1.3036296,0.0,0.0,0.0,0.0
14.02,271.5460152,0.2170176,1.3011912,-1.3036296,0.0,0.0,0.0,0.0
14.04,271.12965840000004,0.0,1.3011912,-1.3801344,0.0,0.0,0.0,0.0
14.059999999999999,270.8373552,0.1085088,0.9759696,-1.1500104,0.0,0.0,0.0,0.0
14.08,270.53011680000003,-0.16276320000000002,1.030224,-1.7635728,0.0,0.0,0.0,0.0
14.1,270.2573208,-0.0542544,1.2469368,-1.3801344,0.0,0.0,0.0,0.0
14.12,269.86992,0.0542544,1.030224,-0.996696,0.0,0.0,0.0,0.0
14.139999999999999,269.52915360000003,0.4879848,0.9217152000000001,-1.5334488,0.0,0.0,0.0,0.0
14.16,269.2048464,0.1085088,1.3011912,-1.1500104,0.0,0.0,0.0,0.0
14.18,268.8235416,0.0542544,1.1387328,-1.6102584000000002,0.0,0.0,0.0,0.0
14.2,268.5385536,0.3252216,1.1926824,-1.4569440000000002,0.0,0.0,0.0,0.0
14.219999999999999,268.15389600000003,0.0,0.8674608,-1.6102584000000002,0.0,0.0,0.0,0.0
14.24,267.684504,0.16276320000000002,1.2469368,-1.0735056,0.0,0.0,0.0,0.0
14.26,267.3254496,0.16276320000000002,1.030224,-1.4569440000000002,0.0,0.0,0.0,0.0
14.28,266.8185672,0.37947600000000004,1.2469368,-1.6867632000000001,0.0,0.0,0.0,0.0
14.299999999999999,266.4674376,0.2709672,1.2469368,-1.3801344,0.0,0.0,0.0,0.0
14.32,266.0315736,0.4879848,1.1387328,-1.0735056,0.0,0.0,0.0,0.0
14.34,265.7173248,0.4879848,1.1387328,-1.4569440000000002,0.0,0.0,0.0,0.0
14.36,265.3012728,0.5964936000000001,1.3554456000000001,-0.996696,0.0,0.0,0.0,0.0
14.379999999999999,264.9193584,0.2170176,0.8674608,-1.9936968000000002,0.0,0.0,0.0,0.0
14.4,264.60450000000003,0.2709672,1.2469368,-0.996696,0.0,0.0,0.0,0.0
14.42,264.2009448,0.2170176,1.4097000000000002,-1.3801344,0.0,0.0,0.0,0.0
14.44,263.7330768,0.2170176,1.3011912,-1.5334488,0.0,0.0,0.0,0.0
14.459999999999999,263.2962984,0.16276320000000002,1.5724632,-1.0735056,0.0,0.0,0.0,0.0
14.48,262.8750648,0.2709672,1.3554456000000001,-1.3801344,0.0,0.0,0.0,0.0
14.5,262.4437728,0.0,1.3011912,-1.0735056,0.0,0.0,0.0,0.0
14.52,261.9917544,0.4337304,1.3011912,-1.2268200000000002,0.0,0.0,0.0,0.0
14.54,261.45073440000004,0.37947600000000004,1.1387328,-1.3801344,0.0,0.0,0.0,0.0
14.559999999999999,261.1261224,0.4337304,1.1926824,-0.996696,0.0,0.0,0.0,0.0
14.58,260.7557904,0.1085088,1.6264128000000002,-0.6900672,0.0,0.0,0.0,0.0
14.6,260.3211456,-0.3252216,1.4097000000000002,-1.8400776,0.0,0.0,0.0,0.0
14.62,259.91759040000005,0.0542544,1.3554456000000001,-1.1500104,0.0,0.0,0.0,0.0
14.639999999999999,259.4195472,0.4337304,1.3011912,-1.7635728,0.0,0.0,0.0,0.0
14.66,259.0345848,-0.2170176,1.5182088,-1.6102584000000002,0.0,0.0,0.0,0.0
14.68,258.6871128,-0.16276320000000002,1.4639544,-1.7635728,0.0,0.0,0.0,0.0
14.7,258.2728896,-0.16276320000000002,1.6806672000000002,-1.6867632000000001,0.0,0.0,0.0,0.0
14.719999999999999,257.886708,-0.2170176,1.5182088,-1.4569440000000002,0.0,0.0,0.0,0.0
