time,baro_altitude,accl_x,accl_y,accl_z,gps_altitude,gyro_roll,gyro_pitch,gyro_yaw
0.0,0.0,-9.108643200000001,-1.8434304000000001,1.5334488,0.0,0.0,0.0,0.0
0.019999999999999574,-0.09418320000000001,-9.108643200000001,-1.8434304000000001,1.3801344,0.0,0.0,0.0,0.0
0.040000000000000036,-0.257556,-9.1628976,-1.6806672000000002,1.4569440000000002,0.0,0.0,0.0,0.0
0.05999999999999961,-0.19263360000000002,-9.108643200000001,-1.7349216,1.3801344,0.0,0.0,0.0,0.0
0.08000000000000007,-0.1267968,-9.108643200000001,-1.7349216,1.3801344,0.0,0.0,0.0,0.0
0.09999999999999964,-0.1917192,-9.1628976,-1.6806672000000002,1.3801344,0.0,0.0,0.0,0.0
0.1200000000000001,-0.2161032,-9.108643200000001,-1.8434304000000001,1.3801344,0.0,0.0,0.0,0.0
0.13999999999999968,-0.11033760000000001,-9.108643200000001,-1.8434304000000001,1.5334488,0.0,0.0,0.0,0.0
0.1599999999999997,-0.17038319999999998,-9.108643200000001,-1.8434304000000001,1.4569440000000002,0.0,0.0,0.0,0.0
0.17999999999999972,-0.1069848,-9.0001344,-1.8434304000000001,1.4569440000000002,0.0,0.0,0.0,0.0
0.19999999999999973,-0.0676656,-9.0543888,-1.6806672000000002,1.3036296,0.0,0.0,0.0,0.0
0.21999999999999975,-0.0832104,-9.108643200000001,-1.7349216,1.3801344,0.0,0.0,0.0,0.0
0.23999999999999977,-0.006400800000000002,-9.1628976,-1.6806672000000002,1.3036296,0.0,0.0,0.0,0.0
0.2599999999999998,-0.06888480000000001,-9.108643200000001,-1.8434304000000001,1.5334488,0.0,0.0,0.0,0.0
0.2799999999999998,-0.0463296,-9.0543888,-1.789176,1.3801344,0.0,0.0,0.0,0.0
0.2999999999999998,-0.04602480000000001,-9.1628976,-1.789176,1.5334488,0.0,0.0,0.0,0.0
0.31999999999999984,-0.005181600000000001,-9.0543888,-1.789176,1.4569440000000002,0.0,0.0,0.0,0.0
0.33999999999999986,0.0569976,-9.0543888,-1.789176,1.4569440000000002,0.0,0.0,0.0,0.0
0.3599999999999999,-0.0003048000000000003,-9.108643200000001,-1.8434304000000001,1.3801344,0.0,0.0,0.0,0.0
0.3799999999999999,-0.1283208,-9.108643200000001,-1.7349216,1.3801344,0.0,0.0,0.0,0.0
0.39999999999999947,-0.1459992,-9.108643200000001,-1.7349216,1.3801344,0.0,0.0,0.0,0.0
0.4199999999999995,-0.15453360000000002,-9.108643200000001,-1.8434304000000001,1.4569440000000002,0.0,0.0,0.0,0.0
0.4399999999999995,-0.17556480000000002,-9.0543888,-1.789176,1.4569440000000002,0.0,0.0,0.0,0.0
0.4599999999999995,-0.17038319999999998,-9.108643200000001,-1.8434304000000001,1.3801344,0.0,0.0,0.0,0.0
0.47999999999999954,-0.301752,-9.1628976,-1.789176,1.3801344,0.0,0.0,0.0,0.0
0.49999999999999956,-0.36210240000000005,-9.108643200000001,-1.7349216,1.3801344,0.0,0.0,0.0,0.0
0.5199999999999996,-0.3465576,-9.0543888,-1.789176,1.4569440000000002,0.0,0.0,0.0,0.0
0.5399999999999996,-0.3148584,-9.108643200000001,-1.8434304000000001,1.4569440000000002,0.0,0.0,0.0,0.0
0.5599999999999996,-0.11765280000000002,-9.1628976,-1.6806672000000002,1.3801344,0.0,0.0,0.0,0.0
0.5799999999999996,-0.12222480000000001,-9.0543888,-1.789176,1.5334488,0.0,0.0,0.0,0.0
0.5999999999999996,-0.006705600000000002,-9.108643200000001,-1.8434304000000001,1.6102584000000002,0.0,0.0,0.0,0.0
0.6199999999999997,0.0938784,-9.217152,-1.7349216,1.4569440000000002,0.0,0.0,0.0,0.0
0.6399999999999997,0.15849600000000003,-9.1628976,-1.789176,1.3801344,0.0,0.0,0.0,0.0
0.6599999999999997,0.150876,-9.108643200000001,-1.7349216,1.4569440000000002,0.0,0.0,0.0,0.0
0.6799999999999997,0.0661416,-9.108643200000001,-1.8434304000000001,1.4569440000000002,0.0,0.0,0.0,0.0
0.6999999999999997,0.11582400000000001,-9.108643200000001,-1.7349216,1.4569440000000002,0.0,0.0,0.0,0.0
0.7199999999999998,0.22616160000000002,-9.0543888,-1.6806672000000002,1.3801344,0.0,0.0,0.0,0.0
0.7399999999999998,0.2075688,-9.0543888,-1.789176,1.3801344,0.0,0.0,0.0,0.0
0.7599999999999998,0.216408,-9.1628976,-1.789176,1.3801344,0.0,0.0,0.0,0.0
0.7799999999999998,0.1456944,-9.0001344,-1.8434304000000001,1.3801344,0.0,0.0,0.0,0.0
0.7999999999999998,0.0877824,-9.1628976,-1.789176,1.4569440000000002,0.0,0.0,0.0,0.0
0.8199999999999998,0.025908,-9.0001344,-1.8434304000000001,1.4569440000000002,0.0,0.0,0.0,0.0
0.8399999999999999,-0.007315200000000003,-9.108643200000001,-1.8434304000000001,1.3801344,0.0,0.0,0.0,0.0
0.8599999999999999,0.023164799999999996,-9.108643200000001,-1.7349216,1.5334488,0.0,0.0,0.0,0.0
0.8799999999999999,-0.0810768,-9.108643200000001,-1.8434304000000001,1.4569440000000002,0.0,0.0,0.0,0.0
0.8999999999999995,-0.13502640000000002,-9.1628976,-1.8976848000000002,1.3801344,0.0,0.0,0.0,0.0
0.9199999999999995,-0.17343119999999998,-9.108643200000001,-1.7349216,1.4569440000000002,0.0,0.0,0.0,0.0
0.9399999999999995,-0.12100560000000002,-9.0543888,-1.789176,1.3036296,0.0,0.0,0.0,0.0
0.9599999999999995,-0.1088136,-9.108643200000001,-1.7349216,1.3801344,0.0,0.0,0.0,0.0
0.9799999999999995,-0.057912000000000005,-9.0543888,-1.789176,1.3801344,0.0,0.0,0.0,0.0
0.9999999999999996,0.04297680000000001,-9.108643200000001,-1.8434304000000001,1.4569440000000002,0.0,0.0,0.0,0.0
1.0199999999999996,0.0432816,-9.108643200000001,-1.7349216,1.4569440000000002,0.0,0.0,0.0,0.0
1.0399999999999996,0.04297680000000001,-9.0001344,-1.8434304000000001,1.4569440000000002,0.0,0.0,0.0,0.0
1.0599999999999996,0.0018288000000000017,-9.108643200000001,-1.8434304000000001,1.5334488,0.0,0.0,0.0,0.0
1.0799999999999996,-0.06096000000000001,-9.0543888,-1.789176,1.4569440000000002,0.0,0.0,0.0,0.0
1.0999999999999996,-0.08412480000000001,-9.108643200000001,-1.8434304000000001,1.5334488,0.0,0.0,0.0,0.0
1.1199999999999997,-0.015240000000000002,-9.108643200000001,-1.8434304000000001,1.4569440000000002,0.0,0.0,0.0,0.0
1.1399999999999997,-0.06370320000000002,-9.1628976,-1.789176,1.5334488,0.0,0.0,0.0,0.0
1.1599999999999997,-0.065532,-9.1628976,-1.789176,1.6102584000000002,0.0,0.0,0.0,0.0
1.1799999999999997,-0.05212080000000001,-9.108643200000001,-1.7349216,1.4569440000000002,0.0,0.0,0.0,0.0
1.1999999999999997,-0.06888480000000001,-9.0543888,-1.789176,1.5334488,0.0,0.0,0.0,0.0
1.2199999999999998,-0.021336000000000004,-9.1628976,-1.8976848000000002,1.5334488,0.0,0.0,0.0,0.0
1.2399999999999998,-0.14356080000000002,-9.0001344,-1.8434304000000001,1.4569440000000002,0.0,0.0,0.0,0.0
1.2599999999999998,-0.188976,-9.108643200000001,-1.7349216,1.3801344,0.0,0.0,0.0,0.0
1.2799999999999998,-0.23987760000000002,-9.0543888,-1.789176,1.3801344,0.0,0.0,0.0,0.0
1.2999999999999998,-0.10088880000000001,-9.0543888,-1.789176,1.3036296,0.0,0.0,0.0,0.0
1.3199999999999998,-0.2145792,-9.108643200000001,-1.7349216,1.3801344,0.0,0.0,0.0,0.0
1.3399999999999999,-0.1106424,-9.108643200000001,-1.7349216,1.3801344,0.0,0.0,0.0,0.0
1.3599999999999999,-0.21061680000000002,-9.108643200000001,-1.7349216,1.3801344,0.0,0.0,0.0,0.0
1.38,-0.1901952,-9.1628976,-1.789176,1.3801344,0.0,0.0,0.0,0.0
1.3999999999999995,-0.1941576,-9.108643200000001,-1.8434304000000001,1.4569440000000002,0.0,0.0,0.0,0.0
1.4199999999999995,-0.27310080000000003,-9.0543888,-1.789176,1.5334488,0.0,0.0,0.0,0.0
1.4399999999999995,-0.14356080000000002,-9.108643200000001,-1.7349216,1.4569440000000002,0.0,0.0,0.0,0.0
1.4599999999999995,-0.0978408,-9.108643200000001,-1.7349216,1.4569440000000002,0.0,0.0,0.0,0.0
1.4799999999999995,-0.10027920000000001,-9.1628976,-1.789176,1.3801344,0.0,0.0,0.0,0.0
1.4999999999999996,0.0362712,-9.108643200000001,-1.7349216,1.4569440000000002,0.0,0.0,0.0,0.0
1.5199999999999996,0.011582399999999994,-9.1628976,-1.789176,1.3801344,0.0,0.0,0.0,0.0
1.5399999999999996,0.0399288,-9.108643200000001,-1.7349216,1.4569440000000002,0.0,0.0,0.0,0.0
1.5599999999999996,0.0265176,-9.108643200000001,-1.7349216,1.5334488,0.0,0.0,0.0,0.0
1.5799999999999996,0.0079248,-9.1628976,-1.789176,1.4569440000000002,0.0,0.0,0.0,0.0
1.5999999999999996,0.11795760000000001,-9.108643200000001,-1.7349216,1.4569440000000002,0.0,0.0,0.0,0.0
1.6199999999999997,0.015239999999999997,-9.0543888,-1.789176,1.5334488,0.0,0.0,0.0,0.0
1.6399999999999997,0.09631680000000001,-9.0543888,-1.8976848000000002,1.5334488,0.0,0.0,0.0,0.0
1.6599999999999997,0.0874776,-9.1628976,-1.789176,1.5334488,0.0,0.0,0.0,0.0
1.6799999999999997,0.1030224,-9.1628976,-1.789176,1.4569440000000002,0.0,0.0,0.0,0.0
1.6999999999999997,0.108204,-9.1628976,-1.789176,1.4569440000000002,0.0,0.0,0.0,0.0
1.7199999999999998,0.06156960000000001,-9.0543888,-1.789176,1.4569440000000002,0.0,0.0,0.0,0.0
1.7399999999999998,-0.1109472,-9.108643200000001,-1.7349216,1.3801344,0.0,0.0,0.0,0.0
1.7599999999999998,-0.23439120000000002,-9.1628976,-1.789176,1.3801344,0.0,0.0,0.0,0.0
1.7799999999999998,-0.30967680000000003,-9.0543888,-1.789176,1.3036296,0.0,0.0,0.0,0.0
1.7999999999999998,-0.20695920000000004,-9.1628976,-1.789176,1.4569440000000002,0.0,0.0,0.0,0.0
1.8199999999999998,-0.2136648,-9.1628976,-1.789176,1.4569440000000002,0.0,0.0,0.0,0.0
1.8399999999999999,-0.19263360000000002,-9.108643200000001,-1.8434304000000001,1.4569440000000002,0.0,0.0,0.0,0.0
1.8599999999999999,-0.20787360000000002,-9.108643200000001,-1.7349216,1.2268200000000002,0.0,0.0,0.0,0.0
1.88,-0.1027176,-9.0543888,-1.789176,1.3801344,0.0,0.0,0.0,0.0
1.8999999999999995,0.0743712,-9.1628976,-1.789176,1.5334488,0.0,0.0,0.0,0.0
1.9199999999999995,0.11704320000000001,-9.1628976,-1.789176,1.4569440000000002,0.0,0.0,0.0,0.0
1.9399999999999995,0.2883408,-9.108643200000001,-1.8434304000000001,1.3036296,0.0,0.0,0.0,0.0
1.9599999999999995,0.269748,-9.108643200000001,-1.8434304000000001,1.5334488,0.0,0.0,0.0,0.0
1.9799999999999995,0.239268,-9.0543888,-1.789176,1.5334488,0.0,0.0,0.0,0.0
1.9999999999999996,0.2121408,-9.1628976,-1.8976848000000002,1.4569440000000002,0.0,0.0,0.0,0.0
2.0199999999999996,0.06370320000000002,-9.1628976,-1.6806672000000002,1.5334488,0.0,0.0,0.0,0.0
2.0399999999999996,-0.039014400000000005,-9.108643200000001,-1.8434304000000001,1.3801344,0.0,0.0,0.0,0.0
2.0599999999999996,0.0079248,-9.0001344,-1.8434304000000001,1.4569440000000002,0.0,0.0,0.0,0.0
2.0799999999999996,-0.1301496,-9.1628976,-1.6806672000000002,1.3801344,0.0,0.0,0.0,0.0
2.0999999999999996,-0.2167128,-9.1628976,-1.6806672000000002,1.3801344,0.0,0.0,0.0,0.0
2.1199999999999997,-0.06675120000000001,-9.108643200000001,-1.8434304000000001,1.4569440000000002,0.0,0.0,0.0,0.0
2.1399999999999997,-0.05212080000000001,-9.0543888,-1.6806672000000002,1.4569440000000002,0.0,0.0,0.0,0.0
2.1599999999999997,-0.10668,-9.1628976,-1.789176,1.4569440000000002,0.0,0.0,0.0,0.0
2.1799999999999997,-0.0356616,-9.1628976,-1.789176,1.5334488,0.0,0.0,0.0,0.0
2.1999999999999997,-0.1335024,-9.108643200000001,-1.7349216,1.3036296,0.0,0.0,0.0,0.0
2.2199999999999998,-0.12283440000000001,-9.217152,-1.7349216,1.3801344,0.0,0.0,0.0,0.0
2.2399999999999998,-0.043586400000000004,-9.1628976,-1.789176,1.3801344,0.0,0.0,0.0,0.0
2.26,-0.0018288000000000017,-9.108643200000001,-1.7349216,1.3036296,0.0,0.0,0.0,0.0
2.2799999999999994,-0.022860000000000005,-9.0543888,-1.789176,1.4569440000000002,0.0,0.0,0.0,0.0
2.3,0.0359664,-9.1628976,-1.6806672000000002,1.3801344,0.0,0.0,0.0,0.0
2.3199999999999994,-0.096012,-9.108643200000001,-1.7349216,1.4569440000000002,0.0,0.0,0.0,0.0
2.34,0.0509016,-9.217152,-1.7349216,1.4569440000000002,0.0,0.0,0.0,0.0
2.3599999999999994,-0.011277600000000002,-9.0543888,-1.789176,1.4569440000000002,0.0,0.0,0.0,0.0
2.38,-0.0018288000000000017,-9.0543888,-1.789176,1.5334488,0.0,0.0,0.0,0.0
2.3999999999999995,-0.1267968,-9.108643200000001,-1.7349216,1.5334488,0.0,0.0,0.0,0.0
2.42,-0.16306800000000002,-9.108643200000001,-1.8434304000000001,1.4569440000000002,0.0,0.0,0.0,0.0
2.4399999999999995,-0.1972056,-9.108643200000001,-1.7349216,1.4569440000000002,0.0,0.0,0.0,0.0
2.46,-0.24902160000000004,-9.108643200000001,-1.7349216,1.3801344,0.0,0.0,0.0,0.0
2.4799999999999995,-0.3160776,-9.0543888,-1.789176,1.3801344,0.0,0.0,0.0,0.0
2.5,-0.33040320000000006,-9.1628976,-1.789176,1.3801344,0.0,0.0,0.0,0.0
2.5199999999999996,-0.12435840000000002,-9.0543888,-1.8976848000000002,1.3801344,0.0,0.0,0.0,0.0
2.5399999999999996,-0.1728216,-9.108643200000001,-1.8434304000000001,1.4569440000000002,0.0,0.0,0.0,0.0
2.5599999999999996,-0.3380232,-9.0543888,-1.789176,1.4569440000000002,0.0,0.0,0.0,0.0
2.5799999999999996,-0.0999744,-9.108643200000001,-1.7349216,1.3801344,0.0,0.0,0.0,0.0
2.5999999999999996,-0.0765048,-9.1628976,-1.789176,1.5334488,0.0,0.0,0.0,0.0
2.6199999999999997,-0.06339840000000001,-9.108643200000001,-1.7349216,1.3036296,0.0,0.0,0.0,0.0
2.6399999999999997,0.0688848,-9.108643200000001,-1.7349216,1.4569440000000002,0.0,0.0,0.0,0.0
2.6599999999999997,0.0573024,-9.0543888,-1.789176,1.3801344,0.0,0.0,0.0,0.0
2.6799999999999997,0.0795528,-9.108643200000001,-1.7349216,1.4569440000000002,0.0,0.0,0.0,0.0
2.6999999999999997,0.19354800000000003,-9.217152,-1.7349216,1.5334488,0.0,0.0,0.0,0.0
2.7199999999999998,0.044196000000000006,-9.217152,-1.8434304000000001,1.4569440000000002,0.0,0.0,0.0,0.0
2.7399999999999998,0.024993599999999998,-9.0543888,-1.789176,1.3036296,0.0,0.0,0.0,0.0
2.76,0.0027431999999999943,-9.108643200000001,-1.7349216,1.4569440000000002,0.0,0.0,0.0,0.0
2.7799999999999994,0.10271759999999999,-9.0543888,-1.789176,1.5334488,0.0,0.0,0.0,0.0
2.8,0.0018288000000000017,-9.1628976,-1.789176,1.4569440000000002,0.0,0.0,0.0,0.0
2.8199999999999994,0.0094488,-9.1628976,-1.789176,1.4569440000000002,0.0,0.0,0.0,0.0
2.84,-0.1566672,-9.108643200000001,-1.8434304000000001,1.5334488,0.0,0.0,0.0,0.0
2.8599999999999994,-0.1149096,-9.0543888,-1.789176,1.5334488,0.0,0.0,0.0,0.0
2.88,-0.1149096,-9.1628976,-1.789176,1.6867632000000001,0.0,0.0,0.0,0.0
2.8999999999999995,-0.24444960000000002,-9.0543888,-1.789176,1.4569440000000002,0.0,0.0,0.0,0.0
2.92,-0.21092160000000004,-9.1628976,-1.6806672000000002,1.6102584000000002,0.0,0.0,0.0,0.0
2.9399999999999995,-0.3416808,-9.108643200000001,-1.8434304000000001,1.4569440000000002,0.0,0.0,0.0,0.0
2.96,-0.42336719999999994,-9.0543888,-1.789176,1.4569440000000002,0.0,0.0,0.0,0.0
2.9799999999999995,-0.2548128,-9.1628976,-1.789176,1.3801344,0.0,0.0,0.0,0.0
3.0,-0.0957072,-9.1628976,-1.789176,1.3036296,0.0,0.0,0.0,0.0
3.0199999999999996,-0.17007840000000002,-9.108643200000001,-1.7349216,1.4569440000000002,0.0,0.0,0.0,0.0
3.0399999999999996,-0.31242,-9.1628976,-1.789176,1.3801344,0.0,0.0,0.0,0.0
3.0599999999999996,-0.2761488,-9.108643200000001,-1.8434304000000001,1.4569440000000002,0.0,0.0,0.0,0.0
3.0799999999999996,-0.27432,-9.1628976,-1.789176,1.3036296,0.0,0.0,0.0,0.0
3.0999999999999996,-0.2901696,-9.0001344,-1.7349216,1.3801344,0.0,0.0,0.0,0.0
3.1199999999999997,-0.318516,-9.108643200000001,-1.8434304000000001,1.3801344,0.0,0.0,0.0,0.0
3.1399999999999997,-0.1469136,-9.108643200000001,-1.8434304000000001,1.3801344,0.0,0.0,0.0,0.0
3.1599999999999997,-0.1307592,-9.108643200000001,-1.8434304000000001,1.3801344,0.0,0.0,0.0,0.0
3.1799999999999997,-0.06217920000000001,-9.108643200000001,-1.8434304000000001,1.4569440000000002,0.0,0.0,0.0,0.0
3.1999999999999997,-0.0566928,-9.1628976,-1.789176,1.4569440000000002,0.0,0.0,0.0,0.0
3.2199999999999998,-0.128016,-9.1628976,-1.8976848000000002,1.3801344,0.0,0.0,0.0,0.0
3.2399999999999998,0.0204216,-9.108643200000001,-1.7349216,1.3801344,0.0,0.0,0.0,0.0
3.26,-0.053644800000000006,-9.0543888,-1.8976848000000002,1.3801344,0.0,0.0,0.0,0.0
3.28,-0.18836640000000002,-9.108643200000001,-1.8434304000000001,1.4569440000000002,0.0,0.0,0.0,0.0
3.3,-0.12435840000000002,-9.1628976,-1.789176,1.4569440000000002,0.0,0.0,0.0,0.0
3.32,-0.0643128,-9.1628976,-1.789176,1.3801344,0.0,0.0,0.0,0.0
3.34,0.04480560000000001,-9.108643200000001,-1.7349216,1.5334488,0.0,0.0,0.0,0.0
3.3599999999999994,0.030175200000000003,-9.108643200000001,-1.8434304000000001,1.5334488,0.0,0.0,0.0,0.0
3.38,0.1100328,-9.108643200000001,-1.8434304000000001,1.5334488,0.0,0.0,0.0,0.0
3.3999999999999995,0.0926592,-9.0543888,-1.789176,1.4569440000000002,0.0,0.0,0.0,0.0
3.42,0.0704088,-9.108643200000001,-1.7349216,1.4569440000000002,0.0,0.0,0.0,0.0
3.4399999999999995,0.1947672,-9.108643200000001,-1.7349216,1.4569440000000002,0.0,0.0,0.0,0.0
3.4599999999999995,0.1581912,-9.108643200000001,-1.7349216,1.3801344,0.0,0.0,0.0,0.0
3.4799999999999995,0.04297680000000001,-9.1628976,-1.789176,1.4569440000000002,0.0,0.0,0.0,0.0
3.4999999999999996,0.0368808,-9.1628976,-1.789176,1.3801344,0.0,0.0,0.0,0.0
3.5199999999999996,0.12283440000000001,-9.108643200000001,-1.7349216,1.3801344,0.0,0.0,0.0,0.0
3.5399999999999996,0.071628,-8.94588,-1.789176,1.4569440000000002,0.0,0.0,0.0,0.0
3.5599999999999996,-0.1819656,-9.0543888,-1.789176,1.4569440000000002,0.0,0.0,0.0,0.0
3.5799999999999996,-0.1664208,-9.108643200000001,-1.7349216,1.3036296,0.0,0.0,0.0,0.0
3.5999999999999996,-0.1271016,-9.108643200000001,-1.8434304000000001,1.3036296,0.0,0.0,0.0,0.0
3.6199999999999997,-0.043891200000000005,-9.108643200000001,-1.8434304000000001,1.4569440000000002,0.0,0.0,0.0,0.0
3.6399999999999997,0.006400799999999997,-9.108643200000001,-1.8434304000000001,1.3801344,0.0,0.0,0.0,0.0
3.6599999999999997,-0.006705600000000002,-9.108643200000001,-1.8434304000000001,1.3801344,0.0,0.0,0.0,0.0
3.6799999999999997,0.013411199999999996,-9.0543888,-1.6806672000000002,1.4569440000000002,0.0,0.0,0.0,0.0
3.6999999999999997,0.19537680000000002,-9.0543888,-1.789176,1.4569440000000002,0.0,0.0,0.0,0.0
3.7199999999999998,0.07741920000000001,-9.0543888,-1.789176,1.5334488,0.0,0.0,0.0,0.0
3.7399999999999998,0.06156960000000001,-9.108643200000001,-1.8434304000000001,1.5334488,0.0,0.0,0.0,0.0
3.76,0.06979919999999999,-9.108643200000001,-1.7349216,1.4569440000000002,0.0,0.0,0.0,0.0
3.78,-0.10424159999999999,-9.108643200000001,-1.8434304000000001,1.4569440000000002,0.0,0.0,0.0,0.0
3.8,-0.028956000000000003,-9.108643200000001,-1.7349216,1.6102584000000002,0.0,0.0,0.0,0.0
3.82,0.12405360000000001,-9.108643200000001,-1.7349216,1.4569440000000002,0.0,0.0,0.0,0.0
3.84,0.16245840000000003,-9.108643200000001,-1.7349216,1.5334488,0.0,0.0,0.0,0.0
3.8599999999999994,0.060350400000000005,-9.1628976,-1.6806672000000002,1.4569440000000002,0.0,0.0,0.0,0.0
3.88,0.0280416,-9.108643200000001,-1.7349216,1.4569440000000002,0.0,0.0,0.0,0.0
3.8999999999999995,-0.029870400000000002,-9.0543888,-1.789176,1.4569440000000002,0.0,0.0,0.0,0.0
3.9199999999999995,0.08138160000000001,-9.0543888,-1.789176,1.3801344,0.0,0.0,0.0,0.0
3.9399999999999995,0.16306800000000002,-9.108643200000001,-1.7349216,1.3801344,0.0,0.0,0.0,0.0
3.9599999999999995,0.1917192,-10.4640888,-2.1143976,0.7668768,0.0,0.0,0.0,0.0
3.9799999999999995,0.2115312,-9.813645600000001,-1.6806672000000002,1.6102584000000002,0.0,0.0,0.0,0.0
3.9999999999999996,0.1780032,-9.0001344,-0.9759696,1.4569440000000002,0.0,0.0,0.0,0.0
4.02,0.1804416,-8.3496912,-1.1926824,1.5334488,0.0,0.0,0.0,0.0
4.04,0.044196000000000006,-9.2714064,-1.6806672000000002,1.4569440000000002,0.0,0.0,0.0,0.0
4.06,0.11795760000000001,-9.2714064,-2.1143976,1.2268200000000002,0.0,0.0,0.0,0.0
4.08,0.0667512,-8.4582,-1.7349216,1.5334488,0.0,0.0,0.0,0.0
4.1,-0.07924800000000001,-8.8919304,-1.7349216,1.5334488,0.0,0.0,0.0,0.0
4.12,-0.062484000000000005,-9.4338648,-1.9519392,0.996696,0.0,0.0,0.0,0.0
4.14,-0.09113520000000001,-10.247376,-1.6806672000000002,1.7635728,0.0,0.0,0.0,0.0
4.159999999999999,0.014020799999999996,-8.4039456,-1.4639544,1.6867632000000001,0.0,0.0,0.0,0.0
4.18,0.3112008,-12.6327408,-5.0423064,-0.3834384,0.0,0.0,0.0,0.0
4.199999999999999,0.48981360000000007,-9.1628976,-1.3554456000000001,0.4599432,0.0,0.0,0.0,0.0
4.22,1.0905744000000002,-15.8316168,-2.7108912000000003,3.5271456,0.0,0.0,0.0,0.0
4.239999999999999,1.79832,-42.615612,-3.0361128,12.8817624,0.0,0.0,0.0,0.0
4.26,2.462784,-52.4832072,-3.2531304000000003,15.488716800000002,0.0,0.0,0.0,0.0
4.279999999999999,2.6468832,-63.218568000000005,-17.2413168,13.111581600000001,0.0,0.0,0.0,0.0
4.3,2.7563063999999997,-75.2008656,-6.668719200000001,27.220164000000004,0.0,0.0,0.0,0.0
4.319999999999999,2.9532072,-103.12328880000001,-2.3856696,28.2936696,0.0,0.0,0.0,0.0
4.34,3.1793687999999998,-93.5809152,-8.024164800000001,33.8910168,0.0,0.0,0.0,0.0
4.359999999999999,3.1674816,-59.0979768,-6.0725304,27.833421599999998,0.0,0.0,0.0,0.0
4.38,3.022092,-54.8146224,-12.524536800000002,24.9198384,0.0,0.0,0.0,0.0
4.3999999999999995,2.7727656,-44.5675512,-10.735360799999999,16.255288800000002,0.0,0.0,0.0,0.0
4.42,2.631948,-43.1035968,-2.3314152,9.4311216,0.0,0.0,0.0,0.0
4.4399999999999995,2.6221944,-39.416736,-0.0542544,10.5046272,0.0,0.0,0.0,0.0
4.46,2.5295351999999998,-37.62756,-2.8194000000000004,12.804952800000002,0.0,0.0,0.0,0.0
4.4799999999999995,2.77368,-35.458908,-6.2892432000000005,12.8817624,0.0,0.0,0.0,0.0
4.5,3.0315408,-34.9709232,-5.367528,10.9645704,0.0,0.0,0.0,0.0
4.52,3.3113471999999997,-37.573305600000005,-3.957828,8.357616,0.0,0.0,0.0,0.0
4.54,3.7347144,-33.777936,-2.4399240000000004,10.1979984,0.0,0.0,0.0,0.0
4.56,4.0084248,-32.5852536,-3.957828,11.1181896,0.0,0.0,0.0,0.0
4.58,4.1190672,-32.693762400000004,-3.5240976,10.811256,0.0,0.0,0.0,0.0
4.6,4.447032,-33.8864448,-3.198876,9.6612456,0.0,0.0,0.0,0.0
4.619999999999999,4.8447960000000005,-32.043014400000004,-3.3073848000000003,8.971178400000001,0.0,0.0,0.0,0.0
4.64,5.1666648,-30.7418232,-3.3073848000000003,9.4311216,0.0,0.0,0.0,0.0
4.66,5.6320944,-30.4705512,-3.1446216000000002,9.737750400000001,0.0,0.0,0.0,0.0
4.68,6.1578744,-29.9825664,-2.9818584,9.047683200000002,0.0,0.0,0.0,0.0
4.699999999999999,6.5632584000000005,-28.518916800000003,-3.1446216000000002,8.8943688,0.0,0.0,0.0,0.0
4.72,6.9896736,-27.325929600000002,-2.6023824,7.8208632,0.0,0.0,0.0,0.0
4.739999999999999,7.6065888,-26.1875016,-2.548128,8.2043016,0.0,0.0,0.0,0.0
4.76,8.0930496,-26.7836904,-2.3856696,8.8943688,0.0,0.0,0.0,0.0
4.779999999999999,8.3990688,-26.9464536,-2.2229064000000003,9.047683200000002,0.0,0.0,0.0,0.0
4.8,8.8983312,-26.0247384,-3.0361128,8.2811112,0.0,0.0,0.0,0.0
4.819999999999999,9.393326400000001,-26.349960000000003,-3.0361128,8.5109304,0.0,0.0,0.0,0.0
4.84,9.812121600000001,-25.5367536,-2.3314152,8.58774,0.0,0.0,0.0,0.0
4.859999999999999,10.1952552,-27.651456,-2.4941784,9.2778072,0.0,0.0,0.0,0.0
4.88,10.6302048,-25.9162296,-1.9519392,8.971178400000001,0.0,0.0,0.0,0.0
4.8999999999999995,10.8944664,-27.325929600000002,-2.6023824,8.6645496,0.0,0.0,0.0,0.0
4.92,11.358981600000002,-25.4282448,-2.8736544000000004,9.2013024,0.0,0.0,0.0,0.0
4.9399999999999995,11.8695216,-25.5367536,-2.9818584,8.4344256,0.0,0.0,0.0,0.0
4.96,12.2989848,-25.591008,-2.3856696,8.4344256,0.0,0.0,0.0,0.0
4.9799999999999995,12.6199392,-25.211532000000002,-2.9818584,8.050987200000002,0.0,0.0,0.0,0.0
5.0,13.0463544,-25.1030232,-3.198876,8.8943688,0.0,0.0,0.0,0.0
5.02,13.5751824,-25.8080256,-2.4941784,8.2043016,0.0,0.0,0.0,0.0
5.04,13.992758400000001,-24.1270536,-2.1143976,7.8976728000000005,0.0,0.0,0.0,0.0
5.06,14.3953992,-23.801832,-2.9818584,7.8976728000000005,0.0,0.0,0.0,0.0
5.08,14.9467824,-24.7778016,-2.4399240000000004,7.6675488,0.0,0.0,0.0,0.0
5.1,15.584424000000002,-24.832056,-3.3616392,7.6675488,0.0,0.0,0.0,0.0
5.119999999999999,16.1614104,-25.0487688,-2.6023824,7.2076056,0.0,0.0,0.0,0.0
5.14,16.671036,-24.669292800000004,-2.8736544000000004,7.36092,0.0,0.0,0.0,0.0
5.16,17.131588800000003,-24.7778016,-3.0903671999999998,8.4344256,0.0,0.0,0.0,0.0
5.18,17.8006248,-25.3200408,-2.1143976,7.8976728000000005,0.0,0.0,0.0,0.0
5.199999999999999,18.5860944,-25.645262400000004,-2.7651456,7.2076056,0.0,0.0,0.0,0.0
5.22,19.316395200000002,-25.970484,-2.0061936,6.9774816,0.0,0.0,0.0,0.0
5.24,20.057668800000002,-24.723547200000002,-2.9279088,7.8976728000000005,0.0,0.0,0.0,0.0
5.26,20.626730400000003,-24.6150384,-2.8194000000000004,7.8208632,0.0,0.0,0.0,0.0
5.279999999999999,21.127821599999997,-24.832056,-2.4941784,7.36092,0.0,0.0,0.0,0.0
5.3,21.651163200000003,-25.591008,-2.7108912000000003,7.9744824,0.0,0.0,0.0,0.0
5.319999999999999,22.1159832,-24.669292800000004,-2.8736544000000004,7.9744824,0.0,0.0,0.0,0.0
5.34,22.667976000000003,-24.3983256,-2.2771608000000003,8.741054400000001,0.0,0.0,0.0,0.0
5.359999999999999,23.2025952,-23.0971344,-2.6023824,8.2811112,0.0,0.0,0.0,0.0
5.38,23.846028,-23.4766104,-1.8976848000000002,7.744358400000001,0.0,0.0,0.0,0.0
5.3999999999999995,24.5772432,-23.801832,-2.4399240000000004,6.9009768,0.0,0.0,0.0,0.0
5.42,25.261824,-24.45258,-2.0061936,7.5142344,0.0,0.0,0.0,0.0
5.4399999999999995,25.996392000000004,-22.2836232,-2.8736544000000004,7.8976728000000005,0.0,0.0,0.0,0.0
5.46,26.610564,-22.012656,-2.9279088,8.2043016,0.0,0.0,0.0,0.0
5.4799999999999995,27.1540224,-22.5006408,-3.198876,7.36092,0.0,0.0,0.0,0.0
5.5,27.8062944,-23.422356,-3.6868608000000003,6.747662400000001,0.0,0.0,0.0,0.0
5.52,28.476549600000002,-22.880116800000003,-2.6023824,6.594043200000001,0.0,0.0,0.0,0.0
5.539999999999999,29.178504000000004,-24.344071200000002,-3.3073848000000003,7.36092,0.0,0.0,0.0,0.0
5.56,29.7942,-23.04288,-2.8736544000000004,8.2043016,0.0,0.0,0.0,0.0
5.58,30.265116000000003,-23.856086400000002,-2.6023824,7.591044000000001,0.0,0.0,0.0,0.0
5.6,30.797601600000004,-22.4463864,-2.3856696,6.8241672,0.0,0.0,0.0,0.0
5.619999999999999,31.476086400000003,-22.5548952,-3.3616392,7.2076056,0.0,0.0,0.0,0.0
5.64,32.1649344,-22.771608,-3.0361128,8.1277968,0.0,0.0,0.0,0.0
5.66,32.8281792,-22.5548952,-2.4941784,9.047683200000002,0.0,0.0,0.0,0.0
5.68,33.6093816,-23.151084,-2.3314152,8.8943688,0.0,0.0,0.0,0.0
5.699999999999999,34.3079832,-22.392132000000004,-2.4399240000000004,7.591044000000001,0.0,0.0,0.0,0.0
5.72,34.9913448,-21.090940800000002,-3.5240976,7.8208632,0.0,0.0,0.0,0.0
5.74,35.679888000000005,-22.392132000000004,-3.957828,7.9744824,0.0,0.0,0.0,0.0
5.76,36.452556,-21.7956384,-3.0361128,7.130796,0.0,0.0,0.0,0.0
5.779999999999999,37.16274,-23.151084,-3.6326064,6.4407288000000005,0.0,0.0,0.0,0.0
5.8,37.8741432,-20.494447200000003,-3.7953696000000003,6.6708528000000005,0.0,0.0,0.0,0.0
5.819999999999999,38.6757672,-21.5789256,-3.2531304000000003,6.9774816,0.0,0.0,0.0,0.0
5.84,39.396009600000006,-19.0304928,-4.3915584,7.8976728000000005,0.0,0.0,0.0,0.0
5.859999999999999,40.13362560000001,-21.849892800000003,-4.7170848,7.2841104,0.0,0.0,0.0,0.0
5.88,40.845333600000004,-21.687434400000004,-3.4698432,7.130796,0.0,0.0,0.0,0.0
5.8999999999999995,41.62044,-21.0366864,-4.8795432000000005,7.8208632,0.0,0.0,0.0,0.0
5.92,42.3711624,-22.337877600000002,-4.554321600000001,8.2811112,0.0,0.0,0.0,0.0
5.9399999999999995,43.20082800000001,-21.090940800000002,-5.0423064,7.6675488,0.0,0.0,0.0,0.0
5.96,44.029274400000006,-20.277734400000003,-4.988052,7.8976728000000005,0.0,0.0,0.0,0.0
5.9799999999999995,44.842176,-20.982432000000003,-5.1508152,7.591044000000001,0.0,0.0,0.0,0.0
6.0,45.676718400000006,-22.175419200000004,-4.5000672,7.130796,0.0,0.0,0.0,0.0
6.02,46.59142320000001,-21.687434400000004,-4.445812800000001,6.9774816,0.0,0.0,0.0,0.0
6.039999999999999,47.39335200000001,-22.337877600000002,-5.7470040000000004,7.36092,0.0,0.0,0.0,0.0
6.06,48.30714240000001,-21.63318,-4.3915584,7.2076056,0.0,0.0,0.0,0.0
6.08,49.13863680000001,-19.844004,-5.205069600000001,7.130796,0.0,0.0,0.0,0.0
6.1,49.98171360000001,-12.4702824,-2.6023824,2.6069544000000002,0.0,0.0,0.0,0.0
6.119999999999999,50.61935520000001,1.3011912,-1.9519392,-1.0735056,0.0,0.0,0.0,0.0
6.14,50.88148320000001,5.096560800000001,-0.4337304,-1.8400776,0.0,0.0,0.0,0.0
6.16,51.166471200000004,4.988052,-0.5422392,-2.3003256,0.0,0.0,0.0,0.0
6.18,51.41488320000001,5.421782400000001,0.3252216,-2.1470112,0.0,0.0,0.0,0.0
6.199999999999999,51.76936560000001,5.6930544,-1.1387328,-2.223516,0.0,0.0,0.0,0.0
6.22,52.17627360000001,5.0423064,-0.16276320000000002,-1.8400776,0.0,0.0,0.0,0.0
6.24,52.57586640000001,4.445812800000001,0.8674608,-1.8400776,0.0,0.0,0.0,0.0
6.26,53.06720400000001,5.096560800000001,0.3252216,-1.5334488,0.0,0.0,0.0,0.0
6.279999999999999,53.614320000000006,4.7713392,0.0,-2.223516,0.0,0.0,0.0,0.0
6.3,54.211118400000004,5.259324,-0.5964936000000001,-1.6102584000000002,0.0,0.0,0.0,0.0
6.32,54.83992080000001,4.554321600000001,0.2170176,-2.0702016,0.0,0.0,0.0,0.0
6.34,55.483048800000006,5.1508152,0.16276320000000002,-2.6069544000000002,0.0,0.0,0.0,0.0
6.359999999999999,56.14294080000001,4.7170848,0.8132064000000001,-2.4536400000000005,0.0,0.0,0.0,0.0
6.38,56.84276160000001,4.8252888,0.0542544,-2.4536400000000005,0.0,0.0,0.0,0.0
6.3999999999999995,57.586473600000005,4.608576,0.16276320000000002,-1.6867632000000001,0.0,0.0,0.0,0.0
6.42,58.181748000000006,3.7953696000000003,0.3252216,-2.0702016,0.0,0.0,0.0,0.0
6.4399999999999995,58.95472080000001,4.3376088,0.3252216,-1.7635728,0.0,0.0,0.0,0.0
6.459999999999999,59.713672800000005,4.7713392,0.1085088,-1.4569440000000002,0.0,0.0,0.0,0.0
6.4799999999999995,60.51163920000001,4.6628304,-0.3252216,-1.0735056,0.0,0.0,0.0,0.0
6.5,61.307472000000004,5.3132736,-0.5422392,-1.9168872,0.0,0.0,0.0,0.0
6.52,62.072520000000004,3.5240976,-0.4879848,-1.9168872,0.0,0.0,0.0,0.0
6.539999999999999,62.84457840000001,4.0663368,0.16276320000000002,-2.1470112,0.0,0.0,0.0,0.0
6.56,63.55171440000001,4.554321600000001,0.2170176,-0.6135624,0.0,0.0,0.0,0.0
6.58,64.2073392,5.0423064,0.2709672,-0.6900672,0.0,0.0,0.0,0.0
6.6,64.80291840000001,4.3376088,-0.8674608,-1.7635728,0.0,0.0,0.0,0.0
6.619999999999999,65.37807600000001,3.9035736000000005,-0.8674608,-1.8400776,0.0,0.0,0.0,0.0
6.64,66.024252,4.012082400000001,-0.650748,-1.9936968000000002,0.0,0.0,0.0,0.0
6.66,66.71736720000001,4.0663368,-0.37947600000000004,-1.9168872,0.0,0.0,0.0,0.0
6.68,67.41505440000002,4.445812800000001,-1.0844784,-1.7635728,0.0,0.0,0.0,0.0
6.699999999999999,68.1849792,4.012082400000001,-0.3252216,-1.7635728,0.0,0.0,0.0,0.0
6.72,68.72996160000001,3.6868608000000003,-0.2170176,-1.9168872,0.0,0.0,0.0,0.0
6.74,69.299328,4.120591200000001,-0.1085088,-2.1470112,0.0,0.0,0.0,0.0
6.76,69.947028,3.9035736000000005,-0.4337304,-2.1470112,0.0,0.0,0.0,0.0
6.779999999999999,70.49475360000001,4.012082400000001,-0.4337304,-1.3036296,0.0,0.0,0.0,0.0
6.8,71.10496320000001,3.6868608000000003,0.7589520000000001,-1.3801344,0.0,0.0,0.0,0.0
6.82,71.66731920000001,4.0663368,-0.0542544,-1.9936968000000002,0.0,0.0,0.0,0.0
6.84,72.14189280000001,3.7411152,-0.2709672,-1.7635728,0.0,0.0,0.0,0.0
6.859999999999999,72.69266640000001,3.9035736000000005,0.0,-1.9168872,0.0,0.0,0.0,0.0
6.88,73.2254568,3.957828,-0.2709672,-0.6135624,0.0,0.0,0.0,0.0
6.8999999999999995,73.6954584,3.7953696000000003,0.1085088,-0.9201912000000001,0.0,0.0,0.0,0.0
6.92,74.17704240000002,3.578352,-0.3252216,-1.9168872,0.0,0.0,0.0,0.0
6.9399999999999995,74.70678480000001,3.5240976,-0.0542544,-1.4569440000000002,0.0,0.0,0.0,0.0
6.959999999999999,75.245976,3.578352,-0.1085088,-1.1500104,0.0,0.0,0.0,0.0
6.9799999999999995,75.77693760000001,3.578352,0.0,-1.3036296,0.0,0.0,0.0,0.0
7.0,76.3627632,3.198876,0.2709672,-1.4569440000000002,0.0,0.0,0.0,0.0
7.02,76.8772656,3.3073848000000003,-0.0542544,-1.6102584000000002,0.0,0.0,0.0,0.0
7.039999999999999,77.3725656,3.1446216000000002,-0.1085088,-1.6867632000000001,0.0,0.0,0.0,0.0
7.06,77.8937736,3.1446216000000002,0.3252216,-1.4569440000000002,0.0,0.0,0.0,0.0
7.08,78.415896,3.198876,-0.0542544,-1.5334488,0.0,0.0,0.0,0.0
7.1,78.9063192,3.1446216000000002,0.2170176,-1.5334488,0.0,0.0,0.0,0.0
7.119999999999999,79.4147256,3.3073848000000003,0.37947600000000004,-1.3036296,0.0,0.0,0.0,0.0
7.14,79.856076,2.9818584,0.2709672,-1.0735056,0.0,0.0,0.0,0.0
7.16,80.37362639999999,2.8736544000000004,0.16276320000000002,-1.5334488,0.0,0.0,0.0,0.0
7.18,80.8469808,2.8736544000000004,0.2709672,-1.4569440000000002,0.0,0.0,0.0,0.0
7.199999999999999,81.4602384,2.9279088,-0.2170176,-1.6102584000000002,0.0,0.0,0.0,0.0
7.22,81.919572,2.8194000000000004,0.0,-1.0735056,0.0,0.0,0.0,0.0
7.24,82.32647999999999,2.548128,-0.2709672,-1.5334488,0.0,0.0,0.0,0.0
7.26,82.7294256,3.0361128,-0.1085088,-1.5334488,0.0,0.0,0.0,0.0
7.279999999999999,83.2183248,2.8736544000000004,-0.16276320000000002,-1.0735056,0.0,0.0,0.0,0.0
7.3,83.7535536,2.6566368,-0.0542544,-1.5334488,0.0,0.0,0.0,0.0
7.32,84.15009839999999,2.7108912000000003,0.2170176,-1.2268200000000002,0.0,0.0,0.0,0.0
7.34,84.58200000000001,2.7108912000000003,0.2170176,-1.3801344,0.0,0.0,0.0,0.0
7.359999999999999,85.02883680000001,2.7108912000000003,0.0,-1.3801344,0.0,0.0,0.0,0.0
7.38,85.48603680000001,2.6566368,-0.2709672,-1.1500104,0.0,0.0,0.0,0.0
7.3999999999999995,85.9072704,2.4399240000000004,-0.16276320000000002,-1.1500104,0.0,0.0,0.0,0.0
7.42,86.3519736,2.6566368,0.0542544,-1.3801344,0.0,0.0,0.0,0.0
7.4399999999999995,86.90610000000001,2.3856696,-0.2170176,-1.0735056,0.0,0.0,0.0,0.0
7.459999999999999,87.4154208,2.6566368,0.0542544,-1.0735056,0.0,0.0,0.0,0.0
7.4799999999999995,87.89273759999999,2.548128,0.0542544,-1.1500104,0.0,0.0,0.0,0.0
7.5,88.3313448,2.6566368,0.16276320000000002,-1.1500104,0.0,0.0,0.0,0.0
7.52,88.7461776,2.3856696,0.0,-1.3801344,0.0,0.0,0.0,0.0
7.539999999999999,89.2152648,2.3856696,0.0,-0.9201912000000001,0.0,0.0,0.0,0.0
7.56,89.65356720000001,2.2229064000000003,-0.2709672,-0.8433816000000001,0.0,0.0,0.0,0.0
7.58,90.005916,2.3314152,-0.37947600000000004,-1.2268200000000002,0.0,0.0,0.0,0.0
7.6,90.2387832,2.6023824,0.0,-0.996696,0.0,0.0,0.0,0.0
7.619999999999999,90.575892,2.2771608000000003,0.1085088,-0.8433816000000001,0.0,0.0,0.0,0.0
7.64,90.93708,2.548128,-0.0542544,-0.4599432,0.0,0.0,0.0,0.0
7.66,91.30070640000001,2.1143976,-0.16276320000000002,-0.996696,0.0,0.0,0.0,0.0
7.68,91.7868624,2.4399240000000004,-0.2709672,-0.6900672,0.0,0.0,0.0,0.0
7.699999999999999,92.22089760000001,2.3314152,-0.16276320000000002,-0.6135624,0.0,0.0,0.0,0.0
7.72,92.6497512,2.548128,0.2709672,-0.9201912000000001,0.0,0.0,0.0,0.0
7.74,93.11091359999999,2.0061936,-0.0542544,-1.0735056,0.0,0.0,0.0,0.0
7.76,93.51172559999999,2.3314152,-0.2709672,-1.2268200000000002,0.0,0.0,0.0,0.0
7.779999999999999,93.8701704,2.3314152,-0.16276320000000002,-0.6900672,0.0,0.0,0.0,0.0
7.8,94.1426616,2.1143976,-0.2709672,-0.8433816000000001,0.0,0.0,0.0,0.0
7.82,94.5096408,2.1686520000000002,0.0,-1.0735056,0.0,0.0,0.0,0.0
7.84,94.8418728,2.2229064000000003,-0.2709672,-0.8433816000000001,0.0,0.0,0.0,0.0
7.859999999999999,95.1332616,2.1686520000000002,-0.2170176,-0.7668768,0.0,0.0,0.0,0.0
7.88,95.4560448,1.789176,-0.16276320000000002,-0.996696,0.0,0.0,0.0,0.0
7.8999999999999995,95.72152559999999,1.9519392,-0.1085088,-0.8433816000000001,0.0,0.0,0.0,0.0
7.92,96.0376032,1.9519392,-0.1085088,-0.7668768,0.0,0.0,0.0,0.0
7.9399999999999995,96.36404399999999,2.3856696,-0.1085088,-0.6135624,0.0,0.0,0.0,0.0
7.959999999999999,96.6167232,1.7349216,0.0,-0.996696,0.0,0.0,0.0,0.0
7.9799999999999995,96.9071976,2.0601432,0.1085088,-0.6900672,0.0,0.0,0.0,0.0
8.0,97.2369912,2.0601432,-0.2170176,-0.7668768,0.0,0.0,0.0,0.0
8.02,97.53386640000001,1.789176,0.0542544,-0.6135624,0.0,0.0,0.0,0.0
8.04,97.82586479999999,1.8976848000000002,-0.16276320000000002,-0.7668768,0.0,0.0,0.0,0.0
8.059999999999999,98.147124,1.8434304000000001,-0.1085088,-0.6900672,0.0,0.0,0.0,0.0
8.08,98.38212480000001,1.789176,-0.37947600000000004,-0.6900672,0.0,0.0,0.0,0.0
8.1,98.70155520000002,1.789176,-0.0542544,-0.9201912000000001,0.0,0.0,0.0,0.0
8.12,98.9969064,1.7349216,-0.1085088,-0.7668768,0.0,0.0,0.0,0.0
8.14,99.1953312,1.8976848000000002,-0.4879848,-0.6135624,0.0,0.0,0.0,0.0
8.16,99.4742232,1.6264128000000002,-0.3252216,-0.6135624,0.0,0.0,0.0,0.0
8.18,99.718368,1.6806672000000002,-0.0542544,-0.7668768,0.0,0.0,0.0,0.0
8.2,99.9719616,1.789176,-0.2709672,-0.8433816000000001,0.0,0.0,0.0,0.0
8.219999999999999,100.26396,1.6264128000000002,-0.3252216,-0.7668768,0.0,0.0,0.0,0.0
8.239999999999998,100.5029232,2.0601432,-0.3252216,-0.5367528,0.0,0.0,0.0,0.0
8.26,100.86868319999999,1.5724632,-0.2709672,-0.5367528,0.0,0.0,0.0,0.0
8.28,101.0567448,1.8434304000000001,-0.2170176,-0.8433816000000001,0.0,0.0,0.0,0.0
8.3,101.3402088,1.9519392,-0.3252216,-0.7668768,0.0,0.0,0.0,0.0
8.32,101.496876,1.5724632,-0.37947600000000004,-0.8433816000000001,0.0,0.0,0.0,0.0
8.34,101.68798559999999,1.1926824,-0.3252216,-0.7668768,0.0,0.0,0.0,0.0
8.36,101.88641039999999,1.3554456000000001,-0.37947600000000004,-0.7668768,0.0,0.0,0.0,0.0
8.379999999999999,102.1180584,1.5724632,-0.16276320000000002,-0.6135624,0.0,0.0,0.0,0.0
8.399999999999999,102.2826504,1.5182088,-0.1085088,-0.7668768,0.0,0.0,0.0,0.0
8.42,102.5755632,1.3011912,-0.2170176,-0.6900672,0.0,0.0,0.0,0.0
8.44,102.9224256,1.1387328,-0.2709672,-0.7668768,0.0,0.0,0.0,0.0
8.46,103.1193264,1.4097000000000002,-0.4337304,-0.5367528,0.0,0.0,0.0,0.0
8.48,103.3442688,1.1926824,-0.4337304,-0.6900672,0.0,0.0,0.0,0.0
8.5,103.5048984,1.1926824,-0.2170176,-0.6900672,0.0,0.0,0.0,0.0
8.52,103.73867999999999,1.4639544,0.0542544,-0.5367528,0.0,0.0,0.0,0.0
8.54,103.9797768,1.5182088,0.0,-0.3834384,0.0,0.0,0.0,0.0
8.559999999999999,104.1888696,1.4639544,0.0542544,-0.30662880000000003,0.0,0.0,0.0,0.0
8.58,104.3976576,1.6264128000000002,-0.2170176,-0.23012400000000002,0.0,0.0,0.0,0.0
8.6,104.525064,1.1926824,0.0,-0.4599432,0.0,0.0,0.0,0.0
8.620000000000001,104.71922160000001,1.5182088,0.0,-0.3834384,0.0,0.0,0.0,0.0
8.64,104.8316928,1.1387328,-0.37947600000000004,-0.4599432,0.0,0.0,0.0,0.0
8.66,105.0636456,1.3554456000000001,-0.0542544,-0.5367528,0.0,0.0,0.0,0.0
8.68,105.21391200000001,1.4097000000000002,-0.1085088,-0.5367528,0.0,0.0,0.0,0.0
8.7,105.36265440000001,1.3554456000000001,-0.0542544,-0.6135624,0.0,0.0,0.0,0.0
8.719999999999999,105.4879272,1.3554456000000001,-0.16276320000000002,-0.4599432,0.0,0.0,0.0,0.0
8.739999999999998,105.5833296,1.3011912,-0.1085088,-0.6135624,0.0,0.0,0.0,0.0
8.76,105.6427656,1.2469368,-0.2709672,-0.8433816000000001,0.0,0.0,0.0,0.0
8.78,105.73969199999999,1.4097000000000002,0.1085088,-0.6900672,0.0,0.0,0.0,0.0
8.8,105.9146472,1.2469368,-0.16276320000000002,-0.4599432,0.0,0.0,0.0,0.0
8.82,105.9399456,1.1926824,-0.1085088,-0.5367528,0.0,0.0,0.0,0.0
8.84,106.04449199999999,1.3011912,0.0,-0.6900672,0.0,0.0,0.0,0.0
8.86,106.1688504,1.4097000000000002,0.0,-0.5367528,0.0,0.0,0.0,0.0
8.879999999999999,106.2676056,1.3554456000000001,-0.0542544,-0.4599432,0.0,0.0,0.0,0.0
8.899999999999999,106.3252128,1.2469368,-0.0542544,-0.6135624,0.0,0.0,0.0,0.0
8.92,106.4690784,1.3011912,-0.3252216,-0.6900672,0.0,0.0,0.0,0.0
8.94,106.6047144,1.2469368,-0.4879848,-0.5367528,0.0,0.0,0.0,0.0
8.96,106.6885344,1.5182088,-0.4337304,-0.4599432,0.0,0.0,0.0,0.0
8.98,106.7260248,1.2469368,-0.0542544,-0.5367528,0.0,0.0,0.0,0.0
9.0,106.836972,1.2469368,-0.2709672,-0.6135624,0.0,0.0,0.0,0.0
9.02,106.9637688,1.1387328,-0.2709672,-0.6900672,0.0,0.0,0.0,0.0
9.04,107.0265576,1.0844784,-0.2170176,-0.5367528,0.0,0.0,0.0,0.0
9.059999999999999,107.1329328,1.030224,-0.16276320000000002,-0.6135624,0.0,0.0,0.0,0.0
9.08,107.14238160000001,1.3554456000000001,-0.0542544,-0.4599432,0.0,0.0,0.0,0.0
9.1,107.2447944,0.9217152000000001,-0.2709672,-0.5367528,0.0,0.0,0.0,0.0
9.120000000000001,107.422188,1.3554456000000001,-0.2709672,-0.6135624,0.0,0.0,0.0,0.0
9.14,107.6017152,1.4097000000000002,0.0,-0.5367528,0.0,0.0,0.0,0.0
9.16,107.6715144,1.030224,0.0542544,-0.4599432,0.0,0.0,0.0,0.0
9.18,107.72973119999999,1.2469368,-0.0542544,-0.4599432,0.0,0.0,0.0,0.0
9.2,107.85774719999999,1.1926824,-0.3252216,-0.30662880000000003,0.0,0.0,0.0,0.0
9.219999999999999,107.9827152,1.4097000000000002,0.0,-0.6900672,0.0,0.0,0.0,0.0
9.239999999999998,108.0010032,0.9759696,-0.1085088,-0.7668768,0.0,0.0,0.0,0.0
9.26,108.07689839999999,1.3011912,-0.2170176,-0.4599432,0.0,0.0,0.0,0.0
9.28,108.0366648,1.1387328,-0.2709672,-0.5367528,0.0,0.0,0.0,0.0
9.3,108.14517359999999,1.030224,0.16276320000000002,-0.6900672,0.0,0.0,0.0,0.0
9.32,108.1470024,1.1926824,0.0,-0.6900672,0.0,0.0,0.0,0.0
9.34,108.2296032,1.4097000000000002,-0.2170176,-0.5367528,0.0,0.0,0.0,0.0
9.36,108.2552064,1.3011912,-0.2170176,-0.6135624,0.0,0.0,0.0,0.0
9.379999999999999,108.2372232,1.1387328,-0.16276320000000002,-0.6135624,0.0,0.0,0.0,0.0
9.399999999999999,108.28202879999999,1.1926824,-0.1085088,-0.6135624,0.0,0.0,0.0,0.0
9.42,108.2683128,1.3011912,-0.2170176,-0.5367528,0.0,0.0,0.0,0.0
9.44,108.3515232,1.4097000000000002,0.0,-0.30662880000000003,0.0,0.0,0.0,0.0
9.46,108.3631056,1.4097000000000002,0.0,-0.15331440000000002,0.0,0.0,0.0,0.0
9.48,108.36219120000001,1.2469368,-0.2709672,-0.3834384,0.0,0.0,0.0,0.0
9.5,108.3932808,1.1387328,-0.37947600000000004,-0.5367528,0.0,0.0,0.0,0.0
9.52,108.38139360000001,1.1926824,-0.2170176,-0.6135624,0.0,0.0,0.0,0.0
9.54,108.3557904,1.3011912,-0.1085088,-0.4599432,0.0,0.0,0.0,0.0
9.559999999999999,108.33933119999999,1.4097000000000002,-0.3252216,-0.23012400000000002,0.0,0.0,0.0,0.0
9.58,108.3567048,1.1926824,-0.1085088,-0.3834384,0.0,0.0,0.0,0.0
9.6,108.3271392,1.3011912,-0.1085088,-0.4599432,0.0,0.0,0.0,0.0
9.620000000000001,108.27776159999999,1.4097000000000002,0.0,-0.6135624,0.0,0.0,0.0,0.0
9.64,108.2600832,0.9759696,-0.2170176,-0.3834384,0.0,0.0,0.0,0.0
9.66,108.17534880000001,1.2469368,-0.16276320000000002,-0.5367528,0.0,0.0,0.0,0.0
9.68,108.159804,1.1926824,0.0,-0.5367528,0.0,0.0,0.0,0.0
9.7,108.14517359999999,1.3011912,0.0,-0.4599432,0.0,0.0,0.0,0.0
9.719999999999999,108.1122552,1.1926824,-0.1085088,-0.5367528,0.0,0.0,0.0,0.0
9.739999999999998,108.1021968,1.4097000000000002,-0.2170176,-0.3834384,0.0,0.0,0.0,0.0
9.76,107.9680848,1.3011912,-0.1085088,-0.3834384,0.0,0.0,0.0,0.0
9.78,107.9470536,1.3011912,0.1085088,-0.5367528,0.0,0.0,0.0,0.0
9.8,107.912916,1.2469368,0.16276320000000002,-0.6135624,0.0,0.0,0.0,0.0
9.82,107.74222800000001,1.1926824,0.1085088,-0.4599432,0.0,0.0,0.0,0.0
9.84,107.6084208,1.5182088,-0.2170176,-0.3834384,0.0,0.0,0.0,0.0
9.86,107.49229199999999,1.2469368,-0.0542544,-0.6900672,0.0,0.0,0.0,0.0
9.879999999999999,107.34233040000001,1.3011912,0.0,-0.4599432,0.0,0.0,0.0,0.0
9.899999999999999,107.3179464,1.4639544,-0.16276320000000002,-0.5367528,0.0,0.0,0.0,0.0
9.92,107.2371744,1.2469368,-0.0542544,-0.6135624,0.0,0.0,0.0,0.0
9.94,107.1237888,1.3011912,0.0,-0.5367528,0.0,0.0,0.0,0.0
9.96,107.0689248,1.3554456000000001,-0.16276320000000002,-0.6900672,0.0,0.0,0.0,0.0
9.98,107.0326536,1.1926824,-0.1085088,-0.8433816000000001,0.0,0.0,0.0,0.0
10.0,106.94730960000001,1.1387328,-0.0542544,-0.7668768,0.0,0.0,0.0,0.0
10.02,106.826304,1.5182088,-0.3252216,-0.6135624,0.0,0.0,0.0,0.0
10.04,106.6553112,1.4097000000000002,0.0,-0.5367528,0.0,0.0,0.0,0.0
10.059999999999999,106.52302800000001,1.3554456000000001,0.0542544,-0.5367528,0.0,0.0,0.0,0.0
10.08,106.36239839999999,1.3554456000000001,-0.16276320000000002,-0.6135624,0.0,0.0,0.0,0.0
10.1,106.302048,1.5182088,-0.1085088,-0.5367528,0.0,0.0,0.0,0.0
10.120000000000001,106.3221648,1.5182088,-0.3252216,-0.6900672,0.0,0.0,0.0,0.0
10.14,106.1661072,1.3011912,-0.2170176,-0.6900672,0.0,0.0,0.0,0.0
10.16,106.0362624,1.4097000000000002,-0.3252216,-0.6900672,0.0,0.0,0.0,0.0
10.18,105.92074319999999,1.5182088,-0.3252216,-0.6135624,0.0,0.0,0.0,0.0
10.2,105.8811192,1.3554456000000001,-0.16276320000000002,-0.6900672,0.0,0.0,0.0,0.0
10.219999999999999,105.793032,1.3011912,-0.2170176,-0.5367528,0.0,0.0,0.0,0.0
10.239999999999998,105.5784528,1.3554456000000001,-0.16276320000000002,-0.6900672,0.0,0.0,0.0,0.0
10.26,105.39984000000001,1.6264128000000002,-0.2170176,-0.6135624,0.0,0.0,0.0,0.0
10.28,105.3212016,1.5182088,-0.1085088,-0.5367528,0.0,0.0,0.0,0.0
10.3,105.131616,1.4097000000000002,-0.2170176,-0.7668768,0.0,0.0,0.0,0.0
10.32,104.9511744,1.5182088,-0.3252216,-0.6135624,0.0,0.0,0.0,0.0
10.34,104.8356552,1.4097000000000002,-0.4337304,-0.5367528,0.0,0.0,0.0,0.0
10.36,104.7091632,1.4097000000000002,-0.2170176,-0.4599432,0.0,0.0,0.0,0.0
10.379999999999999,104.550972,1.4639544,0.0542544,-0.5367528,0.0,0.0,0.0,0.0
10.399999999999999,104.3875992,1.4097000000000002,0.0,-0.5367528,0.0,0.0,0.0,0.0
10.42,104.2925016,1.2469368,-0.16276320000000002,-0.6135624,0.0,0.0,0.0,0.0
10.44,104.1010872,1.1926824,-0.2170176,-0.6135624,0.0,0.0,0.0,0.0
10.46,103.81792800000001,1.3011912,-0.1085088,-0.6900672,0.0,0.0,0.0,0.0
10.48,103.6088352,1.6806672000000002,-0.0542544,-0.30662880000000003,0.0,0.0,0.0,0.0
10.5,103.1363952,0.9217152000000001,-0.2709672,-0.23012400000000002,0.0,0.0,0.0,0.0
10.52,102.8069064,1.1387328,-0.2709672,-0.15331440000000002,0.0,0.0,0.0,0.0
10.54,102.594156,0.2170176,-0.4337304,-0.4599432,0.0,0.0,0.0,0.0
10.559999999999999,102.2122416,-0.0542544,-0.2709672,-0.23012400000000002,0.0,0.0,0.0,0.0
10.58,101.72090399999999,0.0,0.1085088,0.23012400000000002,0.0,0.0,0.0,0.0
10.6,100.5303552,-2.4941784,-0.2170176,0.6135624,0.0,0.0,0.0,0.0
10.620000000000001,96.950784,-10.843564800000001,-0.650748,0.7668768,0.0,0.0,0.0,0.0
10.64,95.93000880000001,-141.34703760000002,-80.7311568,156.9561504,0.0,0.0,0.0,0.0
10.66,94.8470544,56.1158136,-16.753332,-16.5622224,0.0,0.0,0.0,0.0
10.68,93.70222559999999,29.6573448,20.982432000000003,78.28635600000001,0.0,0.0,0.0,0.0
10.7,93.2834304,-13.9342368,-6.018276,27.066849600000005,0.0,0.0,0.0,0.0
10.719999999999999,92.1693864,48.3083616,-45.9229968,4.0638984,0.0,0.0,0.0,0.0
10.739999999999998,91.0556472,-30.850332,80.622648,156.9561504,0.0,0.0,0.0,0.0
10.76,90.4146528,-205.16209920000003,16.9160952,-157.03296000000003,0.0,0.0,0.0,0.0
10.78,89.82791280000001,-57.579768,-51.3990336,-118.77141600000002,0.0,0.0,0.0,0.0
10.8,89.3466336,-199.25233200000002,-22.825862400000002,-157.03296000000003,0.0,0.0,0.0,0.0
10.82,89.0086104,-129.8527248,4.933797600000001,-115.1677656,0.0,0.0,0.0,0.0
10.84,88.7321568,-6.7229735999999995,-4.2291,-0.23012400000000002,0.0,0.0,0.0,0.0
10.86,88.5373896,-35.024872800000004,39.3624816,-80.5866816,0.0,0.0,0.0,0.0
10.879999999999999,88.4105928,4.988052,3.1446216000000002,3.910584,0.0,0.0,0.0,0.0
10.899999999999999,88.3377456,-4.2833544,-7.8617064,-10.657941600000001,0.0,0.0,0.0,0.0
10.92,88.3240296,-29.820108,6.1807343999999995,0.5367528,0.0,0.0,0.0,0.0
10.94,88.33683119999999,-11.76528,-8.0784192,3.9870888,0.0,0.0,0.0,0.0
10.96,88.3956576,-125.6239296,-66.0922224,38.3380488,0.0,0.0,0.0,0.0
10.98,88.49654639999999,-77.3695176,60.4534224,-0.8433816000000001,0.0,0.0,0.0,0.0
11.0,88.59652080000001,-97.0507584,-78.833472,102.5929368,0.0,0.0,0.0,0.0
11.02,88.74556799999999,-100.79187360000002,-28.1394408,-37.6479816,0.0,0.0,0.0,0.0
11.04,88.9668528,-105.6714168,3.8496240000000004,8.4344256,0.0,0.0,0.0,0.0
11.059999999999999,89.17868879999999,-58.0134984,-39.145464000000004,-29.7503088,0.0,0.0,0.0,0.0
11.08,89.4228336,206.62605360000003,15.343632000000001,156.9561504,0.0,0.0,0.0,0.0
11.1,89.6712456,-28.627120800000004,-138.3651792,-7.0542912,0.0,0.0,0.0,0.0
11.120000000000001,89.94495599999999,-28.898392800000003,-42.0191184,-11.4248184,0.0,0.0,0.0,0.0
11.14,90.172032,-65.2247616,14.259458400000002,-52.8300696,0.0,0.0,0.0,0.0
11.16,90.34912080000001,-222.0781944,0.0,-154.0425672,0.0,0.0,0.0,0.0
11.18,90.5417544,-52.1037312,-53.404922400000004,-39.1814304,0.0,0.0,0.0,0.0
11.2,90.758772,-27.271675200000004,9.813645600000001,0.4599432,0.0,0.0,0.0,0.0
11.219999999999999,90.9639024,-0.1085088,1.3011912,-2.9903928,0.0,0.0,0.0,0.0
11.239999999999998,91.19616,19.4102736,24.9405648,-157.03296000000003,0.0,0.0,0.0,0.0
11.26,91.374468,-97.97247360000001,24.7778016,6.6708528000000005,0.0,0.0,0.0,0.0
11.28,91.53906,-8.729167200000001,6.668719200000001,-5.6741568000000004,0.0,0.0,0.0,0.0
11.3,91.7216352,4.445812800000001,1.8434304000000001,-0.5367528,0.0,0.0,0.0,0.0
11.32,91.8886656,131.2081704,-4.012082400000001,-77.21285040000001,0.0,0.0,0.0,0.0
11.34,92.06484,35.512857600000004,27.1634712,15.871850400000001,0.0,0.0,0.0,0.0
11.36,92.2404048,1.1926824,68.0981112,-51.909878400000004,0.0,0.0,0.0,0.0
11.379999999999999,92.4281616,32.693762400000004,31.500775200000003,-12.498324000000002,0.0,0.0,0.0,0.0
11.399999999999999,92.627196,-50.423064000000004,118.3044624,121.60849440000001,0.0,0.0,0.0,0.0
11.42,92.72016,-2.6023824,51.5072376,-4.7539656,0.0,0.0,0.0,0.0
11.44,92.875608,-122.37079920000001,53.9471616,-157.03296000000003,0.0,0.0,0.0,0.0
11.46,93.0179496,-62.8933464,61.158120000000004,42.8618904,0.0,0.0,0.0,0.0
11.48,93.1416984,-35.675620800000004,55.08589440000001,-3.9870888,0.0,0.0,0.0,0.0
11.5,93.2441112,-22.4463864,19.6269864,-35.7310944,0.0,0.0,0.0,0.0
11.52,93.3318936,-69.236844,15.235428,-2.7602688,0.0,0.0,0.0,0.0
11.54,93.42607679999999,-3.7411152,19.789749600000004,70.0820544,0.0,0.0,0.0,0.0
11.559999999999999,93.4815504,-16.5366192,7.6446888,19.629120000000004,0.0,0.0,0.0,0.0
11.58,93.5800008,-39.796212000000004,-37.1938296,31.0539384,0.0,0.0,0.0,0.0
11.6,93.6555912,7.970215200000001,-0.16276320000000002,-3.0672024,0.0,0.0,0.0,0.0
11.620000000000001,93.71076000000001,13.554456,6.0725304,15.1817832,0.0,0.0,0.0,0.0
11.64,93.7714152,13.229234400000001,-1.1926824,-23.7695232,0.0,0.0,0.0,0.0
11.66,93.835728,6.343497600000001,10.681106400000001,3.6036504000000003,0.0,0.0,0.0,0.0
11.68,93.88236239999999,4.5000672,5.5845456,0.4599432,0.0,0.0,0.0,0.0
11.7,93.9329592,8.186928,47.65791840000001,-23.30958,0.0,0.0,0.0,0.0
11.719999999999999,93.9695352,69.236844,-96.45426480000002,-45.162216,0.0,0.0,0.0,0.0
11.739999999999998,94.0283616,-13.608710400000001,14.1509496,-37.034724,0.0,0.0,0.0,0.0
11.76,94.2097176,4.2291,35.3503992,-3.8337744,0.0,0.0,0.0,0.0
11.78,94.651068,20.3319888,9.0543888,-0.6900672,0.0,0.0,0.0,0.0
11.8,94.9708032,3.3073848000000003,-26.1875016,-32.5873872,0.0,0.0,0.0,0.0
11.82,95.1408816,-23.6390688,16.590873600000002,41.942004,0.0,0.0,0.0,0.0
11.84,95.0302392,-23.5308648,-19.4102736,-47.999294400000004,0.0,0.0,0.0,0.0
11.86,94.90039440000001,-25.3200408,-2.6566368,55.437024,0.0,0.0,0.0,0.0
11.879999999999999,94.64009519999999,4.120591200000001,6.506260800000001,-7.744358400000001,0.0,0.0,0.0,0.0
11.899999999999999,94.4709312,-9.7593912,-11.385804,-31.590691200000002,0.0,0.0,0.0,0.0
11.92,94.3648608,1.2469368,-10.138867200000002,14.338401600000001,0.0,0.0,0.0,0.0
11.94,94.2368448,-0.4337304,8.4582,3.9870888,0.0,0.0,0.0,0.0
11.96,94.1350416,-13.1207256,10.843564800000001,31.8205104,0.0,0.0,0.0,0.0
11.98,94.052136,-4.012082400000001,-13.771473600000002,-30.440376000000004,0.0,0.0,0.0,0.0
12.0,94.0405536,-24.3983256,-24.072799200000002,-21.0092544,0.0,0.0,0.0,0.0
12.02,93.9323496,-22.9343712,11.3315496,18.3254904,0.0,0.0,0.0,0.0
12.04,93.8896776,-17.6750472,0.5422392,-27.449983200000002,0.0,0.0,0.0,0.0
12.059999999999999,93.86864639999999,-12.9040128,-10.735360799999999,12.1913904,0.0,0.0,0.0,0.0
12.08,93.8000664,35.8926384,10.3013256,3.68046,0.0,0.0,0.0,0.0
12.1,93.7805592,-50.097842400000005,-1.0844784,-6.9009768,0.0,0.0,0.0,0.0
12.120000000000001,93.6808896,-13.1207256,9.5423736,-3.910584,0.0,0.0,0.0,0.0
12.14,93.529404,6.397752,2.6023824,0.30662880000000003,0.0,0.0,0.0,0.0
12.16,93.39163439999999,-28.5731712,3.7411152,-76.29296400000001,0.0,0.0,0.0,0.0
12.18,93.2828208,-22.5006408,-4.608576,-11.9615712,0.0,0.0,0.0,0.0
12.2,93.1374312,1.7349216,0.3252216,1.4569440000000002,0.0,0.0,0.0,0.0
12.219999999999999,93.16242480000001,0.9759696,3.1446216000000002,-2.223516,0.0,0.0,0.0,0.0
12.239999999999998,93.1221912,1.5724632,4.608576,-1.9936968000000002,0.0,0.0,0.0,0.0
12.259999999999998,93.02831280000001,3.1446216000000002,4.7713392,-1.3036296,0.0,0.0,0.0,0.0
12.280000000000001,92.9118792,5.096560800000001,3.7953696000000003,-0.7668768,0.0,0.0,0.0,0.0
12.3,92.76008879999999,6.1807343999999995,1.7349216,-2.6069544000000002,0.0,0.0,0.0,0.0
12.32,92.6902896,5.259324,-2.2229064000000003,-7.9744824,0.0,0.0,0.0,0.0
12.34,92.73448559999999,3.3616392,-2.3856696,-8.817864,0.0,0.0,0.0,0.0
12.36,92.77715760000001,3.0361128,-6.7229735999999995,-12.5748288,0.0,0.0,0.0,0.0
12.379999999999999,92.7225984,-17.40408,2.2229064000000003,14.72184,0.0,0.0,0.0,0.0
12.399999999999999,92.718636,-9.3256608,20.494447200000003,-23.4628944,0.0,0.0,0.0,0.0
12.419999999999998,92.721684,-0.7046976,-4.8252888,-16.4086032,0.0,0.0,0.0,0.0
12.440000000000001,92.538804,-22.5548952,11.385804,-7.744358400000001,0.0,0.0,0.0,0.0
12.46,92.28460079999999,-10.3013256,12.5787912,-7.0542912,0.0,0.0,0.0,0.0
12.48,92.244672,-13.3377432,10.0846128,6.5175384,0.0,0.0,0.0,0.0
12.5,92.1602424,-14.367967200000002,11.2230408,-8.1277968,0.0,0.0,0.0,0.0
12.52,92.1757872,-10.247376,1.4639544,-5.2139088000000005,0.0,0.0,0.0,0.0
12.54,92.10202559999999,-9.1628976,1.4639544,13.6483344,0.0,0.0,0.0,0.0
12.559999999999999,92.0148528,-28.410408,-12.686995200000002,-17.482108800000002,0.0,0.0,0.0,0.0
12.579999999999998,91.89659040000001,-32.530999200000004,0.8674608,-21.5460072,0.0,0.0,0.0,0.0
12.600000000000001,91.7886912,-26.5127232,6.1267848,6.5175384,0.0,0.0,0.0,0.0
12.620000000000001,91.700604,-8.241182400000001,-9.3256608,-4.2172128,0.0,0.0,0.0,0.0
12.64,91.5594816,-5.421782400000001,-5.8555128,-0.4599432,0.0,0.0,0.0,0.0
12.66,91.313508,-16.970349600000002,-1.2469368,-7.437729600000001,0.0,0.0,0.0,0.0
12.68,91.07728800000001,-5.205069600000001,-0.5422392,3.3738312000000006,0.0,0.0,0.0,0.0
12.7,90.89471280000001,0.650748,-3.2531304000000003,0.6900672,0.0,0.0,0.0,0.0
12.719999999999999,90.6914112,4.3376088,-1.8434304000000001,3.450336,0.0,0.0,0.0,0.0
12.739999999999998,90.58259760000001,5.476036800000001,-1.6806672000000002,0.4599432,0.0,0.0,0.0,0.0
12.759999999999998,90.5475456,9.5423736,-7.048500000000001,-7.5142344,0.0,0.0,0.0,0.0
12.780000000000001,90.70146960000001,5.1508152,5.0423064,0.9201912000000001,0.0,0.0,0.0,0.0
12.8,90.8133312,-13.5005064,9.7051368,33.124140000000004,0.0,0.0,0.0,0.0
12.82,90.87642480000001,-2.8736544000000004,1.6806672000000002,15.565221600000001,0.0,0.0,0.0,0.0
12.84,90.7721832,-27.5972016,-4.933797600000001,-28.446984,0.0,0.0,0.0,0.0
12.86,90.7840704,-5.638800000000001,1.0844784,-7.0542912,0.0,0.0,0.0,0.0
12.879999999999999,90.7337784,-16.1571432,3.0361128,-4.2172128,0.0,0.0,0.0,0.0
12.899999999999999,90.7325592,-0.7589520000000001,-2.8194000000000004,1.6867632000000001,0.0,0.0,0.0,0.0
12.919999999999998,90.7764504,-2.4399240000000004,-5.5845456,-2.1470112,0.0,0.0,0.0,0.0
12.940000000000001,90.6362424,-15.343632000000001,-6.885736800000001,-2.6069544000000002,0.0,0.0,0.0,0.0
12.96,90.5359632,-6.668719200000001,2.8736544000000004,1.3801344,0.0,0.0,0.0,0.0
12.98,90.414348,-3.6326064,2.8736544000000004,2.1470112,0.0,0.0,0.0,0.0
13.0,90.359484,-9.0001344,-5.096560800000001,-12.1913904,0.0,0.0,0.0,0.0
13.02,90.4000224,-0.9217152000000001,-26.837944800000002,-10.888065600000001,0.0,0.0,0.0,0.0
13.04,90.4186152,-9.6508824,-16.9160952,17.405604,0.0,0.0,0.0,0.0
13.059999999999999,90.38386799999999,-9.1628976,2.9818584,-6.594043200000001,0.0,0.0,0.0,0.0
13.079999999999998,90.2988288,-8.1326736,-1.4097000000000002,-9.5079312,0.0,0.0,0.0,0.0
13.100000000000001,90.2019024,-6.343497600000001,-1.2469368,-9.6612456,0.0,0.0,0.0,0.0
13.120000000000001,90.1894056,-23.368101600000003,-3.957828,10.274503200000002,0.0,0.0,0.0,0.0
13.14,90.1997688,-13.174980000000001,-1.1387328,5.367223200000001,0.0,0.0,0.0,0.0
13.16,90.0178032,-19.0304928,0.4879848,-14.491716000000002,0.0,0.0,0.0,0.0
13.18,89.9626344,-14.58468,-6.885736800000001,-6.0572904,0.0,0.0,0.0,0.0
13.2,89.87393759999999,-7.753197600000001,-1.6806672000000002,-4.1404032,0.0,0.0,0.0,0.0
13.219999999999999,89.7547608,-9.976104,1.5182088,-6.2109096,0.0,0.0,0.0,0.0
13.239999999999998,89.68709519999999,-7.048500000000001,1.7349216,-5.2139088000000005,0.0,0.0,0.0,0.0
13.259999999999998,89.61150479999999,-6.9399912,2.2771608000000003,-5.2907184,0.0,0.0,0.0,0.0
13.280000000000001,89.42070000000001,-12.6327408,4.3915584,-5.5205376,0.0,0.0,0.0,0.0
13.3,89.29085520000001,-7.2652128,0.1085088,-0.30662880000000003,0.0,0.0,0.0,0.0
13.32,89.1564384,-5.476036800000001,-4.608576,-0.0768096,0.0,0.0,0.0,0.0
13.34,89.0677416,-8.0784192,-3.4158936000000004,-0.15331440000000002,0.0,0.0,0.0,0.0
13.36,88.9891032,-6.668719200000001,-2.0061936,0.996696,0.0,0.0,0.0,0.0
13.379999999999999,88.90223519999999,-8.7834216,-5.5302912,-1.3801344,0.0,0.0,0.0,0.0
13.399999999999999,88.8562104,-14.5304256,-9.3256608,-6.594043200000001,0.0,0.0,0.0,0.0
13.419999999999998,88.74983519999999,-16.102888800000002,-6.018276,-4.7539656,0.0,0.0,0.0,0.0
13.440000000000001,88.66510079999999,-23.0971344,-6.8314824000000005,-4.2172128,0.0,0.0,0.0,0.0
13.46,88.48344,-19.464223200000003,-5.6930544,-5.9807856,0.0,0.0,0.0,0.0
13.48,88.4593608,-13.7172192,-3.198876,-4.2937176,0.0,0.0,0.0,0.0
13.5,88.3481088,-7.8617064,-0.5964936000000001,-6.1341,0.0,0.0,0.0,0.0
13.52,88.3185432,1.3011912,1.1926824,-3.1437072,0.0,0.0,0.0,0.0
13.54,88.2712992,0.2709672,0.2709672,-5.597347200000001,0.0,0.0,0.0,0.0
13.559999999999999,88.2758712,1.0844784,0.5422392,-4.523841600000001,0.0,0.0,0.0,0.0
13.579999999999998,88.25423040000001,1.4639544,0.5964936000000001,-3.0672024,0.0,0.0,0.0,0.0
13.600000000000001,88.11127920000001,1.6806672000000002,-0.16276320000000002,-2.3768304000000002,0.0,0.0,0.0,0.0
13.620000000000001,87.8561616,2.1143976,-1.8976848000000002,-4.8304704,0.0,0.0,0.0,0.0
13.64,87.593424,3.3616392,-2.4941784,-6.4407288000000005,0.0,0.0,0.0,0.0
13.66,87.4157256,0.4879848,-4.5000672,-13.6483344,0.0,0.0,0.0,0.0
13.68,87.3456216,-9.0001344,10.0846128,3.8337744,0.0,0.0,0.0,0.0
13.7,87.425784,-15.235428,9.0543888,1.6102584000000002,0.0,0.0,0.0,0.0
13.719999999999999,87.33068639999999,-21.958401600000002,3.4158936000000004,-2.8370784000000002,0.0,0.0,0.0,0.0
13.739999999999998,87.2849664,-2.2229064000000003,-5.5845456,4.7539656,0.0,0.0,0.0,0.0
13.759999999999998,87.235284,-6.506260800000001,-10.4098344,-0.30662880000000003,0.0,0.0,0.0,0.0
13.780000000000001,87.2044992,-8.8919304,1.7349216,-10.9645704,0.0,0.0,0.0,0.0
13.8,87.1090968,-6.9399912,6.8314824000000005,-6.5175384,0.0,0.0,0.0,0.0
13.82,87.0520992,-9.7593912,8.241182400000001,-0.8433816000000001,0.0,0.0,0.0,0.0
13.84,86.94694319999999,-13.283488800000002,0.16276320000000002,5.4440328000000004,0.0,0.0,0.0,0.0
13.86,86.87866799999999,-7.427976000000001,-8.5121496,-2.7602688,0.0,0.0,0.0,0.0
13.879999999999999,86.7503472,-9.7593912,-1.7349216,-1.9936968000000002,0.0,0.0,0.0,0.0
13.899999999999999,86.66286960000001,-9.867595200000002,2.7108912000000003,2.223516,0.0,0.0,0.0,0.0
13.919999999999998,86.54003519999999,-11.2230408,1.4639544,2.4536400000000005,0.0,0.0,0.0,0.0
13.940000000000001,86.4796848,-11.1690912,-8.3496912,-5.137404,0.0,0.0,0.0,0.0
13.96,86.43061200000001,-16.9160952,-5.964021600000001,-2.3003256,0.0,0.0,0.0,0.0
13.98,86.3995224,-17.8920648,1.5182088,-0.5367528,0.0,0.0,0.0,0.0
14.0,86.3626416,-12.2532648,-3.0361128,-8.8943688,0.0,0.0,0.0,0.0
14.02,86.3516688,-6.506260800000001,-1.6264128000000002,-5.137404,0.0,0.0,0.0,0.0
14.04,86.36751840000001,-4.012082400000001,0.4337304,-2.1470112,0.0,0.0,0.0,0.0
14.059999999999999,86.3949504,-7.807452,2.1686520000000002,-2.0702016,0.0,0.0,0.0,0.0
14.079999999999998,86.27790719999999,-10.681106400000001,2.4399240000000004,-2.223516,0.0,0.0,0.0,0.0
14.100000000000001,86.186772,-8.024164800000001,-1.3011912,-3.0672024,0.0,0.0,0.0,0.0
14.120000000000001,86.1157536,-5.8555128,-2.3856696,-2.1470112,0.0,0.0,0.0,0.0
14.14,86.00633040000001,-17.5668432,-4.120591200000001,-3.2970216000000003,0.0,0.0,0.0,0.0
14.16,85.982556,-11.6028216,0.9759696,3.6036504000000003,0.0,0.0,0.0,0.0
14.18,85.88288639999999,-11.4943128,-2.3856696,0.15331440000000002,0.0,0.0,0.0,0.0
14.2,85.8746568,-17.0788584,-7.210958400000001,-7.36092,0.0,0.0,0.0,0.0
14.219999999999999,85.7353632,-13.9342368,-1.789176,1.6867632000000001,0.0,0.0,0.0,0.0
14.239999999999998,85.5232224,-15.7234128,-2.8194000000000004,-8.6645496,0.0,0.0,0.0,0.0
14.259999999999998,85.4534232,-18.3800496,-6.343497600000001,-6.747662400000001,0.0,0.0,0.0,0.0
14.280000000000001,85.38392879999999,-15.018410400000002,-5.9097672,-3.1437072,0.0,0.0,0.0,0.0
14.3,85.3107768,-12.6327408,-5.0423064,-7.6675488,0.0,0.0,0.0,0.0
14.32,85.2248232,-9.813645600000001,-4.608576,-4.523841600000001,0.0,0.0,0.0,0.0
14.34,85.1388696,-9.0543888,-4.2833544,-4.8304704,0.0,0.0,0.0,0.0
14.36,85.08370079999999,-8.3496912,-2.9279088,-4.6006512,0.0,0.0,0.0,0.0
14.379999999999999,85.014816,-5.6930544,-2.4399240000000004,-3.7572696000000003,0.0,0.0,0.0,0.0
14.399999999999999,84.95477040000002,-5.367528,-2.3314152,-4.984089600000001,0.0,0.0,0.0,0.0
14.419999999999998,84.90143040000001,-3.7953696000000003,-1.1926824,-4.984089600000001,0.0,0.0,0.0,0.0
14.440000000000001,84.8935056,-2.9818584,-0.7046976,-5.2139088000000005,0.0,0.0,0.0,0.0
14.46,84.8026752,-5.5845456,-0.16276320000000002,-7.0542912,0.0,0.0,0.0,0.0
14.48,84.7484208,-5.8555128,0.4337304,-0.996696,0.0,0.0,0.0,0.0
14.5,84.6655152,-10.8978192,-2.0061936,2.4536400000000005,0.0,0.0,0.0,0.0
14.52,84.69294719999999,-14.58468,-5.9097672,-4.2172128,0.0,0.0,0.0,0.0
