time,baro_altitude,accl_x,accl_y,accl_z,gps_altitude,gyro_roll,gyro_pitch,gyro_yaw
0.0,0.0,10.626852000000001,-0.650748,0.0,0.0,0.0,0.0,0.0
0.020000000000000462,-0.0816864,10.5725976,-0.7046976,0.0768096,0.0,0.0,0.0,0.0
0.040000000000000036,-0.09814559999999999,10.5725976,-0.5964936000000001,0.0768096,0.0,0.0,0.0,0.0
0.0600000000000005,0.0280416,10.626852000000001,-0.4337304,0.0768096,0.0,0.0,0.0,0.0
0.08000000000000007,-0.0070104,10.5725976,-0.5964936000000001,0.0768096,0.0,0.0,0.0,0.0
0.09999999999999964,0.07863840000000001,10.5183432,-0.650748,0.0768096,0.0,0.0,0.0,0.0
0.1200000000000001,0.0313944,10.5725976,-0.5964936000000001,0.0768096,0.0,0.0,0.0,0.0
0.13999999999999968,0.112776,10.5725976,-0.5964936000000001,0.23012400000000002,0.0,0.0,0.0,0.0
0.16000000000000014,0.0234696,10.5725976,-0.5964936000000001,0.0768096,0.0,0.0,0.0,0.0
0.17999999999999972,-0.1155192,10.5725976,-0.5964936000000001,0.0768096,0.0,0.0,0.0,0.0
0.20000000000000018,-0.172212,10.681106400000001,-0.5964936000000001,0.23012400000000002,0.0,0.0,0.0,0.0
0.21999999999999975,-0.118872,10.5725976,-0.4879848,0.0768096,0.0,0.0,0.0,0.0
0.2400000000000002,0.20970240000000004,10.5725976,-0.4879848,0.0,0.0,0.0,0.0,0.0
0.2599999999999998,0.17099280000000003,10.626852000000001,-0.5422392,0.23012400000000002,0.0,0.0,0.0,0.0
0.28000000000000025,0.3325368,10.5725976,-0.5964936000000001,0.0768096,0.0,0.0,0.0,0.0
0.2999999999999998,0.1411224,10.5725976,-0.5964936000000001,0.0,0.0,0.0,0.0,0.0
0.3200000000000003,0.0676656,10.5183432,-0.650748,0.0,0.0,0.0,0.0,0.0
0.33999999999999986,0.12466320000000002,10.5183432,-0.650748,0.15331440000000002,0.0,0.0,0.0,0.0
0.3600000000000003,0.24597360000000001,10.5725976,-0.5964936000000001,0.15331440000000002,0.0,0.0,0.0,0.0
0.3799999999999999,0.24292560000000002,10.5725976,-0.5964936000000001,0.0768096,0.0,0.0,0.0,0.0
0.40000000000000036,0.2694432,10.626852000000001,-0.650748,0.0768096,0.0,0.0,0.0,0.0
0.41999999999999993,0.184404,10.5725976,-0.7046976,0.0768096,0.0,0.0,0.0,0.0
0.4400000000000004,0.300228,10.5183432,-0.650748,0.23012400000000002,0.0,0.0,0.0,0.0
0.45999999999999996,0.33345120000000006,10.5725976,-0.5964936000000001,0.0,0.0,0.0,0.0,0.0
0.4800000000000004,0.37581840000000005,10.5725976,-0.7046976,0.0,0.0,0.0,0.0,0.0
0.5,0.3069336,10.5725976,-0.5964936000000001,0.0768096,0.0,0.0,0.0,0.0
0.5200000000000005,0.17983200000000002,10.626852000000001,-0.650748,0.23012400000000002,0.0,0.0,0.0,0.0
0.54,0.0326136,10.5725976,-0.5964936000000001,0.0768096,0.0,0.0,0.0,0.0
0.5600000000000005,-0.016459200000000004,10.681106400000001,-0.5964936000000001,0.15331440000000002,0.0,0.0,0.0,0.0
0.5800000000000001,-0.06827520000000001,10.626852000000001,-0.5422392,0.0,0.0,0.0,0.0,0.0
0.6000000000000001,-0.1834896,10.626852000000001,-0.650748,0.0768096,0.0,0.0,0.0,0.0
0.6200000000000001,-0.1551432,10.626852000000001,-0.5422392,0.23012400000000002,0.0,0.0,0.0,0.0
0.6400000000000001,-0.1728216,10.626852000000001,-0.650748,0.15331440000000002,0.0,0.0,0.0,0.0
0.6600000000000001,0.0012192000000000001,10.5725976,-0.4879848,0.0768096,0.0,0.0,0.0,0.0
0.6800000000000002,-0.08778240000000001,10.626852000000001,-0.650748,0.0768096,0.0,0.0,0.0,0.0
0.7000000000000002,0.1435608,10.5183432,-0.650748,0.23012400000000002,0.0,0.0,0.0,0.0
0.7200000000000002,0.0280416,10.626852000000001,-0.650748,0.0768096,0.0,0.0,0.0,0.0
0.7400000000000002,-0.060350400000000005,10.5725976,-0.4879848,0.0768096,0.0,0.0,0.0,0.0
0.7600000000000002,-0.0795528,10.5725976,-0.5964936000000001,0.0768096,0.0,0.0,0.0,0.0
0.7800000000000002,0.0405384,10.626852000000001,-0.650748,0.0768096,0.0,0.0,0.0,0.0
0.8000000000000003,0.1880616,10.5725976,-0.7046976,0.0768096,0.0,0.0,0.0,0.0
0.8200000000000003,0.11765280000000002,10.5725976,-0.7046976,0.0768096,0.0,0.0,0.0,0.0
0.8399999999999999,0.17556480000000002,10.5725976,-0.4879848,0.0768096,0.0,0.0,0.0,0.0
0.8599999999999999,0.11856720000000001,10.626852000000001,-0.5422392,0.0,0.0,0.0,0.0,0.0
0.8799999999999999,0.2203704,10.5725976,-0.5964936000000001,0.0,0.0,0.0,0.0,0.0
0.8999999999999999,0.11369040000000001,10.5725976,-0.7046976,0.23012400000000002,0.0,0.0,0.0,0.0
0.9199999999999999,-0.0042672,10.5725976,-0.5964936000000001,0.0,0.0,0.0,0.0,0.0
0.94,-0.2154936,10.5725976,-0.4879848,0.0768096,0.0,0.0,0.0,0.0
0.96,-0.2459736,10.5725976,-0.5964936000000001,-0.0768096,0.0,0.0,0.0,0.0
0.98,-0.16672559999999997,10.5725976,-0.7046976,0.0768096,0.0,0.0,0.0,0.0
1.0,-0.1139952,10.681106400000001,-0.5964936000000001,0.0768096,0.0,0.0,0.0,0.0
1.02,-0.103632,10.5725976,-0.7046976,0.0768096,0.0,0.0,0.0,0.0
1.04,-0.1060704,10.5183432,-0.4337304,0.23012400000000002,0.0,0.0,0.0,0.0
1.06,-0.05852160000000001,10.5183432,-0.650748,-0.0768096,0.0,0.0,0.0,0.0
1.08,-0.216408,10.5725976,-0.5964936000000001,0.15331440000000002,0.0,0.0,0.0,0.0
1.1,-0.2365248,10.626852000000001,-0.650748,0.0,0.0,0.0,0.0,0.0
1.12,-0.1655064,10.5183432,-0.5422392,0.15331440000000002,0.0,0.0,0.0,0.0
1.1400000000000001,-0.07376160000000001,10.681106400000001,-0.5964936000000001,0.0,0.0,0.0,0.0,0.0
1.1600000000000001,-0.067056,10.626852000000001,-0.5422392,0.15331440000000002,0.0,0.0,0.0,0.0
1.1800000000000002,0.0496824,10.4640888,-0.5964936000000001,0.0,0.0,0.0,0.0,0.0
1.2000000000000002,0.0408432,10.5725976,-0.4879848,0.30662880000000003,0.0,0.0,0.0,0.0
1.2200000000000002,-0.0344424,10.5725976,-0.5964936000000001,-0.0768096,0.0,0.0,0.0,0.0
1.2400000000000002,0.0201168,10.626852000000001,-0.650748,0.15331440000000002,0.0,0.0,0.0,0.0
1.2600000000000002,-0.0009144000000000009,10.626852000000001,-0.5422392,-0.0768096,0.0,0.0,0.0,0.0
1.2800000000000002,0.2258568,10.5725976,-0.4879848,0.0768096,0.0,0.0,0.0,0.0
1.3000000000000003,0.28346400000000005,10.5183432,-0.650748,0.0768096,0.0,0.0,0.0,0.0
1.3200000000000003,0.28895040000000005,10.626852000000001,-0.5422392,0.0,0.0,0.0,0.0,0.0
1.3399999999999999,0.23682960000000003,10.5183432,-0.650748,0.0,0.0,0.0,0.0,0.0
1.3599999999999999,0.187452,10.5183432,-0.5422392,0.15331440000000002,0.0,0.0,0.0,0.0
1.38,0.0112776,10.681106400000001,-0.5964936000000001,0.0768096,0.0,0.0,0.0,0.0
1.4,0.17099280000000003,10.626852000000001,-0.650748,0.15331440000000002,0.0,0.0,0.0,0.0
1.42,0.18013680000000004,10.5725976,-0.5964936000000001,0.0768096,0.0,0.0,0.0,0.0
1.44,0.1502664,10.681106400000001,-0.4879848,0.0768096,0.0,0.0,0.0,0.0
1.46,0.0560832,10.5725976,-0.5964936000000001,0.0768096,0.0,0.0,0.0,0.0
1.48,-0.0633984,10.5725976,-0.5964936000000001,0.0,0.0,0.0,0.0,0.0
1.5,-0.2036064,10.626852000000001,-0.650748,0.0768096,0.0,0.0,0.0,0.0
1.52,-0.09723119999999999,10.626852000000001,-0.650748,0.0768096,0.0,0.0,0.0,0.0
1.54,-0.007620000000000001,10.5183432,-0.650748,0.0,0.0,0.0,0.0,0.0
1.56,0.08717280000000001,10.4640888,-0.5964936000000001,0.0,0.0,0.0,0.0,0.0
1.58,0.17739360000000004,10.626852000000001,-0.650748,0.0,0.0,0.0,0.0,0.0
1.6,0.08138160000000001,10.626852000000001,-0.650748,0.15331440000000002,0.0,0.0,0.0,0.0
1.62,0.25206960000000006,10.626852000000001,-0.650748,0.0,0.0,0.0,0.0,0.0
1.6400000000000001,0.13533119999999998,10.5725976,-0.5964936000000001,0.0768096,0.0,0.0,0.0,0.0
1.6600000000000001,0.1411224,10.5725976,-0.5964936000000001,0.15331440000000002,0.0,0.0,0.0,0.0
1.6800000000000002,0.08260080000000002,10.681106400000001,-0.4879848,0.0768096,0.0,0.0,0.0,0.0
1.7000000000000002,0.09875519999999999,10.626852000000001,-0.5422392,-0.0768096,0.0,0.0,0.0,0.0
1.7200000000000002,0.1444752,10.5183432,-0.650748,0.0768096,0.0,0.0,0.0,0.0
1.7400000000000002,0.17647920000000003,10.5725976,-0.5964936000000001,0.15331440000000002,0.0,0.0,0.0,0.0
1.7600000000000002,-0.12771120000000002,10.5725976,-0.5964936000000001,-0.0768096,0.0,0.0,0.0,0.0
1.7800000000000002,-0.0707136,10.5725976,-0.4879848,0.15331440000000002,0.0,0.0,0.0,0.0
1.8000000000000003,-0.11917680000000001,10.626852000000001,-0.650748,0.0,0.0,0.0,0.0,0.0
1.8200000000000003,-0.1054608,10.5725976,-0.5964936000000001,0.23012400000000002,0.0,0.0,0.0,0.0
1.8399999999999999,-0.08534400000000002,10.626852000000001,-0.650748,0.0768096,0.0,0.0,0.0,0.0
1.8599999999999999,0.064008,10.5183432,-0.5422392,0.23012400000000002,0.0,0.0,0.0,0.0
1.88,0.11704320000000001,10.626852000000001,-0.5422392,0.0768096,0.0,0.0,0.0,0.0
1.9,0.20787360000000002,10.626852000000001,-0.5422392,0.0768096,0.0,0.0,0.0,0.0
1.92,0.34442400000000006,10.626852000000001,-0.650748,0.0,0.0,0.0,0.0,0.0
1.94,0.4139184000000001,10.5183432,-0.650748,0.15331440000000002,0.0,0.0,0.0,0.0
1.96,0.47609760000000007,10.5725976,-0.7046976,0.0768096,0.0,0.0,0.0,0.0
1.98,0.41605200000000003,10.626852000000001,-0.5422392,0.23012400000000002,0.0,0.0,0.0,0.0
2.0,0.4291584,10.5183432,-0.5422392,0.0,0.0,0.0,0.0,0.0
2.02,0.26730960000000004,10.626852000000001,-0.650748,0.0,0.0,0.0,0.0,0.0
2.04,0.13197840000000002,10.5183432,-0.650748,0.0,0.0,0.0,0.0,0.0
2.06,0.07741920000000001,10.5725976,-0.7046976,0.0,0.0,0.0,0.0,0.0
2.08,0.0003047999999999992,10.5725976,-0.7046976,0.0,0.0,0.0,0.0,0.0
2.1,0.1109472,10.5725976,-0.4879848,0.15331440000000002,0.0,0.0,0.0,0.0
2.12,-0.0469392,10.626852000000001,-0.5422392,0.0768096,0.0,0.0,0.0,0.0
2.14,0.09662159999999999,10.5725976,-0.7046976,0.0,0.0,0.0,0.0,0.0
2.16,-0.10210799999999999,10.626852000000001,-0.650748,0.0,0.0,0.0,0.0,0.0
2.18,0.04267200000000001,10.5725976,-0.5964936000000001,0.15331440000000002,0.0,0.0,0.0,0.0
2.2,-0.070104,10.5725976,-0.5964936000000001,0.0768096,0.0,0.0,0.0,0.0
2.22,0.0115824,10.5725976,-0.5964936000000001,0.15331440000000002,0.0,0.0,0.0,0.0
2.24,0.14478,10.626852000000001,-0.5422392,0.0768096,0.0,0.0,0.0,0.0
2.2600000000000002,0.0691896,10.626852000000001,-0.650748,0.15331440000000002,0.0,0.0,0.0,0.0
2.2800000000000002,-0.1527048,10.5725976,-0.7046976,0.0768096,0.0,0.0,0.0,0.0
2.3000000000000003,-0.0630936,10.626852000000001,-0.650748,0.0768096,0.0,0.0,0.0,0.0
2.3200000000000003,-0.1527048,10.5725976,-0.4879848,0.0768096,0.0,0.0,0.0,0.0
2.34,-0.08686800000000001,10.5725976,-0.5964936000000001,0.0768096,0.0,0.0,0.0,0.0
2.36,-0.112776,10.5183432,-0.650748,0.0768096,0.0,0.0,0.0,0.0
2.38,-0.3288792,10.5725976,-0.7046976,0.0768096,0.0,0.0,0.0,0.0
2.4,-0.362712,10.5725976,-0.7046976,0.0,0.0,0.0,0.0,0.0
2.42,-0.3328416,10.626852000000001,-0.5422392,0.15331440000000002,0.0,0.0,0.0,0.0
2.44,-0.35143440000000004,10.5183432,-0.5422392,0.15331440000000002,0.0,0.0,0.0,0.0
2.46,-0.3928872,10.5725976,-0.5964936000000001,0.0,0.0,0.0,0.0,0.0
2.48,-0.23682960000000003,10.626852000000001,-0.650748,0.15331440000000002,0.0,0.0,0.0,0.0
2.5,-0.1917192,10.5183432,-0.650748,0.0,0.0,0.0,0.0,0.0
2.52,-0.2557272,10.5183432,-0.650748,0.0768096,0.0,0.0,0.0,0.0
2.54,-0.007924800000000001,10.626852000000001,-0.650748,0.15331440000000002,0.0,0.0,0.0,0.0
2.56,-0.025603200000000003,10.626852000000001,-0.5422392,0.0768096,0.0,0.0,0.0,0.0
2.58,0.2334768,10.5183432,-0.650748,0.0768096,0.0,0.0,0.0,0.0
2.6,0.17129760000000002,10.5725976,-0.7046976,0.15331440000000002,0.0,0.0,0.0,0.0
2.62,0.4904232,10.5183432,-0.650748,0.15331440000000002,0.0,0.0,0.0,0.0
2.64,0.2654808,10.5725976,-0.5964936000000001,0.0768096,0.0,0.0,0.0,0.0
2.66,0.2432304,10.626852000000001,-0.5422392,0.0,0.0,0.0,0.0,0.0
2.68,0.23408640000000003,10.626852000000001,-0.650748,0.0768096,0.0,0.0,0.0,0.0
2.7,0.11917680000000001,10.626852000000001,-0.650748,0.23012400000000002,0.0,0.0,0.0,0.0
2.7199999999999998,0.0079248,10.5183432,-0.650748,0.0,0.0,0.0,0.0,0.0
2.74,-0.06156960000000001,10.5725976,-0.7046976,0.0768096,0.0,0.0,0.0,0.0
2.76,-0.0201168,10.5725976,-0.5964936000000001,0.0,0.0,0.0,0.0,0.0
2.7800000000000002,-0.1655064,10.5183432,-0.5422392,0.0768096,0.0,0.0,0.0,0.0
2.8,-0.3425952,10.5183432,-0.5422392,0.0768096,0.0,0.0,0.0,0.0
2.8200000000000003,-0.2599944,10.626852000000001,-0.650748,0.0768096,0.0,0.0,0.0,0.0
2.84,-0.0399288,10.626852000000001,-0.5422392,0.15331440000000002,0.0,0.0,0.0,0.0
2.8600000000000003,-0.0460248,10.5183432,-0.650748,0.0768096,0.0,0.0,0.0,0.0
2.88,0.0673608,10.5725976,-0.5964936000000001,0.0768096,0.0,0.0,0.0,0.0
2.9000000000000004,0.1078992,10.5725976,-0.5964936000000001,0.0768096,0.0,0.0,0.0,0.0
2.92,0.1350264,10.5183432,-0.650748,0.15331440000000002,0.0,0.0,0.0,0.0
2.9400000000000004,0.1216152,10.5183432,-0.650748,0.0768096,0.0,0.0,0.0,0.0
2.96,0.22616160000000002,10.5183432,-0.650748,0.0768096,0.0,0.0,0.0,0.0
2.98,0.0722376,10.626852000000001,-0.650748,0.0768096,0.0,0.0,0.0,0.0
3.0,0.0316992,10.681106400000001,-0.5964936000000001,0.15331440000000002,0.0,0.0,0.0,0.0
3.02,0.0161544,10.5725976,-0.5964936000000001,0.15331440000000002,0.0,0.0,0.0,0.0
3.04,-0.1426464,10.5725976,-0.5964936000000001,0.15331440000000002,0.0,0.0,0.0,0.0
3.06,-0.13319760000000003,10.681106400000001,-0.7046976,0.15331440000000002,0.0,0.0,0.0,0.0
3.08,-0.04206240000000001,10.5725976,-0.5964936000000001,0.0768096,0.0,0.0,0.0,0.0
3.1,0.11430000000000001,10.5725976,-0.5964936000000001,0.0768096,0.0,0.0,0.0,0.0
3.12,0.0725424,10.626852000000001,-0.5422392,0.0768096,0.0,0.0,0.0,0.0
3.14,0.153924,10.5725976,-0.5964936000000001,0.0768096,0.0,0.0,0.0,0.0
3.16,-0.0646176,10.5725976,-0.5964936000000001,0.0768096,0.0,0.0,0.0,0.0
3.18,-0.09144000000000002,10.626852000000001,-0.5422392,0.0,0.0,0.0,0.0,0.0
3.2,-0.08869680000000002,10.681106400000001,-0.7046976,0.0768096,0.0,0.0,0.0,0.0
3.2199999999999998,-0.08869680000000002,10.626852000000001,-0.5422392,0.15331440000000002,0.0,0.0,0.0,0.0
3.24,0.06614160000000001,10.681106400000001,-0.5964936000000001,0.0768096,0.0,0.0,0.0,0.0
3.26,0.2365248,10.5725976,-0.5964936000000001,0.0768096,0.0,0.0,0.0,0.0
3.2800000000000002,0.25298400000000004,10.5725976,-0.5964936000000001,0.15331440000000002,0.0,0.0,0.0,0.0
3.3,0.12801600000000002,10.626852000000001,-0.650748,0.0768096,0.0,0.0,0.0,0.0
3.3200000000000003,0.0722376,10.626852000000001,-0.650748,0.0768096,0.0,0.0,0.0,0.0
3.34,0.0627888,10.626852000000001,-0.5422392,0.0768096,0.0,0.0,0.0,0.0
3.3600000000000003,-0.012192000000000003,10.626852000000001,-0.5422392,0.15331440000000002,0.0,0.0,0.0,0.0
3.38,-0.12283440000000001,10.4640888,-0.5964936000000001,0.15331440000000002,0.0,0.0,0.0,0.0
3.4000000000000004,0.026212799999999998,10.5725976,-0.5964936000000001,0.0768096,0.0,0.0,0.0,0.0
3.42,0.1286256,10.5725976,-0.5964936000000001,0.23012400000000002,0.0,0.0,0.0,0.0
3.4400000000000004,0.3258312,10.681106400000001,-0.4879848,0.15331440000000002,0.0,0.0,0.0,0.0
3.46,0.2953512,10.5725976,-0.7046976,0.0768096,0.0,0.0,0.0,0.0
3.48,0.1344168,10.626852000000001,-0.650748,0.0768096,0.0,0.0,0.0,0.0
3.5,0.021031200000000003,10.5725976,-0.5964936000000001,0.0768096,0.0,0.0,0.0,0.0
3.52,0.0134112,10.5725976,-0.5964936000000001,0.23012400000000002,0.0,0.0,0.0,0.0
3.54,-0.12344400000000001,10.5183432,-0.650748,0.0768096,0.0,0.0,0.0,0.0
3.56,0.0332232,10.5725976,-0.5964936000000001,0.0768096,0.0,0.0,0.0,0.0
3.58,0.030784799999999998,10.5183432,-0.650748,0.23012400000000002,0.0,0.0,0.0,0.0
3.6,-0.1362456,10.626852000000001,-0.650748,0.0,0.0,0.0,0.0,0.0
3.62,-0.13228320000000002,10.5183432,-0.650748,0.0,0.0,0.0,0.0,0.0
3.64,0.024079200000000002,10.5725976,-0.5964936000000001,0.0768096,0.0,0.0,0.0,0.0
3.66,0.04907280000000001,10.5725976,-0.5964936000000001,0.0768096,0.0,0.0,0.0,0.0
3.68,0.073152,10.5725976,-0.5964936000000001,0.0768096,0.0,0.0,0.0,0.0
3.7,0.23804880000000003,10.681106400000001,-0.5964936000000001,0.0768096,0.0,0.0,0.0,0.0
3.72,0.43251120000000004,10.681106400000001,-0.5964936000000001,0.0768096,0.0,0.0,0.0,0.0
3.74,0.38069520000000007,10.5725976,-0.5964936000000001,0.0768096,0.0,0.0,0.0,0.0
3.7600000000000002,0.2999232,10.5725976,-0.5964936000000001,0.0,0.0,0.0,0.0,0.0
3.7800000000000002,0.24780240000000003,10.5725976,-0.5964936000000001,0.0,0.0,0.0,0.0,0.0
3.8,0.23469600000000002,10.626852000000001,-0.650748,0.0768096,0.0,0.0,0.0,0.0
3.8200000000000003,0.2054352,10.626852000000001,-0.5422392,0.0768096,0.0,0.0,0.0,0.0
3.84,0.0323088,10.5183432,-0.5422392,0.0768096,0.0,0.0,0.0,0.0
3.8600000000000003,0.1091184,10.5183432,-0.650748,0.0768096,0.0,0.0,0.0,0.0
3.88,0.071628,10.626852000000001,-0.5422392,0.0,0.0,0.0,0.0,0.0
3.9,0.17343120000000004,10.5725976,-0.5964936000000001,0.0768096,0.0,0.0,0.0,0.0
3.92,-0.10759439999999999,10.5725976,-0.5964936000000001,0.15331440000000002,0.0,0.0,0.0,0.0
3.94,-0.09479280000000002,10.5725976,-0.5964936000000001,0.0768096,0.0,0.0,0.0,0.0
3.96,-0.077724,10.626852000000001,-0.5422392,0.15331440000000002,0.0,0.0,0.0,0.0
3.98,0.0225552,10.626852000000001,-0.5422392,0.15331440000000002,0.0,0.0,0.0,0.0
4.0,0.09144000000000002,10.626852000000001,-0.650748,0.15331440000000002,0.0,0.0,0.0,0.0
4.02,0.1441704,10.4640888,-0.5964936000000001,0.0768096,0.0,0.0,0.0,0.0
4.04,0.219456,10.5725976,-0.7046976,0.15331440000000002,0.0,0.0,0.0,0.0
4.0600000000000005,0.324612,10.626852000000001,-0.5422392,0.0768096,0.0,0.0,0.0,0.0
4.08,0.37216080000000007,10.626852000000001,-0.5422392,0.15331440000000002,0.0,0.0,0.0,0.0
4.1,0.4227576,10.626852000000001,-0.650748,0.23012400000000002,0.0,0.0,0.0,0.0
4.12,0.3904488,10.626852000000001,-0.650748,0.15331440000000002,0.0,0.0,0.0,0.0
4.14,0.14234159999999998,10.5725976,-0.5964936000000001,0.0768096,0.0,0.0,0.0,0.0
4.16,-0.12192000000000001,10.5725976,-0.7046976,0.15331440000000002,0.0,0.0,0.0,0.0
4.18,-0.08138160000000001,10.5725976,-0.5964936000000001,0.0768096,0.0,0.0,0.0,0.0
4.2,-0.12435840000000002,10.5725976,-0.7046976,0.0768096,0.0,0.0,0.0,0.0
4.22,-0.1685544,10.5183432,-0.5422392,0.0768096,0.0,0.0,0.0,0.0
4.24,-0.048768000000000006,10.5725976,-0.5964936000000001,0.15331440000000002,0.0,0.0,0.0,0.0
4.26,0.050901600000000005,10.5725976,-0.7046976,0.0,0.0,0.0,0.0,0.0
4.28,0.166116,10.5725976,-0.5964936000000001,0.0768096,0.0,0.0,0.0,0.0
4.3,0.237744,10.681106400000001,-0.5964936000000001,0.15331440000000002,0.0,0.0,0.0,0.0
4.32,0.0633984,10.5725976,-0.5964936000000001,0.0768096,0.0,0.0,0.0,0.0
4.34,-0.05882640000000001,10.626852000000001,-0.5422392,0.0,0.0,0.0,0.0,0.0
4.36,0.11033760000000001,10.5725976,-0.7046976,0.0768096,0.0,0.0,0.0,0.0
4.38,0.0310896,10.5183432,-0.5422392,0.0768096,0.0,0.0,0.0,0.0
4.4,0.16520160000000003,10.626852000000001,-0.5422392,0.15331440000000002,0.0,0.0,0.0,0.0
4.42,0.1365504,10.5725976,-0.5964936000000001,-0.0768096,0.0,0.0,0.0,0.0
4.44,0.09509759999999999,10.626852000000001,-0.650748,0.0,0.0,0.0,0.0,0.0
4.46,-0.11856720000000001,10.626852000000001,-0.650748,0.15331440000000002,0.0,0.0,0.0,0.0
4.48,-0.20299679999999998,12.416028,3.6326064,2.8370784000000002,0.0,0.0,0.0,0.0
4.5,-0.13228320000000002,6.777228,-0.4879848,1.7635728,0.0,0.0,0.0,0.0
4.5200000000000005,-0.0384048,11.8195344,-3.578352,-2.5304496,0.0,0.0,0.0,0.0
4.54,-0.0286512,11.4943128,-1.0844784,-0.9201912000000001,0.0,0.0,0.0,0.0
4.5600000000000005,-0.23317200000000002,11.76528,-1.789176,1.6867632000000001,0.0,0.0,0.0,0.0
4.58,-0.0277368,9.7593912,1.4097000000000002,1.9936968000000002,0.0,0.0,0.0,0.0
4.6,-0.0286512,10.735360799999999,-1.0844784,-0.23012400000000002,0.0,0.0,0.0,0.0
4.62,-0.030784800000000005,13.229234400000001,-1.4097000000000002,0.9201912000000001,0.0,0.0,0.0,0.0
4.64,-0.012496799999999999,26.349960000000003,-1.1926824,-0.23012400000000002,0.0,0.0,0.0,0.0
4.66,0.16459200000000002,36.6515904,3.6868608000000003,5.9807856,0.0,0.0,0.0,0.0
4.68,0.4812792,141.2385288,-46.4649312,12.2682,0.0,0.0,0.0,0.0
4.7,0.7388352,114.5090928,-0.5422392,2.0702016,0.0,0.0,0.0,0.0
4.72,1.1926824,140.5338312,-14.096695200000001,15.4119072,0.0,0.0,0.0,0.0
4.74,1.6440912,171.600876,-7.210958400000001,10.3513128,0.0,0.0,0.0,0.0
4.76,1.8565368000000002,105.34619520000001,-13.0664712,29.44368,0.0,0.0,0.0,0.0
4.78,2.3978616,218.98782720000003,-2.9818584,-6.2109096,0.0,0.0,0.0,0.0
4.8,3.0483048,199.25233200000002,1.789176,10.734751200000002,0.0,0.0,0.0,0.0
4.82,3.8416992,135.9252552,5.1508152,6.5175384,0.0,0.0,0.0,0.0
4.84,4.5649896,104.2617168,1.8976848000000002,3.910584,0.0,0.0,0.0,0.0
4.86,5.2766976,91.08673680000001,0.7589520000000001,3.450336,0.0,0.0,0.0,0.0
4.88,5.951829600000001,82.7370456,-0.1085088,2.4536400000000005,0.0,0.0,0.0,0.0
4.9,6.803440800000001,80.622648,-1.030224,2.4536400000000005,0.0,0.0,0.0,0.0
4.92,7.602626400000001,77.3152632,-1.4097000000000002,2.4536400000000005,0.0,0.0,0.0,0.0
4.94,8.471306400000001,75.9055632,-0.650748,2.9135831999999997,0.0,0.0,0.0,0.0
4.96,9.354312,74.2791504,1.4097000000000002,2.683764,0.0,0.0,0.0,0.0
4.98,10.118140799999999,74.55011760000001,0.0542544,3.7572696000000003,0.0,0.0,0.0,0.0
5.0,10.9557312,72.5981784,0.0542544,3.3738312000000006,0.0,0.0,0.0,0.0
5.0200000000000005,11.728704000000002,67.2306504,0.7589520000000001,3.2205168000000004,0.0,0.0,0.0,0.0
5.04,12.8287272,66.6884112,-0.3252216,4.0638984,0.0,0.0,0.0,0.0
5.0600000000000005,13.995806400000001,65.8752048,-1.1387328,4.2937176,0.0,0.0,0.0,0.0
5.08,15.063520800000001,61.9173768,-1.0844784,4.370527200000001,0.0,0.0,0.0,0.0
5.1,16.4908992,61.10417040000001,-2.548128,2.4536400000000005,0.0,0.0,0.0,0.0
5.12,17.8207416,62.188344,-2.9818584,3.1437072,0.0,0.0,0.0,0.0
5.140000000000001,18.8223144,64.51975920000001,-2.8194000000000004,2.6069544000000002,0.0,0.0,0.0,0.0
5.16,19.973544,61.537900799999996,-2.2229064000000003,2.4536400000000005,0.0,0.0,0.0,0.0
5.18,20.889163200000002,61.10417040000001,-1.030224,1.3036296,0.0,0.0,0.0,0.0
5.2,21.8703144,59.856928800000006,-0.3252216,1.6102584000000002,0.0,0.0,0.0,0.0
5.22,22.8529896,59.1522312,-0.37947600000000004,2.4536400000000005,0.0,0.0,0.0,0.0
5.24,23.9676432,61.7003592,0.650748,2.8370784000000002,0.0,0.0,0.0,0.0
5.26,25.089002400000002,57.1460376,-0.5422392,4.370527200000001,0.0,0.0,0.0,0.0
5.28,26.314298400000002,58.230516,0.1085088,4.8304704,0.0,0.0,0.0,0.0
5.3,27.7346664,55.6820832,-0.7046976,5.060594400000001,0.0,0.0,0.0,0.0
5.32,29.174846400000003,56.7665616,-3.5240976,4.370527200000001,0.0,0.0,0.0,0.0
5.34,30.388560000000002,54.16417920000001,-1.3554456000000001,3.2970216000000003,0.0,0.0,0.0,0.0
5.36,31.7336424,54.8146224,-2.9818584,1.1500104,0.0,0.0,0.0,0.0
5.38,33.031176,53.7843984,-1.5182088,1.0735056,0.0,0.0,0.0,0.0
5.4,34.521648000000006,53.67619440000001,-2.3856696,0.8433816000000001,0.0,0.0,0.0,0.0
5.42,35.95878,54.2723832,-1.6806672000000002,2.1470112,0.0,0.0,0.0,0.0
5.44,37.351106400000006,53.62194000000001,-0.7046976,3.7572696000000003,0.0,0.0,0.0,0.0
5.46,38.8812024,54.8146224,-1.6806672000000002,4.2937176,0.0,0.0,0.0,0.0
5.48,40.453360800000006,53.18820960000001,-1.8976848000000002,4.4473368,0.0,0.0,0.0,0.0
5.5,42.0538656,55.6278288,-1.5182088,3.1437072,0.0,0.0,0.0,0.0
5.52,43.7186832,52.428952800000005,-4.608576,3.2205168000000004,0.0,0.0,0.0,0.0
5.54,45.59381280000001,52.754479200000006,-3.3073848000000003,2.9903928,0.0,0.0,0.0,0.0
5.5600000000000005,47.3802456,51.019557600000006,-2.2229064000000003,3.8337744,0.0,0.0,0.0,0.0
5.58,48.869498400000005,51.019557600000006,-0.7046976,3.3738312000000006,0.0,0.0,0.0,0.0
5.6,50.55229920000001,48.14590320000001,-0.8674608,2.9903928,0.0,0.0,0.0,0.0
5.62,52.104036,49.9893336,-0.1085088,2.7602688,0.0,0.0,0.0,0.0
5.640000000000001,53.7173424,49.880824800000006,0.4337304,1.1500104,0.0,0.0,0.0,0.0
5.66,55.226407200000004,49.935079200000004,0.0542544,2.6069544000000002,0.0,0.0,0.0,0.0
5.68,56.820816,48.471124800000005,-0.4337304,2.8370784000000002,0.0,0.0,0.0,0.0
5.7,58.5664056,49.121872800000006,-0.8674608,4.0638984,0.0,0.0,0.0,0.0
5.72,60.328454400000005,49.121872800000006,-2.2771608000000003,2.8370784000000002,0.0,0.0,0.0,0.0
5.74,62.070691200000006,46.6819488,0.16276320000000002,3.7572696000000003,0.0,0.0,0.0,0.0
5.76,63.72575520000001,47.1156792,1.4639544,3.6036504000000003,0.0,0.0,0.0,0.0
5.78,65.3771616,48.037394400000004,0.7589520000000001,2.223516,0.0,0.0,0.0,0.0
5.8,67.09135680000001,50.6397768,-0.4337304,4.2937176,0.0,0.0,0.0,0.0
5.82,69.070728,50.9653032,-0.2170176,5.137404,0.0,0.0,0.0,0.0
5.84,71.0388216,49.82657040000001,-0.7046976,4.4473368,0.0,0.0,0.0,0.0
5.86,72.9755208,50.531572800000006,-1.3011912,3.1437072,0.0,0.0,0.0,0.0
5.88,74.79944400000001,49.33858560000001,-1.0844784,3.5271456,0.0,0.0,0.0,0.0
5.9,76.6812792,48.41687040000001,-0.4879848,5.367223200000001,0.0,0.0,0.0,0.0
5.92,78.5893272,46.0312008,0.4879848,3.2970216000000003,0.0,0.0,0.0,0.0
5.94,80.3647872,46.1397096,0.9217152000000001,3.2970216000000003,0.0,0.0,0.0,0.0
5.96,82.05216,46.952916,-2.1686520000000002,3.1437072,0.0,0.0,0.0,0.0
5.98,84.07054559999999,44.6218056,-1.4639544,3.0672024,0.0,0.0,0.0,0.0
6.0,86.0486976,47.2784424,-1.3011912,2.6069544000000002,0.0,0.0,0.0,0.0
6.02,88.03995599999999,46.6819488,-0.4879848,3.9870888,0.0,0.0,0.0,0.0
6.04,90.1421616,45.814488000000004,0.2709672,2.3768304000000002,0.0,0.0,0.0,0.0
6.0600000000000005,92.0916624,46.3567272,-1.6806672000000002,3.68046,0.0,0.0,0.0,0.0
6.08,94.100904,46.573440000000005,-0.4879848,3.910584,0.0,0.0,0.0,0.0
6.1,96.28875839999999,45.9772512,-3.3616392,2.9903928,0.0,0.0,0.0,0.0
6.12,98.4955104,48.0916488,-0.8132064000000001,2.683764,0.0,0.0,0.0,0.0
6.140000000000001,100.8458232,44.1338208,-0.650748,5.750661600000001,0.0,0.0,0.0,0.0
6.16,103.13426159999999,44.9470272,-0.2709672,5.5205376,0.0,0.0,0.0,0.0
6.18,105.43489199999999,47.65791840000001,-2.3314152,2.5304496,0.0,0.0,0.0,0.0
6.2,107.70504240000001,48.0916488,-2.1143976,1.6867632000000001,0.0,0.0,0.0,0.0
6.22,110.1254592,47.224188000000005,0.37947600000000004,2.3003256,0.0,0.0,0.0,0.0
6.24,112.41481200000001,45.651724800000004,0.7589520000000001,1.4569440000000002,0.0,0.0,0.0,0.0
6.26,114.6590544,28.6813752,1.5724632,4.6006512,0.0,0.0,0.0,0.0
6.28,116.26717919999999,3.5240976,0.9217152000000001,0.8433816000000001,0.0,0.0,0.0,0.0
6.3,117.16237679999999,1.4639544,-0.0542544,2.0702016,0.0,0.0,0.0,0.0
6.32,117.85274879999999,0.650748,4.988052,6.2109096,0.0,0.0,0.0,0.0
6.34,118.7747688,16.9160952,5.7470040000000004,-2.9903928,0.0,0.0,0.0,0.0
6.36,119.51390880000001,-16.102888800000002,-0.7046976,1.6102584000000002,0.0,0.0,0.0,0.0
6.38,120.17166719999999,-15.343632000000001,-0.8132064000000001,0.23012400000000002,0.0,0.0,0.0,0.0
6.4,120.79955519999999,-15.181173600000001,-2.2771608000000003,-0.996696,0.0,0.0,0.0,0.0
6.42,121.5478392,-13.662964800000001,-5.5302912,-1.6102584000000002,0.0,0.0,0.0,0.0
6.44,122.3415384,-12.199010400000002,-6.9942456,-2.0702016,0.0,0.0,0.0,0.0
6.46,123.20869439999998,-14.58468,-3.5240976,-3.2970216000000003,0.0,0.0,0.0,0.0
6.48,123.9344232,-13.229234400000001,-2.2771608000000003,0.4599432,0.0,0.0,0.0,0.0
6.5,124.65588480000001,-13.825728,-2.548128,0.9201912000000001,0.0,0.0,0.0,0.0
6.52,125.52791760000001,-13.1207256,-2.7108912000000003,-1.8400776,0.0,0.0,0.0,0.0
6.54,126.52278480000001,-13.229234400000001,-4.012082400000001,-2.9903928,0.0,0.0,0.0,0.0
6.5600000000000005,127.702056,-11.928043200000001,-1.3011912,0.0,0.0,0.0,0.0,0.0
6.58,128.802384,-12.0908064,-3.4158936000000004,0.0,0.0,0.0,0.0,0.0
6.6,129.884424,-9.379915200000001,-3.6326064,-0.15331440000000002,0.0,0.0,0.0,0.0
6.62,131.121912,-13.3377432,-2.3856696,0.0768096,0.0,0.0,0.0,0.0
6.640000000000001,132.3712872,-11.657076,-4.0663368,0.30662880000000003,0.0,0.0,0.0,0.0
6.66,133.823964,-13.1207256,-1.7349216,-0.6135624,0.0,0.0,0.0,0.0
6.68,135.24341760000001,-13.3919976,-2.6566368,-1.9936968000000002,0.0,0.0,0.0,0.0
6.7,136.6171512,-11.0605824,-2.7108912000000003,0.7668768,0.0,0.0,0.0,0.0
6.720000000000001,137.9268768,-12.9040128,-0.2170176,0.9201912000000001,0.0,0.0,0.0,0.0
6.74,139.298172,-10.735360799999999,-4.8795432000000005,0.4599432,0.0,0.0,0.0,0.0
6.76,140.732256,-11.2230408,-3.198876,-0.30662880000000003,0.0,0.0,0.0,0.0
6.78,142.169388,-12.795504,-0.8674608,0.6135624,0.0,0.0,0.0,0.0
6.800000000000001,143.5428168,-12.144756000000001,-2.1686520000000002,-1.9936968000000002,0.0,0.0,0.0,0.0
6.82,144.78792479999998,-11.4943128,-3.1446216000000002,-0.30662880000000003,0.0,0.0,0.0,0.0
6.84,146.0650368,-13.3919976,-0.9217152000000001,0.7668768,0.0,0.0,0.0,0.0
6.859999999999999,147.308316,-10.789310400000002,-3.8496240000000004,0.7668768,0.0,0.0,0.0,0.0
6.88,148.401024,-11.4943128,-2.1686520000000002,-1.7635728,0.0,0.0,0.0,0.0
6.9,149.6891088,-9.976104,-4.988052,-3.1437072,0.0,0.0,0.0,0.0
6.92,150.8784384,-10.193121600000001,-4.6628304,-0.6135624,0.0,0.0,0.0,0.0
6.9399999999999995,152.10403920000002,-10.952073600000002,-2.4941784,0.7668768,0.0,0.0,0.0,0.0
6.96,153.2857488,-10.0846128,-2.9279088,-1.4569440000000002,0.0,0.0,0.0,0.0
6.98,154.34767200000002,-10.843564800000001,-1.7349216,0.0768096,0.0,0.0,0.0,0.0
7.0,155.3425392,-11.8195344,-1.3011912,-2.6069544000000002,0.0,0.0,0.0,0.0
7.02,156.39135600000003,-10.952073600000002,-2.7108912000000003,0.0768096,0.0,0.0,0.0,0.0
7.04,157.42554239999998,-10.5725976,-2.2229064000000003,-0.6135624,0.0,0.0,0.0,0.0
7.0600000000000005,158.4636912,-10.193121600000001,-3.578352,-0.9201912000000001,0.0,0.0,0.0,0.0
7.08,159.382968,-9.9218496,-2.8736544000000004,-1.1500104,0.0,0.0,0.0,0.0
7.1,160.3970376,-9.0001344,-2.3856696,0.15331440000000002,0.0,0.0,0.0,0.0
7.12,161.423604,-9.0001344,-3.0361128,-0.6900672,0.0,0.0,0.0,0.0
7.140000000000001,162.43614960000002,-8.6749128,-3.9035736000000005,-2.0702016,0.0,0.0,0.0,0.0
7.16,163.377372,-8.6206584,-2.8736544000000004,-0.30662880000000003,0.0,0.0,0.0,0.0
7.18,164.4648984,-10.4098344,-1.0844784,-0.0768096,0.0,0.0,0.0,0.0
7.2,165.4140456,-9.867595200000002,-1.9519392,-0.996696,0.0,0.0,0.0,0.0
7.220000000000001,166.3677648,-8.566404,-2.1686520000000002,-0.8433816000000001,0.0,0.0,0.0,0.0
7.24,167.4821136,-9.1628976,-1.6806672000000002,0.6900672,0.0,0.0,0.0,0.0
7.26,168.62602800000002,-7.807452,-3.4698432,-1.7635728,0.0,0.0,0.0,0.0
7.28,169.85620079999998,-8.186928,-3.0903671999999998,-1.4569440000000002,0.0,0.0,0.0,0.0
7.300000000000001,170.92940159999998,-7.5364848,-2.548128,1.0735056,0.0,0.0,0.0,0.0
7.32,171.9160392,-9.0001344,-1.6264128000000002,0.15331440000000002,0.0,0.0,0.0,0.0
7.34,172.91334479999998,-8.7834216,-2.4941784,-0.7668768,0.0,0.0,0.0,0.0
7.359999999999999,174.1502232,-6.885736800000001,-3.957828,-2.5304496,0.0,0.0,0.0,0.0
7.38,175.33741920000003,-8.8919304,-1.3011912,-0.7668768,0.0,0.0,0.0,0.0
7.4,176.5173,-8.3496912,-0.7589520000000001,0.0768096,0.0,0.0,0.0,0.0
7.42,177.64231679999997,-8.729167200000001,-2.6566368,-0.8433816000000001,0.0,0.0,0.0,0.0
7.4399999999999995,178.6582152,-8.1326736,-1.3011912,-0.7668768,0.0,0.0,0.0,0.0
7.46,179.7262344,-9.0543888,-2.4399240000000004,0.0768096,0.0,0.0,0.0,0.0
7.48,180.8024832,-8.3496912,-1.0844784,-1.0735056,0.0,0.0,0.0,0.0
7.5,181.84977600000002,-7.5364848,-2.0061936,-1.3801344,0.0,0.0,0.0,0.0
7.52,182.8132488,-6.5605152,-2.7651456,-0.6900672,0.0,0.0,0.0,0.0
7.54,183.9705744,-6.343497600000001,-1.8976848000000002,-0.996696,0.0,0.0,0.0,0.0
7.5600000000000005,185.063892,-6.885736800000001,-1.4639544,-0.7668768,0.0,0.0,0.0,0.0
7.58,186.06668399999998,-8.6749128,-0.5422392,-0.5367528,0.0,0.0,0.0,0.0
7.6,187.1249496,-7.5364848,-1.030224,-0.0768096,0.0,0.0,0.0,0.0
7.62,188.0984808,-6.397752,-1.6264128000000002,0.6900672,0.0,0.0,0.0,0.0
7.640000000000001,189.13358159999999,-6.9942456,-2.0061936,-2.6069544000000002,0.0,0.0,0.0,0.0
7.66,190.1729496,-4.7713392,-2.8194000000000004,-2.9135831999999997,0.0,0.0,0.0,0.0
7.68,191.15592959999998,-5.964021600000001,-1.6264128000000002,0.30662880000000003,0.0,0.0,0.0,0.0
7.7,192.1273272,-5.1508152,-1.5724632,0.6900672,0.0,0.0,0.0,0.0
7.720000000000001,193.188336,-6.668719200000001,-0.5964936000000001,0.9201912000000001,0.0,0.0,0.0,0.0
7.74,194.21642640000002,-7.3194672,0.7046976,-0.15331440000000002,0.0,0.0,0.0,0.0
7.76,195.21556080000002,-4.8252888,-2.4399240000000004,0.9201912000000001,0.0,0.0,0.0,0.0
7.78,196.215,-5.8555128,-2.4941784,0.23012400000000002,0.0,0.0,0.0,0.0
7.800000000000001,197.1556128,-4.8795432000000005,-2.2771608000000003,0.6135624,0.0,0.0,0.0,0.0
7.82,198.1309728,-7.210958400000001,-1.789176,-0.0768096,0.0,0.0,0.0,0.0
7.84,199.1621112,-6.0725304,-1.8434304000000001,-0.0768096,0.0,0.0,0.0,0.0
7.859999999999999,200.1554544,-6.506260800000001,-2.6023824,-0.4599432,0.0,0.0,0.0,0.0
7.88,201.1539792,-5.5302912,-2.9279088,1.5334488,0.0,0.0,0.0,0.0
7.9,202.0604544,-6.1267848,-1.8976848000000002,-0.3834384,0.0,0.0,0.0,0.0
7.92,203.0096016,-5.3132736,-1.8434304000000001,-0.23012400000000002,0.0,0.0,0.0,0.0
7.9399999999999995,203.97216,-5.7470040000000004,-0.7589520000000001,0.6900672,0.0,0.0,0.0,0.0
7.96,204.84937440000002,-7.1024496,-0.7046976,0.0,0.0,0.0,0.0,0.0
7.98,205.776576,-6.1807343999999995,-0.4337304,0.0768096,0.0,0.0,0.0,0.0
8.0,206.748888,-5.638800000000001,-2.4941784,-0.6900672,0.0,0.0,0.0,0.0
8.02,207.8071536,-6.397752,-0.650748,-1.1500104,0.0,0.0,0.0,0.0
8.04,208.733136,-4.2833544,-1.6806672000000002,-1.2268200000000002,0.0,0.0,0.0,0.0
8.06,209.6313816,-5.476036800000001,-1.6806672000000002,-2.1470112,0.0,0.0,0.0,0.0
8.08,210.44672160000002,-5.3132736,-1.5182088,-1.3801344,0.0,0.0,0.0,0.0
8.1,211.25108880000002,-5.1508152,-2.1143976,-1.6102584000000002,0.0,0.0,0.0,0.0
8.120000000000001,212.0502744,-5.205069600000001,-1.4097000000000002,0.7668768,0.0,0.0,0.0,0.0
8.14,212.8579944,-4.8795432000000005,-1.5182088,-0.15331440000000002,0.0,0.0,0.0,0.0
8.16,213.8062272,-3.7953696000000003,-2.3856696,-0.23012400000000002,0.0,0.0,0.0,0.0
8.18,214.7200176,-4.5000672,-1.030224,0.6135624,0.0,0.0,0.0,0.0
8.2,215.5317,-4.2833544,-2.0061936,0.23012400000000002,0.0,0.0,0.0,0.0
8.22,216.257124,-4.8795432000000005,-1.1926824,0.6900672,0.0,0.0,0.0,0.0
8.24,216.9715752,-4.120591200000001,-2.2771608000000003,-0.6900672,0.0,0.0,0.0,0.0
8.26,217.8353784,-4.933797600000001,-1.030224,0.7668768,0.0,0.0,0.0,0.0
8.280000000000001,218.88876720000002,-4.0663368,-0.9217152000000001,0.23012400000000002,0.0,0.0,0.0,0.0
8.3,219.72696720000002,-4.3915584,-0.5964936000000001,1.3801344,0.0,0.0,0.0,0.0
8.32,220.73372160000002,-3.7953696000000003,-0.9759696,0.4599432,0.0,0.0,0.0,0.0
8.34,221.7017664,-4.6628304,-1.3011912,0.6900672,0.0,0.0,0.0,0.0
8.36,222.5399664,-4.608576,-1.3554456000000001,0.0768096,0.0,0.0,0.0,0.0
8.379999999999999,223.44766080000002,-4.5000672,-0.7046976,-0.6135624,0.0,0.0,0.0,0.0
8.4,224.2937856,-4.012082400000001,-0.650748,0.7668768,0.0,0.0,0.0,0.0
8.42,225.2572584,-3.7411152,-2.2229064000000003,-0.0768096,0.0,0.0,0.0,0.0
8.44,226.0652832,-4.0663368,-0.9217152000000001,0.23012400000000002,0.0,0.0,0.0,0.0
8.46,226.8998256,-4.6628304,-1.1926824,0.5367528,0.0,0.0,0.0,0.0
8.48,227.61061920000003,-3.8496240000000004,-1.4639544,-0.0768096,0.0,0.0,0.0,0.0
8.5,228.4850904,-3.3616392,-2.2771608000000003,-0.3834384,0.0,0.0,0.0,0.0
8.52,229.41442560000002,-2.8194000000000004,-1.9519392,0.23012400000000002,0.0,0.0,0.0,0.0
8.54,230.26847519999998,-4.1748456,-0.16276320000000002,1.6102584000000002,0.0,0.0,0.0,0.0
8.56,231.1929336,-2.9279088,-1.5182088,0.0768096,0.0,0.0,0.0,0.0
8.58,231.8723328,-3.4158936000000004,-1.5724632,-0.30662880000000003,0.0,0.0,0.0,0.0
8.6,232.6727376,-3.4698432,-1.8434304000000001,-0.9201912000000001,0.0,0.0,0.0,0.0
8.620000000000001,233.479848,-3.4698432,-0.9759696,-1.5334488,0.0,0.0,0.0,0.0
8.64,234.2202072,-3.578352,-0.8674608,0.0,0.0,0.0,0.0,0.0
8.66,234.92856239999998,-3.4158936000000004,-0.37947600000000004,0.3834384,0.0,0.0,0.0,0.0
8.68,235.55187840000002,-2.7108912000000003,-1.5182088,-0.30662880000000003,0.0,0.0,0.0,0.0
8.7,236.2605384,-3.0903671999999998,-1.5724632,-0.996696,0.0,0.0,0.0,0.0
8.719999999999999,236.9954112,-3.3616392,-1.3011912,-0.4599432,0.0,0.0,0.0,0.0
8.74,237.73028399999998,-2.9818584,-2.3314152,-0.6135624,0.0,0.0,0.0,0.0
8.76,238.41821760000002,-2.3856696,-0.9759696,0.7668768,0.0,0.0,0.0,0.0
8.780000000000001,239.0418384,-2.9818584,-1.8976848000000002,-0.23012400000000002,0.0,0.0,0.0,0.0
8.8,239.72184719999998,-2.6566368,-1.3554456000000001,-0.6135624,0.0,0.0,0.0,0.0
8.82,240.354612,-2.8194000000000004,-2.0601432,-0.6135624,0.0,0.0,0.0,0.0
8.84,241.105944,-2.3314152,-1.4639544,-0.23012400000000002,0.0,0.0,0.0,0.0
8.86,241.78961040000002,-2.4941784,-1.1926824,0.23012400000000002,0.0,0.0,0.0,0.0
8.879999999999999,242.53850400000002,-3.0903671999999998,-0.2709672,0.0,0.0,0.0,0.0,0.0
8.9,243.24503040000002,-2.2771608000000003,-0.8674608,-0.0768096,0.0,0.0,0.0,0.0
8.92,243.8189688,-2.9818584,-1.6806672000000002,-0.4599432,0.0,0.0,0.0,0.0
8.940000000000001,244.463316,-2.0601432,-2.1686520000000002,-0.7668768,0.0,0.0,0.0,0.0
8.96,245.16892800000002,-2.4399240000000004,-1.2469368,-0.3834384,0.0,0.0,0.0,0.0
8.98,245.90441040000002,-2.0061936,-1.5724632,0.0,0.0,0.0,0.0,0.0
9.0,246.4685952,-1.8434304000000001,-0.7589520000000001,0.30662880000000003,0.0,0.0,0.0,0.0
9.02,247.1199528,-2.4399240000000004,-0.7046976,0.0768096,0.0,0.0,0.0,0.0
9.04,247.7615568,-2.4941784,-1.0844784,-0.23012400000000002,0.0,0.0,0.0,0.0
9.06,248.322084,-2.7108912000000003,0.1085088,0.23012400000000002,0.0,0.0,0.0,0.0
9.08,248.8756008,-2.1143976,-0.9217152000000001,0.6135624,0.0,0.0,0.0,0.0
9.1,249.5705448,-2.0061936,-1.6806672000000002,-0.5367528,0.0,0.0,0.0,0.0
9.120000000000001,250.1801448,-2.0061936,-0.5964936000000001,-0.3834384,0.0,0.0,0.0,0.0
9.14,250.8872808,-1.6806672000000002,-1.3554456000000001,0.0768096,0.0,0.0,0.0,0.0
9.16,251.59197840000002,-2.0601432,-1.3011912,-0.15331440000000002,0.0,0.0,0.0,0.0
9.18,252.2472984,-2.2229064000000003,-0.5964936000000001,0.0,0.0,0.0,0.0,0.0
9.2,252.7739928,-2.1686520000000002,-0.650748,-0.0768096,0.0,0.0,0.0,0.0
9.219999999999999,253.3137936,-2.1686520000000002,-0.7589520000000001,0.0,0.0,0.0,0.0,0.0
9.24,253.95082560000003,-1.789176,-0.4879848,0.7668768,0.0,0.0,0.0,0.0
9.26,254.5372608,-1.789176,-0.8132064000000001,0.30662880000000003,0.0,0.0,0.0,0.0
9.280000000000001,255.1063224,-2.0061936,-0.7046976,0.30662880000000003,0.0,0.0,0.0,0.0
9.3,255.70921679999998,-2.0061936,-0.7046976,-0.30662880000000003,0.0,0.0,0.0,0.0
9.32,256.2685248,-1.6806672000000002,-0.9217152000000001,0.15331440000000002,0.0,0.0,0.0,0.0
9.34,256.912872,-1.6806672000000002,-1.1387328,0.15331440000000002,0.0,0.0,0.0,0.0
9.36,257.5090608,-1.6264128000000002,-0.9759696,0.6135624,0.0,0.0,0.0,0.0
9.379999999999999,258.0266112,-1.5724632,-0.7046976,0.4599432,0.0,0.0,0.0,0.0
9.4,258.58774800000003,-1.5724632,-1.3554456000000001,0.5367528,0.0,0.0,0.0,0.0
9.42,259.10285999999996,-1.8976848000000002,-0.7046976,-0.3834384,0.0,0.0,0.0,0.0
9.440000000000001,259.5777384,-1.6264128000000002,-1.0844784,0.30662880000000003,0.0,0.0,0.0,0.0
9.46,260.1419232,-1.6806672000000002,-0.7046976,-0.4599432,0.0,0.0,0.0,0.0
9.48,260.6734944,-1.4639544,-0.8132064000000001,-0.8433816000000001,0.0,0.0,0.0,0.0
9.5,261.166356,-1.4639544,-1.1387328,-0.4599432,0.0,0.0,0.0,0.0
9.52,261.649464,-1.5724632,-0.7046976,-0.30662880000000003,0.0,0.0,0.0,0.0
9.54,262.1027016,-1.4097000000000002,-0.8674608,-0.4599432,0.0,0.0,0.0,0.0
9.56,262.7144352,-1.1387328,-1.1387328,-0.7668768,0.0,0.0,0.0,0.0
9.58,263.2658184,-1.3011912,-0.7589520000000001,-0.4599432,0.0,0.0,0.0,0.0
9.6,263.815068,-1.3554456000000001,-0.37947600000000004,0.0768096,0.0,0.0,0.0,0.0
9.620000000000001,264.4228392,-1.2469368,-0.8132064000000001,-0.30662880000000003,0.0,0.0,0.0,0.0
9.64,264.97056480000003,-1.4639544,-0.8132064000000001,-0.6900672,0.0,0.0,0.0,0.0
9.66,265.601196,-1.5182088,-0.3252216,-0.23012400000000002,0.0,0.0,0.0,0.0
9.68,266.1443496,-1.3011912,-0.2170176,-0.4599432,0.0,0.0,0.0,0.0
9.7,266.6119128,-1.0844784,-0.9759696,-0.6900672,0.0,0.0,0.0,0.0
9.719999999999999,267.13769279999997,-0.8132064000000001,-0.8132064000000001,-0.23012400000000002,0.0,0.0,0.0,0.0
9.74,267.689076,-1.1926824,-0.5422392,-0.30662880000000003,0.0,0.0,0.0,0.0
9.76,268.2136368,-1.3554456000000001,-0.16276320000000002,-0.4599432,0.0,0.0,0.0,0.0
9.780000000000001,268.58214,-1.1926824,-0.7589520000000001,-0.4599432,0.0,0.0,0.0,0.0
9.8,269.08536480000004,-0.8132064000000001,-0.7046976,-0.8433816000000001,0.0,0.0,0.0,0.0
9.82,269.5962096,-1.030224,-0.4879848,-0.7668768,0.0,0.0,0.0,0.0
9.84,270.2338512,-0.5964936000000001,-0.2709672,-0.30662880000000003,0.0,0.0,0.0,0.0
9.86,270.7486584,-1.1387328,-0.7046976,-0.5367528,0.0,0.0,0.0,0.0
9.879999999999999,271.2808392,-0.9759696,-0.7589520000000001,-0.9201912000000001,0.0,0.0,0.0,0.0
9.9,271.8029616,-0.5422392,-0.650748,-0.6135624,0.0,0.0,0.0,0.0
9.92,272.2312056,-0.8132064000000001,-0.37947600000000004,-0.4599432,0.0,0.0,0.0,0.0
9.940000000000001,272.7021216,-0.7046976,-0.16276320000000002,-0.4599432,0.0,0.0,0.0,0.0
9.96,273.1980312,-0.5964936000000001,-0.4879848,-0.8433816000000001,0.0,0.0,0.0,0.0
9.98,273.5814696,-0.7046976,-0.5964936000000001,-0.6900672,0.0,0.0,0.0,0.0
10.0,274.0404984,-0.650748,-0.5422392,-0.6135624,0.0,0.0,0.0,0.0
10.02,274.5040992,-0.650748,-0.650748,-0.6135624,0.0,0.0,0.0,0.0
10.04,274.9353912,-0.7046976,-0.4879848,-0.6900672,0.0,0.0,0.0,0.0
10.06,275.3523576,-0.4337304,-0.5422392,-0.5367528,0.0,0.0,0.0,0.0
10.08,275.8906344,-0.7589520000000001,-0.4337304,-0.6135624,0.0,0.0,0.0,0.0
10.1,276.4737168,-0.650748,-0.5422392,-0.23012400000000002,0.0,0.0,0.0,0.0
10.120000000000001,276.9226872,-0.4337304,-0.5422392,-0.4599432,0.0,0.0,0.0,0.0
10.14,277.4036616,-0.5964936000000001,-0.5964936000000001,-0.3834384,0.0,0.0,0.0,0.0
10.16,277.851108,-0.650748,-0.2170176,-0.4599432,0.0,0.0,0.0,0.0
10.18,278.2577112,-0.4879848,-0.5964936000000001,-0.6135624,0.0,0.0,0.0,0.0
10.2,278.6551704,-0.5422392,-0.3252216,-0.5367528,0.0,0.0,0.0,0.0
10.219999999999999,279.0572016,-0.5422392,-0.5422392,-0.5367528,0.0,0.0,0.0,0.0
10.24,279.4409448,-0.2709672,-0.5964936000000001,-0.7668768,0.0,0.0,0.0,0.0
10.26,279.8332224,-0.4879848,-0.5964936000000001,-0.6900672,0.0,0.0,0.0,0.0
10.280000000000001,280.2584184,-0.16276320000000002,-0.7046976,-0.23012400000000002,0.0,0.0,0.0,0.0
10.3,280.71196080000004,-0.2170176,-0.3252216,-0.3834384,0.0,0.0,0.0,0.0
10.32,281.12953680000004,-0.3252216,-0.4337304,-0.996696,0.0,0.0,0.0,0.0
10.34,281.552904,-0.2709672,-0.8132064000000001,-0.5367528,0.0,0.0,0.0,0.0
10.36,281.8845264,-0.4337304,-0.2170176,-0.23012400000000002,0.0,0.0,0.0,0.0
10.379999999999999,282.211272,-0.2170176,-0.4337304,-0.23012400000000002,0.0,0.0,0.0,0.0
10.4,282.5718504,-0.16276320000000002,-0.5964936000000001,-0.4599432,0.0,0.0,0.0,0.0
10.42,282.9866832,-0.3252216,-0.2170176,-0.3834384,0.0,0.0,0.0,0.0
10.440000000000001,283.302456,-0.0542544,-0.7046976,-0.6135624,0.0,0.0,0.0,0.0
10.46,283.607256,-0.1085088,-0.1085088,-0.6135624,0.0,0.0,0.0,0.0
10.48,284.0623224,0.0,-0.5422392,-0.0768096,0.0,0.0,0.0,0.0
10.5,284.4021744,0.0542544,-0.7046976,-0.6900672,0.0,0.0,0.0,0.0
10.52,284.6929536,-0.0542544,-0.7046976,-0.4599432,0.0,0.0,0.0,0.0
10.54,285.0035448,0.1085088,-0.3252216,-0.5367528,0.0,0.0,0.0,0.0
10.56,285.3199272,0.0,-0.3252216,-0.5367528,0.0,0.0,0.0,0.0
10.58,285.593028,0.2170176,-0.3252216,-0.7668768,0.0,0.0,0.0,0.0
10.6,285.9042288,-0.0542544,-0.37947600000000004,-0.6135624,0.0,0.0,0.0,0.0
10.620000000000001,286.3096128,0.2170176,-0.2170176,0.0,0.0,0.0,0.0,0.0
10.64,286.783272,0.1085088,-0.5422392,-0.6135624,0.0,0.0,0.0,0.0
10.66,287.1676248,0.2170176,-0.3252216,-0.9201912000000001,0.0,0.0,0.0,0.0
10.68,287.47638720000003,0.4337304,-0.650748,-0.4599432,0.0,0.0,0.0,0.0
10.7,287.8049616,-0.3252216,-0.2170176,-0.6135624,0.0,0.0,0.0,0.0
10.719999999999999,288.1887048,0.0,-0.2170176,-0.7668768,0.0,0.0,0.0,0.0
10.74,288.4605864,0.0,-0.5422392,-0.5367528,0.0,0.0,0.0,0.0
10.76,288.6971112,0.3252216,-0.4337304,-0.9201912000000001,0.0,0.0,0.0,0.0
10.780000000000001,289.10127600000004,0.4337304,-0.5422392,-0.6900672,0.0,0.0,0.0,0.0
10.8,289.343592,0.650748,-0.1085088,-0.4599432,0.0,0.0,0.0,0.0
10.82,289.4115624,4.7713392,0.5422392,-2.5304496,0.0,0.0,0.0,0.0
10.84,289.67125200000004,19.464223200000003,1.5724632,-2.6069544000000002,0.0,0.0,0.0,0.0
10.86,289.924236,54.760368,-10.4098344,-4.907280000000001,0.0,0.0,0.0,0.0
10.879999999999999,290.17081920000004,18.542508,3.4698432,-26.8367256,0.0,0.0,0.0,0.0
10.9,289.0579944,-50.423064000000004,2.9279088,-98.2224096,0.0,0.0,0.0,0.0
10.92,287.5090008,-5.0423064,-4.608576,-54.13339440000001,0.0,0.0,0.0,0.0
10.940000000000001,286.90641120000004,6.506260800000001,-6.9399912,23.30958,0.0,0.0,0.0,0.0
10.96,287.70894960000004,-9.1628976,-13.608710400000001,5.903976000000001,0.0,0.0,0.0,0.0
10.98,289.77335999999997,-20.8199736,2.3856696,7.2841104,0.0,0.0,0.0,0.0
11.0,292.0749048,-56.1158136,55.2483528,81.8135016,0.0,0.0,0.0,0.0
11.02,293.3023344,-3.8496240000000004,-17.40408,-13.0350768,0.0,0.0,0.0,0.0
11.04,294.3642576,-32.8019664,-1.030224,-5.060594400000001,0.0,0.0,0.0,0.0
11.06,294.9708096,-46.4109816,13.446252000000001,-13.6483344,0.0,0.0,0.0,0.0
11.08,295.7785296,-25.645262400000004,-80.29742639999999,11.5781328,0.0,0.0,0.0,0.0
11.1,296.023284,-1.3011912,-12.361773600000001,17.7122328,0.0,0.0,0.0,0.0
11.120000000000001,296.2860216,-16.8618408,19.6812408,131.499864,0.0,0.0,0.0,0.0
11.14,296.599356,-38.495020800000006,45.2179944,-9.6612456,0.0,0.0,0.0,0.0
11.16,296.75206080000004,4.7713392,21.470416800000002,16.4086032,0.0,0.0,0.0,0.0
11.18,296.8532544,-47.16993360000001,32.205777600000005,-4.4473368,0.0,0.0,0.0,0.0
11.2,296.5740576,-4.933797600000001,10.681106400000001,26.683411200000002,0.0,0.0,0.0,0.0
11.219999999999999,296.389044,-21.7956384,-35.567112,-44.5489584,0.0,0.0,0.0,0.0
11.24,296.5350432,-8.241182400000001,17.3498256,-9.967874400000001,0.0,0.0,0.0,0.0
11.26,296.6895768,203.589636,-18.3800496,-137.9405928,0.0,0.0,0.0,0.0
11.280000000000001,296.317416,13.5005064,60.778644,-126.20914560000001,0.0,0.0,0.0,0.0
11.3,296.401236,8.1326736,-1.8434304000000001,-42.248632799999996,0.0,0.0,0.0,0.0
11.32,296.1272208,-13.608710400000001,28.789884,-38.721487200000006,0.0,0.0,0.0,0.0
11.34,296.2802304,41.205912,64.1945376,156.9561504,0.0,0.0,0.0,0.0
11.36,296.60880480000003,-2.0061936,-12.7412496,-35.9612184,0.0,0.0,0.0,0.0
11.379999999999999,296.2972992,63.6522984,158.3173872,-143.9213784,0.0,0.0,0.0,0.0
11.4,295.843452,-138.6361464,83.442048,-12.7281432,0.0,0.0,0.0,0.0
11.42,295.470072,3.0361128,114.400584,-8.2811112,0.0,0.0,0.0,0.0
11.440000000000001,296.035476,-23.747577600000003,33.940699200000005,-18.939052800000002,0.0,0.0,0.0,0.0
11.46,295.895268,11.3315496,57.200292,-85.1105232,0.0,0.0,0.0,0.0
11.48,295.796208,0.7589520000000001,212.3188032,-89.1744216,0.0,0.0,0.0,0.0
11.5,295.54200480000003,-1.5724632,6.4520064,104.81645280000001,0.0,0.0,0.0,0.0
11.52,295.3280352,15.994380000000001,7.6446888,-25.3797816,0.0,0.0,0.0,0.0
11.54,295.1396688,-9.2714064,-7.753197600000001,-17.17548,0.0,0.0,0.0,0.0
11.56,295.03786560000003,-22.771608,-7.5904344,36.7277904,0.0,0.0,0.0,0.0
11.58,294.9013152,-35.3503992,2.3856696,-13.725144,0.0,0.0,0.0,0.0
11.6,294.8107896,-7.970215200000001,-5.5845456,-12.1913904,0.0,0.0,0.0,0.0
11.620000000000001,294.8211528,1.4639544,0.16276320000000002,-2.7602688,0.0,0.0,0.0,0.0
11.64,294.7848816,2.1686520000000002,0.0,-1.3801344,0.0,0.0,0.0,0.0
11.66,294.70776720000003,4.554321600000001,29.494886400000002,8.8943688,0.0,0.0,0.0,0.0
11.68,294.7184352,20.1149712,24.7778016,-26.759916,0.0,0.0,0.0,0.0
11.7,294.7178256,16.482364800000003,2.4941784,-1.8400776,0.0,0.0,0.0,0.0
11.719999999999999,294.7559256,13.8799824,-16.9160952,-3.450336,0.0,0.0,0.0,0.0
11.74,294.77787120000005,12.0908064,-24.7778016,-7.8208632,0.0,0.0,0.0,0.0
11.76,294.8211528,-18.9222888,19.464223200000003,43.0920144,0.0,0.0,0.0,0.0
11.780000000000001,294.86839679999997,-5.0423064,18.705271200000002,-11.4248184,0.0,0.0,0.0,0.0
11.8,295.0878528,-4.5000672,3.8496240000000004,-15.105278400000001,0.0,0.0,0.0,0.0
11.82,295.42922880000003,-2.2229064000000003,-0.7046976,-8.357616,0.0,0.0,0.0,0.0
11.84,295.590468,-3.578352,-6.614769600000001,-16.715536800000002,0.0,0.0,0.0,0.0
11.86,295.812972,3.4158936000000004,-11.982297599999999,17.0986704,0.0,0.0,0.0,0.0
11.879999999999999,296.012616,1.030224,-1.4639544,4.984089600000001,0.0,0.0,0.0,0.0
11.9,296.142156,-1.6264128000000002,0.0,6.594043200000001,0.0,0.0,0.0,0.0
11.92,296.1363648,-11.873788800000002,1.4639544,0.4599432,0.0,0.0,0.0,0.0
11.940000000000001,295.8318696,-20.440192800000002,-0.4879848,-5.137404,0.0,0.0,0.0,0.0
11.96,295.5892488,-7.4822304,-5.964021600000001,-0.6900672,0.0,0.0,0.0,0.0
11.98,295.4408112,-3.7953696000000003,-3.578352,-0.6135624,0.0,0.0,0.0,0.0
12.0,295.3249872,-2.2229064000000003,-3.5240976,-1.8400776,0.0,0.0,0.0,0.0
12.02,295.1899608,-7.3194672,-3.198876,-3.7572696000000003,0.0,0.0,0.0,0.0
12.04,295.0893768,-9.9218496,0.8132064000000001,-3.8337744,0.0,0.0,0.0,0.0
12.06,294.9086304,-13.0664712,6.777228,-11.4248184,0.0,0.0,0.0,0.0
12.08,294.86748240000003,-12.5787912,28.518916800000003,21.622816800000003,0.0,0.0,0.0,0.0
12.1,294.92326080000004,17.2955712,-20.440192800000002,-7.5142344,0.0,0.0,0.0,0.0
12.120000000000001,294.770556,1.4097000000000002,-22.1211648,-33.660892800000006,0.0,0.0,0.0,0.0
12.14,295.0339032,9.1628976,21.4161624,45.162216,0.0,0.0,0.0,0.0
12.16,295.03329360000004,-47.224188000000005,27.271675200000004,-2.5304496,0.0,0.0,0.0,0.0
12.18,294.7562304,-0.9217152000000001,-6.9942456,13.418210400000001,0.0,0.0,0.0,0.0
12.2,294.4877016,-12.7412496,-10.5725976,-24.076456800000003,0.0,0.0,0.0,0.0
12.219999999999999,294.2655024,-22.7173536,5.801258400000001,2.9135831999999997,0.0,0.0,0.0,0.0
12.24,294.0609816,-18.000573600000003,8.024164800000001,-1.9936968000000002,0.0,0.0,0.0,0.0
12.26,294.0064224,-32.4767448,4.8252888,-19.2456816,0.0,0.0,0.0,0.0
12.280000000000001,294.336216,-37.5190512,-1.8434304000000001,44.855587199999995,0.0,0.0,0.0,0.0
12.3,294.7626312,-26.9464536,-26.9464536,-19.2456816,0.0,0.0,0.0,0.0
12.32,294.6452832,-57.79678560000001,-10.5183432,24.306276000000004,0.0,0.0,0.0,0.0
12.34,294.5840184,-26.2960104,-15.018410400000002,-4.523841600000001,0.0,0.0,0.0,0.0
12.36,294.4148544,-18.542508,-1.5182088,-1.6867632000000001,0.0,0.0,0.0,0.0
12.379999999999999,294.2365464,-9.9218496,-5.367528,-1.0735056,0.0,0.0,0.0,0.0
12.4,294.613584,-8.6206584,-11.006328,9.4311216,0.0,0.0,0.0,0.0
12.42,294.7571448,-22.392132000000004,-16.753332,-2.1470112,0.0,0.0,0.0,0.0
12.440000000000001,294.8568144,-38.8744968,-12.6327408,9.5079312,0.0,0.0,0.0,0.0
12.46,294.685212,-34.80816,-15.8316168,-2.0702016,0.0,0.0,0.0,0.0
12.48,294.3929088,-14.421916800000002,-5.5302912,-0.23012400000000002,0.0,0.0,0.0,0.0
12.5,294.07104,-3.0361128,13.771473600000002,-3.9870888,0.0,0.0,0.0,0.0
12.52,293.80159679999997,-11.928043200000001,28.193390400000002,13.264896000000002,0.0,0.0,0.0,0.0
12.54,293.5312392,-31.3383168,-19.3017648,-16.715536800000002,0.0,0.0,0.0,0.0
12.56,293.2614912,-2.1686520000000002,-8.8919304,15.795345600000001,0.0,0.0,0.0,0.0
12.58,293.0813544,-17.729301600000003,7.427976000000001,6.364224,0.0,0.0,0.0,0.0
12.6,292.8439152,-18.217286400000003,1.1926824,-0.9201912000000001,0.0,0.0,0.0,0.0
12.62,292.6208016,-6.777228,-19.898258400000003,-11.5781328,0.0,0.0,0.0,0.0
12.64,292.6305552,-1.3011912,-9.4338648,9.584436,0.0,0.0,0.0,0.0
12.66,292.7533896,-32.530999200000004,-4.2291,0.4599432,0.0,0.0,0.0,0.0
12.68,292.80124320000004,-20.494447200000003,-12.144756000000001,10.657941600000001,0.0,0.0,0.0,0.0
12.7,292.856412,-10.3013256,-11.1690912,-4.0638984,0.0,0.0,0.0,0.0
12.72,292.8558024,-24.1270536,0.7046976,13.571829600000001,0.0,0.0,0.0,0.0
12.74,292.8539736,-31.5550296,-15.3978864,-20.089063200000002,0.0,0.0,0.0,0.0
12.76,292.89969360000003,-14.0424408,-14.8016976,11.8082568,0.0,0.0,0.0,0.0
12.78,292.88719679999997,-30.308092800000004,-2.9818584,1.1500104,0.0,0.0,0.0,0.0
12.8,292.8234936,-17.0788584,-10.5725976,-0.9201912000000001,0.0,0.0,0.0,0.0
12.82,292.764972,-12.144756000000001,-10.0846128,16.8688512,0.0,0.0,0.0,0.0
12.84,292.5766056,-17.458334400000002,-11.8195344,-10.121188800000002,0.0,0.0,0.0,0.0
12.86,292.3867152,-22.5006408,-5.259324,7.437729600000001,0.0,0.0,0.0,0.0
12.88,292.1855472,-10.193121600000001,-11.277295200000001,0.6135624,0.0,0.0,0.0,0.0
12.9,292.0240032,-18.488558400000002,-12.3075192,3.3738312000000006,0.0,0.0,0.0,0.0
12.92,291.910008,-30.633314400000003,-10.8978192,5.5205376,0.0,0.0,0.0,0.0
12.94,291.83746560000003,-28.3561536,-20.3319888,3.3738312000000006,0.0,0.0,0.0,0.0
12.96,291.8112528,-74.3873544,-23.747577600000003,-9.4311216,0.0,0.0,0.0,0.0
12.98,291.7402344,-23.368101600000003,-16.8618408,9.814560000000002,0.0,0.0,0.0,0.0
13.0,291.6305064,-19.3560192,-15.777667200000002,0.15331440000000002,0.0,0.0,0.0,0.0
13.02,291.4393968,-20.711464799999998,-7.156704,-3.450336,0.0,0.0,0.0,0.0
13.040000000000001,291.361368,-14.909901600000001,-7.5364848,3.3738312000000006,0.0,0.0,0.0,0.0
13.06,291.2949216,-8.3496912,-8.6749128,1.0735056,0.0,0.0,0.0,0.0
13.08,291.21414960000004,-7.3737216000000005,-8.6749128,1.3801344,0.0,0.0,0.0,0.0
13.1,291.0843048,-13.174980000000001,-6.2349888,-0.3834384,0.0,0.0,0.0,0.0
13.12,291.08247600000004,-15.235428,-4.3915584,-3.3738312000000006,0.0,0.0,0.0,0.0
13.14,291.202872,-12.199010400000002,-7.8617064,0.6900672,0.0,0.0,0.0,0.0
13.16,291.1946424,-8.5121496,-7.427976000000001,1.5334488,0.0,0.0,0.0,0.0
13.18,291.1473984,-15.777667200000002,-10.138867200000002,-0.6900672,0.0,0.0,0.0,0.0
13.2,291.079428,-16.0486344,-5.5302912,5.827471200000001,0.0,0.0,0.0,0.0
13.22,290.94470640000003,-10.952073600000002,-4.988052,2.3003256,0.0,0.0,0.0,0.0
13.24,290.8611912,-6.5605152,-3.8496240000000004,0.6900672,0.0,0.0,0.0,0.0
13.26,290.6901984,-5.8555128,-2.3856696,3.3738312000000006,0.0,0.0,0.0,0.0
13.28,290.5530384,-5.5845456,-4.3915584,2.9903928,0.0,0.0,0.0,0.0
13.3,290.3725968,-7.915960800000001,-4.7713392,-2.683764,0.0,0.0,0.0,0.0
13.32,290.37534,-11.1690912,-8.024164800000001,-4.523841600000001,0.0,0.0,0.0,0.0
13.34,290.2918248,-10.5183432,-3.3616392,6.5175384,0.0,0.0,0.0,0.0
13.36,290.3518704,-11.1148368,-2.9818584,-2.683764,0.0,0.0,0.0,0.0
13.38,290.58229919999997,-6.343497600000001,-2.4399240000000004,-1.6102584000000002,0.0,0.0,0.0,0.0
13.4,290.9075208,-4.6628304,-1.0844784,1.5334488,0.0,0.0,0.0,0.0
13.42,291.1885464,-4.554321600000001,-1.0844784,4.0638984,0.0,0.0,0.0,0.0
13.44,291.452808,-8.186928,-3.6326064,1.4569440000000002,0.0,0.0,0.0,0.0
13.46,291.5040144,-16.753332,-4.608576,-3.910584,0.0,0.0,0.0,0.0
13.48,291.4448832,-22.7173536,-11.006328,8.817864,0.0,0.0,0.0,0.0
13.5,291.09619200000003,-20.494447200000003,-11.0605824,-4.7539656,0.0,0.0,0.0,0.0
13.52,290.7828576,-18.705271200000002,-7.970215200000001,5.5205376,0.0,0.0,0.0,0.0
13.540000000000001,290.491164,-12.6327408,-5.476036800000001,-3.9870888,0.0,0.0,0.0,0.0
13.56,290.158932,-11.982297599999999,-10.247376,-2.8370784000000002,0.0,0.0,0.0,0.0
13.58,289.79622,-8.1326736,-2.2771608000000003,4.1404032,0.0,0.0,0.0,0.0
13.6,289.54476,-11.277295200000001,1.9519392,-0.15331440000000002,0.0,0.0,0.0,0.0
13.62,289.3301808,-9.2714064,0.2709672,-4.4473368,0.0,0.0,0.0,0.0
13.64,289.2219768,-4.012082400000001,-5.3132736,-2.1470112,0.0,0.0,0.0,0.0
13.66,289.16985600000004,-1.3011912,-3.7953696000000003,0.7668768,0.0,0.0,0.0,0.0
13.68,289.04275440000004,-1.1926824,-2.3856696,1.5334488,0.0,0.0,0.0,0.0
13.7,288.9144336,-4.3376088,-3.4698432,3.1437072,0.0,0.0,0.0,0.0
13.72,288.7845888,-13.283488800000002,1.2469368,2.5304496,0.0,0.0,0.0,0.0
13.74,288.6904056,-14.313712800000001,5.964021600000001,5.9807856,0.0,0.0,0.0,0.0
13.76,288.590736,-31.284062400000003,-28.6813752,-18.4791096,0.0,0.0,0.0,0.0
13.78,288.450528,-23.801832,-12.199010400000002,8.1277968,0.0,0.0,0.0,0.0
13.8,288.4932,-20.5487016,-11.1148368,-5.367223200000001,0.0,0.0,0.0,0.0
13.82,288.44930880000004,-20.1149712,-6.777228,-1.1500104,0.0,0.0,0.0,0.0
13.84,288.3292176,-9.3256608,-7.6989432,1.6867632000000001,0.0,0.0,0.0,0.0
13.86,288.2670384,-6.1807343999999995,-7.6989432,3.68046,0.0,0.0,0.0,0.0
13.88,288.2396064,-6.4520064,-8.5121496,0.0,0.0,0.0,0.0,0.0
13.9,288.21888,-4.933797600000001,-2.6566368,-2.223516,0.0,0.0,0.0,0.0
13.92,288.1658448,-1.6806672000000002,0.0542544,-1.3036296,0.0,0.0,0.0,0.0
13.94,288.1816944,-1.6806672000000002,0.9217152000000001,0.30662880000000003,0.0,0.0,0.0,0.0
13.96,288.1207344,-6.668719200000001,1.2469368,11.8082568,0.0,0.0,0.0,0.0
13.98,288.1277448,1.9519392,-9.867595200000002,12.7281432,0.0,0.0,0.0,0.0
14.0,288.1432896,-4.5000672,-4.2833544,-15.488716800000002,0.0,0.0,0.0,0.0
14.02,288.1280496,-21.253704000000003,6.2892432000000005,-2.6069544000000002,0.0,0.0,0.0,0.0
14.040000000000001,288.1225632,-15.0726648,4.7713392,0.7668768,0.0,0.0,0.0,0.0
14.06,288.1006176,-11.76528,-0.5964936000000001,2.9135831999999997,0.0,0.0,0.0,0.0
14.08,288.1356696,-2.2771608000000003,-8.1326736,6.364224,0.0,0.0,0.0,0.0
14.1,288.206688,-0.3252216,-6.9399912,-1.7635728,0.0,0.0,0.0,0.0
14.12,288.331656,-3.0903671999999998,-7.6446888,-13.49502,0.0,0.0,0.0,0.0
14.14,288.6587064,-5.6930544,-11.3315496,2.1470112,0.0,0.0,0.0,0.0
14.16,288.96076320000003,-15.181173600000001,-11.4943128,-10.1979984,0.0,0.0,0.0,0.0
14.18,289.008312,-9.813645600000001,-1.789176,-8.2811112,0.0,0.0,0.0,0.0
14.2,288.7138752,-7.210958400000001,-6.4520064,-5.137404,0.0,0.0,0.0,0.0
14.22,288.32312160000004,-4.7713392,-10.0846128,-3.450336,0.0,0.0,0.0,0.0
14.24,288.0475824,-11.657076,-6.5605152,12.7281432,0.0,0.0,0.0,0.0
14.26,287.8266024,-8.295436800000001,-1.3554456000000001,-2.223516,0.0,0.0,0.0,0.0
14.28,287.5446624,-15.1269192,-2.3314152,-4.6006512,0.0,0.0,0.0,0.0
14.3,287.2124304,-6.0725304,-1.9519392,0.5367528,0.0,0.0,0.0,0.0
14.32,287.03625600000004,-8.4039456,2.1143976,4.1404032,0.0,0.0,0.0,0.0
14.34,286.8363072,-8.241182400000001,-4.2291,-2.0702016,0.0,0.0,0.0,0.0
14.36,286.6424544,-10.5725976,-7.3194672,8.8943688,0.0,0.0,0.0,0.0
14.38,286.52937360000004,-8.6206584,-3.4158936000000004,-1.6102584000000002,0.0,0.0,0.0,0.0
14.4,286.4489064,-12.036552,-0.7589520000000001,-3.910584,0.0,0.0,0.0,0.0
14.42,286.42055999999997,-5.096560800000001,-4.2291,-7.744358400000001,0.0,0.0,0.0,0.0
14.44,286.4489064,-6.9399912,-5.8555128,-3.8337744,0.0,0.0,0.0,0.0
14.46,286.4760336,-9.4338648,-4.012082400000001,-2.3768304000000002,0.0,0.0,0.0,0.0
14.48,286.39068960000003,-7.210958400000001,-4.1748456,-3.5271456,0.0,0.0,0.0,0.0
14.5,286.69488,-7.6989432,-7.6989432,3.9870888,0.0,0.0,0.0,0.0
14.52,286.8570336,-12.199010400000002,-6.5605152,-5.137404,0.0,0.0,0.0,0.0
14.540000000000001,286.8689208,-9.1628976,-2.548128,-4.523841600000001,0.0,0.0,0.0,0.0
14.56,286.812228,-4.8795432000000005,-1.9519392,-1.9936968000000002,0.0,0.0,0.0,0.0
14.58,286.7204832,-6.9942456,-5.259324,-2.223516,0.0,0.0,0.0,0.0
14.6,286.5976488,-9.867595200000002,-5.421782400000001,-0.9201912000000001,0.0,0.0,0.0,0.0
14.62,286.64397840000004,-7.048500000000001,-5.3132736,-2.223516,0.0,0.0,0.0,0.0
14.64,286.8100944,-9.108643200000001,-4.8795432000000005,-1.6867632000000001,0.0,0.0,0.0,0.0
14.66,286.9548744,-14.5304256,-1.5182088,0.23012400000000002,0.0,0.0,0.0,0.0
14.68,287.09203440000005,-10.138867200000002,-2.4399240000000004,0.30662880000000003,0.0,0.0,0.0,0.0
14.7,287.1222096,-6.7229735999999995,-7.5904344,1.2268200000000002,0.0,0.0,0.0,0.0
14.72,287.1100176,-7.156704,-6.506260800000001,0.6135624,0.0,0.0,0.0,0.0
14.74,287.0243688,-6.1267848,-3.3073848000000003,0.8433816000000001,0.0,0.0,0.0,0.0
14.76,286.851852,-8.024164800000001,-5.5302912,0.23012400000000002,0.0,0.0,0.0,0.0
14.78,286.6555608,-8.295436800000001,-6.2349888,0.5367528,0.0,0.0,0.0,0.0
14.8,286.452564,-9.3256608,-5.7470040000000004,0.6900672,0.0,0.0,0.0,0.0
14.82,286.1602608,-9.7593912,-4.445812800000001,-0.0768096,0.0,0.0,0.0,0.0
14.84,285.91642079999997,-9.108643200000001,-4.988052,-1.9168872,0.0,0.0,0.0,0.0
14.86,285.6317376,-9.1628976,-5.0423064,-0.5367528,0.0,0.0,0.0,0.0
14.88,285.4967112,-10.247376,-4.1748456,0.15331440000000002,0.0,0.0,0.0,0.0
14.9,285.3443112,-8.729167200000001,-4.608576,0.7668768,0.0,0.0,0.0,0.0
14.92,285.2647584,-7.6989432,-4.7713392,-0.23012400000000002,0.0,0.0,0.0,0.0
14.94,285.1492392,-8.6749128,-5.964021600000001,-2.6069544000000002,0.0,0.0,0.0,0.0
14.96,285.137352,-9.976104,-5.8555128,0.30662880000000003,0.0,0.0,0.0,0.0
14.98,285.2504328,-8.729167200000001,-4.608576,-0.6135624,0.0,0.0,0.0,0.0
15.0,285.46988880000004,-9.3256608,-4.988052,-0.5367528,0.0,0.0,0.0,0.0
15.02,285.60613440000003,-11.385804,-4.7713392,-0.30662880000000003,0.0,0.0,0.0,0.0
15.040000000000001,285.72957840000004,-8.5121496,-3.957828,-0.6900672,0.0,0.0,0.0,0.0
15.06,285.7923672,-5.7470040000000004,-6.0725304,-0.9201912000000001,0.0,0.0,0.0,0.0
15.08,285.7521336,-7.5904344,-6.614769600000001,-1.3801344,0.0,0.0,0.0,0.0
15.1,285.7335408,-10.4098344,-4.8795432000000005,-2.4536400000000005,0.0,0.0,0.0,0.0
15.12,285.4903104,-7.6989432,-3.2531304000000003,-1.1500104,0.0,0.0,0.0,0.0
