time,baro_altitude,accl_x,accl_y,accl_z,gps_altitude,gyro_roll,gyro_pitch,gyro_yaw
0.0,0.0,2.1686520000000002,-5.7470040000000004,6.594043200000001,0.0,0.0,0.0,0.0
0.020000000000000462,-0.0347472,2.2771608000000003,-5.7470040000000004,6.594043200000001,0.0,0.0,0.0,0.0
0.040000000000000036,-0.09692640000000001,2.2229064000000003,-5.801258400000001,6.594043200000001,0.0,0.0,0.0,0.0
0.0600000000000005,0.0216408,2.1143976,-5.801258400000001,6.594043200000001,0.0,0.0,0.0,0.0
0.08000000000000007,0.1441704,2.2771608000000003,-5.7470040000000004,6.6708528000000005,0.0,0.0,0.0,0.0
0.10000000000000053,0.06156960000000001,2.1143976,-5.801258400000001,6.747662400000001,0.0,0.0,0.0,0.0
0.1200000000000001,-0.09418320000000002,2.1686520000000002,-5.7470040000000004,6.747662400000001,0.0,0.0,0.0,0.0
0.14000000000000057,-0.1304544,2.2771608000000003,-5.8555128,6.594043200000001,0.0,0.0,0.0,0.0
0.16000000000000014,-0.0691896,2.2229064000000003,-5.9097672,6.594043200000001,0.0,0.0,0.0,0.0
0.1800000000000006,-0.2737104,2.0601432,-5.8555128,6.6708528000000005,0.0,0.0,0.0,0.0
0.20000000000000018,-0.1344168,2.1686520000000002,-5.7470040000000004,6.6708528000000005,0.0,0.0,0.0,0.0
0.22000000000000064,-0.25481280000000006,2.2229064000000003,-5.801258400000001,6.594043200000001,0.0,0.0,0.0,0.0
0.2400000000000002,-0.3014472,2.2229064000000003,-5.801258400000001,6.594043200000001,0.0,0.0,0.0,0.0
0.2600000000000007,-0.30114240000000003,2.1143976,-5.801258400000001,6.594043200000001,0.0,0.0,0.0,0.0
0.28000000000000025,-0.19629120000000003,2.2771608000000003,-5.8555128,6.6708528000000005,0.0,0.0,0.0,0.0
0.30000000000000027,-0.2404872,2.1143976,-5.801258400000001,6.6708528000000005,0.0,0.0,0.0,0.0
0.3200000000000003,-0.15179040000000002,2.1686520000000002,-5.7470040000000004,6.594043200000001,0.0,0.0,0.0,0.0
0.3400000000000003,-0.13502640000000002,2.2229064000000003,-5.801258400000001,6.6708528000000005,0.0,0.0,0.0,0.0
0.3600000000000003,-0.09052560000000001,2.2229064000000003,-5.801258400000001,6.6708528000000005,0.0,0.0,0.0,0.0
0.38000000000000034,-0.1490472,2.1143976,-5.801258400000001,6.594043200000001,0.0,0.0,0.0,0.0
0.40000000000000036,-0.2767584,2.2229064000000003,-5.6930544,6.594043200000001,0.0,0.0,0.0,0.0
0.4200000000000004,-0.28376880000000004,2.1686520000000002,-5.7470040000000004,6.6708528000000005,0.0,0.0,0.0,0.0
0.4400000000000004,-0.23682960000000003,2.1143976,-5.801258400000001,6.6708528000000005,0.0,0.0,0.0,0.0
0.4600000000000004,-0.2157984,2.1143976,-5.801258400000001,6.594043200000001,0.0,0.0,0.0,0.0
0.4800000000000004,-0.08382,2.1686520000000002,-5.7470040000000004,6.594043200000001,0.0,0.0,0.0,0.0
0.5000000000000004,-0.13624560000000002,2.1143976,-5.801258400000001,6.6708528000000005,0.0,0.0,0.0,0.0
0.5200000000000005,-0.07101840000000001,2.1686520000000002,-5.8555128,6.6708528000000005,0.0,0.0,0.0,0.0
0.54,-0.07162800000000001,2.1686520000000002,-5.7470040000000004,6.594043200000001,0.0,0.0,0.0,0.0
0.56,-0.2624328,2.2229064000000003,-5.801258400000001,6.6708528000000005,0.0,0.0,0.0,0.0
0.5800000000000001,-0.3197352,2.1686520000000002,-5.7470040000000004,6.6708528000000005,0.0,0.0,0.0,0.0
0.6000000000000001,-0.286512,2.1686520000000002,-5.8555128,6.594043200000001,0.0,0.0,0.0,0.0
0.6200000000000001,-0.37094160000000004,2.2229064000000003,-5.801258400000001,6.6708528000000005,0.0,0.0,0.0,0.0
0.6400000000000001,-0.4703064,2.1686520000000002,-5.7470040000000004,6.594043200000001,0.0,0.0,0.0,0.0
0.6600000000000001,-0.44196,2.1686520000000002,-5.8555128,6.594043200000001,0.0,0.0,0.0,0.0
0.6800000000000002,-0.553212,2.1686520000000002,-5.8555128,6.6708528000000005,0.0,0.0,0.0,0.0
0.7000000000000002,-0.4623816,2.1686520000000002,-5.8555128,6.6708528000000005,0.0,0.0,0.0,0.0
0.7200000000000002,-0.2761488,2.1143976,-5.801258400000001,6.594043200000001,0.0,0.0,0.0,0.0
0.7400000000000002,-0.22738080000000002,2.1686520000000002,-5.8555128,6.6708528000000005,0.0,0.0,0.0,0.0
0.7600000000000002,-0.11765280000000002,2.1143976,-5.801258400000001,6.6708528000000005,0.0,0.0,0.0,0.0
0.7800000000000002,-0.06522720000000001,2.2229064000000003,-5.801258400000001,6.594043200000001,0.0,0.0,0.0,0.0
0.8000000000000003,-0.1594104,2.1686520000000002,-5.7470040000000004,6.6708528000000005,0.0,0.0,0.0,0.0
0.8200000000000003,-0.02956560000000001,2.1686520000000002,-5.8555128,6.594043200000001,0.0,0.0,0.0,0.0
0.8400000000000003,-0.0432816,2.2229064000000003,-5.801258400000001,6.594043200000001,0.0,0.0,0.0,0.0
0.8600000000000003,-0.1597152,2.2229064000000003,-5.801258400000001,6.594043200000001,0.0,0.0,0.0,0.0
0.8800000000000003,-0.2959608,2.1143976,-5.801258400000001,6.5175384,0.0,0.0,0.0,0.0
0.9000000000000004,-0.4230624,2.1686520000000002,-5.7470040000000004,6.6708528000000005,0.0,0.0,0.0,0.0
0.9200000000000004,-0.39014400000000005,2.1143976,-5.801258400000001,6.6708528000000005,0.0,0.0,0.0,0.0
0.9400000000000004,-0.41605200000000003,2.2229064000000003,-5.801258400000001,6.6708528000000005,0.0,0.0,0.0,0.0
0.9600000000000004,-0.4273296,2.2229064000000003,-5.801258400000001,6.6708528000000005,0.0,0.0,0.0,0.0
0.9800000000000004,-0.2734056,2.1143976,-5.801258400000001,6.6708528000000005,0.0,0.0,0.0,0.0
1.0000000000000004,-0.21488400000000002,2.1686520000000002,-5.7470040000000004,6.5175384,0.0,0.0,0.0,0.0
1.0200000000000005,-0.3407664,2.1686520000000002,-5.8555128,6.5175384,0.0,0.0,0.0,0.0
1.04,-0.17129760000000002,2.2229064000000003,-5.801258400000001,6.6708528000000005,0.0,0.0,0.0,0.0
1.06,-0.12192000000000001,2.2229064000000003,-5.801258400000001,6.594043200000001,0.0,0.0,0.0,0.0
1.08,-0.10180320000000001,2.2771608000000003,-5.7470040000000004,6.594043200000001,0.0,0.0,0.0,0.0
1.1,-0.057607200000000004,2.1686520000000002,-5.7470040000000004,6.4407288000000005,0.0,0.0,0.0,0.0
1.12,0.03809999999999999,2.2229064000000003,-5.6930544,6.6708528000000005,0.0,0.0,0.0,0.0
1.1400000000000001,-0.0545592,2.1686520000000002,-5.8555128,6.594043200000001,0.0,0.0,0.0,0.0
1.1600000000000001,-0.0816864,2.1686520000000002,-5.8555128,6.6708528000000005,0.0,0.0,0.0,0.0
1.1800000000000002,-0.09479280000000001,2.2229064000000003,-5.801258400000001,6.594043200000001,0.0,0.0,0.0,0.0
1.2000000000000002,-0.02651760000000001,2.1686520000000002,-5.8555128,6.594043200000001,0.0,0.0,0.0,0.0
1.2200000000000002,0.009448799999999992,2.1686520000000002,-5.8555128,6.594043200000001,0.0,0.0,0.0,0.0
1.2400000000000002,0.02743200000000001,2.2229064000000003,-5.9097672,6.594043200000001,0.0,0.0,0.0,0.0
1.2600000000000002,-0.0649224,2.1686520000000002,-5.8555128,6.594043200000001,0.0,0.0,0.0,0.0
1.2800000000000002,-0.1520952,2.1686520000000002,-5.7470040000000004,6.594043200000001,0.0,0.0,0.0,0.0
1.3000000000000003,-0.0804672,2.2771608000000003,-5.8555128,6.594043200000001,0.0,0.0,0.0,0.0
1.3200000000000003,-0.20208240000000002,2.2229064000000003,-5.801258400000001,6.594043200000001,0.0,0.0,0.0,0.0
1.3400000000000003,-0.166116,2.0601432,-5.7470040000000004,6.594043200000001,0.0,0.0,0.0,0.0
1.3600000000000003,-0.08869680000000002,2.1143976,-5.801258400000001,6.6708528000000005,0.0,0.0,0.0,0.0
1.3800000000000003,0.02621280000000001,2.2229064000000003,-5.801258400000001,6.594043200000001,0.0,0.0,0.0,0.0
1.4000000000000004,-0.049072800000000014,2.1143976,-5.801258400000001,6.594043200000001,0.0,0.0,0.0,0.0
1.4200000000000004,-0.1536192,2.2229064000000003,-5.801258400000001,6.6708528000000005,0.0,0.0,0.0,0.0
1.4400000000000004,-0.2298192,2.2771608000000003,-5.8555128,6.594043200000001,0.0,0.0,0.0,0.0
1.4600000000000004,-0.06949440000000001,2.2229064000000003,-5.801258400000001,6.5175384,0.0,0.0,0.0,0.0
1.4800000000000004,-0.10546080000000002,2.2771608000000003,-5.8555128,6.6708528000000005,0.0,0.0,0.0,0.0
1.5000000000000004,-0.146304,2.1143976,-5.801258400000001,6.6708528000000005,0.0,0.0,0.0,0.0
1.5200000000000005,-0.05029200000000001,2.1143976,-5.801258400000001,6.6708528000000005,0.0,0.0,0.0,0.0
1.54,-0.0966216,2.2229064000000003,-5.801258400000001,6.594043200000001,0.0,0.0,0.0,0.0
1.56,-0.1816608,2.2229064000000003,-5.801258400000001,6.6708528000000005,0.0,0.0,0.0,0.0
1.58,-0.27249120000000004,2.2771608000000003,-5.8555128,6.6708528000000005,0.0,0.0,0.0,0.0
1.6,-0.4203192,2.2229064000000003,-5.801258400000001,6.6708528000000005,0.0,0.0,0.0,0.0
1.62,-0.324612,2.1686520000000002,-5.7470040000000004,6.594043200000001,0.0,0.0,0.0,0.0
1.6400000000000001,-0.17282160000000002,2.1686520000000002,-5.8555128,6.6708528000000005,0.0,0.0,0.0,0.0
1.6600000000000001,-0.262128,2.1143976,-5.801258400000001,6.594043200000001,0.0,0.0,0.0,0.0
1.6800000000000002,-0.2322576,2.1143976,-5.801258400000001,6.6708528000000005,0.0,0.0,0.0,0.0
1.7000000000000002,-0.4334256,2.2229064000000003,-5.801258400000001,6.6708528000000005,0.0,0.0,0.0,0.0
1.7200000000000002,-0.3989832,2.1143976,-5.801258400000001,6.594043200000001,0.0,0.0,0.0,0.0
1.7400000000000002,-0.2054352,2.2229064000000003,-5.801258400000001,6.594043200000001,0.0,0.0,0.0,0.0
1.7600000000000002,-0.39867840000000004,2.1686520000000002,-5.8555128,6.594043200000001,0.0,0.0,0.0,0.0
1.7800000000000002,-0.5187696,2.1143976,-5.801258400000001,6.594043200000001,0.0,0.0,0.0,0.0
1.8000000000000003,-0.3874008,2.1686520000000002,-5.8555128,6.594043200000001,0.0,0.0,0.0,0.0
1.8200000000000003,-0.1106424,2.1686520000000002,-5.7470040000000004,6.594043200000001,0.0,0.0,0.0,0.0
1.8400000000000003,-0.08686800000000001,2.1686520000000002,-5.8555128,6.594043200000001,0.0,0.0,0.0,0.0
1.8600000000000003,-0.07345680000000002,2.1686520000000002,-5.7470040000000004,6.594043200000001,0.0,0.0,0.0,0.0
1.8800000000000003,-0.020726400000000002,2.1143976,-5.801258400000001,6.6708528000000005,0.0,0.0,0.0,0.0
1.9000000000000004,0.003352800000000003,2.2771608000000003,-5.7470040000000004,6.6708528000000005,0.0,0.0,0.0,0.0
1.9200000000000004,-0.058216800000000006,2.1686520000000002,-5.7470040000000004,6.6708528000000005,0.0,0.0,0.0,0.0
1.9400000000000004,-0.08138160000000001,2.1686520000000002,-5.8555128,6.6708528000000005,0.0,0.0,0.0,0.0
1.9600000000000004,-0.1313688,2.1686520000000002,-5.8555128,6.6708528000000005,0.0,0.0,0.0,0.0
1.9800000000000004,-0.1395984,2.2229064000000003,-5.9097672,6.5175384,0.0,0.0,0.0,0.0
2.0000000000000004,-0.07284720000000001,2.1143976,-5.801258400000001,6.594043200000001,0.0,0.0,0.0,0.0
2.0200000000000005,-0.024079200000000005,2.1686520000000002,-5.7470040000000004,6.6708528000000005,0.0,0.0,0.0,0.0
2.04,-0.014630399999999997,2.2229064000000003,-5.801258400000001,6.6708528000000005,0.0,0.0,0.0,0.0
2.06,-0.02621280000000001,2.2229064000000003,-5.801258400000001,6.6708528000000005,0.0,0.0,0.0,0.0
2.08,-0.0560832,2.1686520000000002,-5.8555128,6.594043200000001,0.0,0.0,0.0,0.0
2.1,0.12100559999999999,2.2229064000000003,-5.9097672,6.594043200000001,0.0,0.0,0.0,0.0
2.12,0.07680959999999999,2.1686520000000002,-5.8555128,6.594043200000001,0.0,0.0,0.0,0.0
2.14,-0.031089600000000012,2.2771608000000003,-5.8555128,6.6708528000000005,0.0,0.0,0.0,0.0
2.16,0.006095999999999989,2.1143976,-5.801258400000001,6.594043200000001,0.0,0.0,0.0,0.0
2.18,-0.07437120000000001,2.1143976,-5.801258400000001,6.6708528000000005,0.0,0.0,0.0,0.0
2.2,-0.17221200000000003,2.1686520000000002,-5.7470040000000004,6.6708528000000005,0.0,0.0,0.0,0.0
2.22,-0.21336,2.1143976,-5.801258400000001,6.5175384,0.0,0.0,0.0,0.0
2.24,-0.13929360000000002,2.1143976,-5.801258400000001,6.6708528000000005,0.0,0.0,0.0,0.0
2.2600000000000002,-0.04297680000000001,2.1143976,-5.801258400000001,6.594043200000001,0.0,0.0,0.0,0.0
2.2800000000000002,-0.08778240000000001,2.1686520000000002,-5.7470040000000004,6.6708528000000005,0.0,0.0,0.0,0.0
2.3000000000000003,-0.20726400000000003,2.1686520000000002,-5.8555128,6.6708528000000005,0.0,0.0,0.0,0.0
2.3200000000000003,-0.24627840000000004,2.1686520000000002,-5.7470040000000004,6.594043200000001,0.0,0.0,0.0,0.0
2.3400000000000003,-0.12649200000000002,2.2229064000000003,-5.9097672,6.594043200000001,0.0,0.0,0.0,0.0
2.3600000000000003,0.004572000000000004,2.1686520000000002,-5.7470040000000004,6.594043200000001,0.0,0.0,0.0,0.0
2.3800000000000003,-0.08503920000000001,2.1686520000000002,-5.7470040000000004,6.594043200000001,0.0,0.0,0.0,0.0
2.4000000000000004,-0.20939760000000002,2.1143976,-5.801258400000001,6.6708528000000005,0.0,0.0,0.0,0.0
2.42,-0.19659600000000002,2.2229064000000003,-5.801258400000001,6.594043200000001,0.0,0.0,0.0,0.0
2.4400000000000004,-0.13380720000000002,2.1143976,-5.6930544,6.594043200000001,0.0,0.0,0.0,0.0
2.46,-0.20177760000000003,2.2229064000000003,-5.801258400000001,6.5175384,0.0,0.0,0.0,0.0
2.4800000000000004,-0.18836640000000002,2.2771608000000003,-5.8555128,6.6708528000000005,0.0,0.0,0.0,0.0
2.5,-0.2746248,2.1686520000000002,-5.7470040000000004,6.6708528000000005,0.0,0.0,0.0,0.0
2.5200000000000005,-0.33528,2.1143976,-5.801258400000001,6.747662400000001,0.0,0.0,0.0,0.0
2.54,-0.3584448,2.1143976,-5.801258400000001,6.6708528000000005,0.0,0.0,0.0,0.0
2.5600000000000005,-0.2139696,2.1686520000000002,-5.7470040000000004,6.5175384,0.0,0.0,0.0,0.0
2.58,-0.2907792,2.1686520000000002,-5.8555128,6.594043200000001,0.0,0.0,0.0,0.0
2.6000000000000005,-0.2517648,2.0601432,-5.7470040000000004,6.6708528000000005,0.0,0.0,0.0,0.0
2.62,-0.1886712,2.1143976,-5.801258400000001,6.594043200000001,0.0,0.0,0.0,0.0
2.6400000000000006,0.0542544,2.1686520000000002,-5.7470040000000004,6.747662400000001,0.0,0.0,0.0,0.0
2.66,-0.13898880000000002,2.2229064000000003,-5.801258400000001,6.594043200000001,0.0,0.0,0.0,0.0
2.68,-0.012496800000000011,2.1686520000000002,-5.8555128,6.6708528000000005,0.0,0.0,0.0,0.0
2.7,0.02804160000000001,2.1686520000000002,-5.8555128,6.6708528000000005,0.0,0.0,0.0,0.0
2.72,-0.06339840000000001,2.1143976,-5.9097672,6.594043200000001,0.0,0.0,0.0,0.0
2.74,-0.2520696,2.2229064000000003,-5.801258400000001,6.594043200000001,0.0,0.0,0.0,0.0
2.7600000000000002,-0.2298192,2.1143976,-5.801258400000001,6.594043200000001,0.0,0.0,0.0,0.0
2.7800000000000002,-0.1740408,2.1686520000000002,-5.7470040000000004,6.594043200000001,0.0,0.0,0.0,0.0
2.8000000000000003,-0.13898880000000002,2.1686520000000002,-5.7470040000000004,6.6708528000000005,0.0,0.0,0.0,0.0
2.8200000000000003,-0.1795272,2.1143976,-5.6930544,6.594043200000001,0.0,0.0,0.0,0.0
2.8400000000000003,-0.07101840000000001,2.1686520000000002,-5.7470040000000004,6.594043200000001,0.0,0.0,0.0,0.0
2.8600000000000003,-0.1167384,2.1686520000000002,-5.8555128,6.6708528000000005,0.0,0.0,0.0,0.0
2.8800000000000003,0.07345679999999999,2.1143976,-5.801258400000001,6.6708528000000005,0.0,0.0,0.0,0.0
2.9000000000000004,0.1395984,2.1686520000000002,-5.8555128,6.594043200000001,0.0,0.0,0.0,0.0
2.92,0.18836640000000004,2.1686520000000002,-5.8555128,6.6708528000000005,0.0,0.0,0.0,0.0
2.9400000000000004,-0.04693920000000001,2.2229064000000003,-5.801258400000001,6.594043200000001,0.0,0.0,0.0,0.0
2.96,-0.0368808,2.2229064000000003,-5.9097672,6.594043200000001,0.0,0.0,0.0,0.0
2.9800000000000004,-0.041757600000000006,2.2229064000000003,-5.9097672,6.594043200000001,0.0,0.0,0.0,0.0
3.0,-0.2721864,2.1686520000000002,-5.8555128,6.6708528000000005,0.0,0.0,0.0,0.0
3.0200000000000005,-0.30388560000000003,2.2229064000000003,-5.9097672,6.594043200000001,0.0,0.0,0.0,0.0
3.04,-0.4026408,2.2229064000000003,-5.801258400000001,6.594043200000001,0.0,0.0,0.0,0.0
3.0600000000000005,-0.48006,2.1686520000000002,-5.8555128,6.6708528000000005,0.0,0.0,0.0,0.0
3.08,-0.4361688,2.1686520000000002,-5.7470040000000004,6.6708528000000005,0.0,0.0,0.0,0.0
3.1000000000000005,-0.29657040000000007,2.1143976,-5.9097672,6.6708528000000005,0.0,0.0,0.0,0.0
3.12,-0.2429256,2.2229064000000003,-5.801258400000001,6.594043200000001,0.0,0.0,0.0,0.0
3.1400000000000006,-0.17983200000000002,2.1686520000000002,-5.7470040000000004,6.6708528000000005,0.0,0.0,0.0,0.0
3.16,-0.04815840000000001,2.1143976,-5.801258400000001,6.594043200000001,0.0,0.0,0.0,0.0
3.18,-0.15453360000000002,2.1686520000000002,-5.7470040000000004,6.6708528000000005,0.0,0.0,0.0,0.0
3.2,-0.20238720000000002,2.1143976,-5.801258400000001,6.6708528000000005,0.0,0.0,0.0,0.0
3.22,-0.1258824,2.2229064000000003,-5.9097672,6.594043200000001,0.0,0.0,0.0,0.0
3.24,-0.2441448,2.0601432,-5.8555128,6.6708528000000005,0.0,0.0,0.0,0.0
3.2600000000000002,-0.07345680000000002,2.2229064000000003,-5.801258400000001,6.5175384,0.0,0.0,0.0,0.0
3.2800000000000002,-0.10180320000000001,2.1686520000000002,-5.7470040000000004,6.6708528000000005,0.0,0.0,0.0,0.0
3.3000000000000003,-0.11369040000000001,2.2229064000000003,-5.801258400000001,6.594043200000001,0.0,0.0,0.0,0.0
3.3200000000000003,-0.21610320000000002,2.1143976,-5.801258400000001,6.6708528000000005,0.0,0.0,0.0,0.0
3.3400000000000003,-0.1438656,2.1143976,-5.801258400000001,6.594043200000001,0.0,0.0,0.0,0.0
3.3600000000000003,-0.1319784,2.2771608000000003,-5.8555128,6.594043200000001,0.0,0.0,0.0,0.0
3.3800000000000003,-0.058216800000000006,2.2229064000000003,-5.801258400000001,6.6708528000000005,0.0,0.0,0.0,0.0
3.4000000000000004,-0.0676656,2.2771608000000003,-5.7470040000000004,6.594043200000001,0.0,0.0,0.0,0.0
3.4200000000000004,-0.1085088,2.1686520000000002,-5.7470040000000004,6.594043200000001,0.0,0.0,0.0,0.0
3.4400000000000004,-0.20756880000000003,2.2771608000000003,-5.7470040000000004,6.747662400000001,0.0,0.0,0.0,0.0
3.4600000000000004,-0.22067520000000002,2.2229064000000003,-5.801258400000001,6.6708528000000005,0.0,0.0,0.0,0.0
3.4800000000000004,-0.08412480000000001,2.2771608000000003,-5.421782400000001,6.2109096,0.0,0.0,0.0,0.0
3.5,-0.09692640000000001,2.1143976,-6.018276,6.6708528000000005,0.0,0.0,0.0,0.0
3.5200000000000005,0.10607040000000001,2.0061936,-5.9097672,6.4407288000000005,0.0,0.0,0.0,0.0
3.54,-0.10454640000000001,2.0601432,-5.638800000000001,6.594043200000001,0.0,0.0,0.0,0.0
3.5600000000000005,-0.1636776,2.2229064000000003,-5.801258400000001,6.5175384,0.0,0.0,0.0,0.0
3.58,-0.4812792,2.1143976,-5.801258400000001,6.594043200000001,0.0,0.0,0.0,0.0
3.6,-0.3913632,2.1686520000000002,-5.7470040000000004,6.594043200000001,0.0,0.0,0.0,0.0
3.62,-0.3392424,2.2229064000000003,-5.801258400000001,6.594043200000001,0.0,0.0,0.0,0.0
3.64,-0.37703760000000003,2.8736544000000004,-8.5121496,8.8943688,0.0,0.0,0.0,0.0
3.66,-0.3392424,3.0361128,-4.445812800000001,7.0542912,0.0,0.0,0.0,0.0
3.68,-0.3243072,3.3073848000000003,-4.8252888,7.9744824,0.0,0.0,0.0,0.0
3.7,-0.31516320000000003,1.9519392,-6.614769600000001,6.9009768,0.0,0.0,0.0,0.0
3.72,-0.2526792,2.3314152,-4.933797600000001,7.5142344,0.0,0.0,0.0,0.0
3.74,-0.23286720000000002,2.0601432,-5.8555128,6.594043200000001,0.0,0.0,0.0,0.0
3.7600000000000002,-0.204216,2.2771608000000003,-5.638800000000001,6.9774816,0.0,0.0,0.0,0.0
3.7800000000000002,-0.10149840000000002,2.3314152,-5.6930544,7.0542912,0.0,0.0,0.0,0.0
3.8000000000000003,-0.2542032,2.2229064000000003,-5.6930544,6.9009768,0.0,0.0,0.0,0.0
3.8200000000000003,-0.18562320000000002,2.3314152,-5.476036800000001,6.6708528000000005,0.0,0.0,0.0,0.0
3.8400000000000003,-0.2014728,2.0601432,-5.8555128,6.2874144,0.0,0.0,0.0,0.0
3.8600000000000003,0.03048000000000001,2.4941784,-5.964021600000001,7.0542912,0.0,0.0,0.0,0.0
3.8800000000000003,0.014630399999999997,2.1686520000000002,-5.7470040000000004,6.594043200000001,0.0,0.0,0.0,0.0
3.9000000000000004,0.15514319999999998,2.2229064000000003,-5.9097672,6.2109096,0.0,0.0,0.0,0.0
3.9200000000000004,0.03139440000000001,2.1686520000000002,-5.7470040000000004,6.6708528000000005,0.0,0.0,0.0,0.0
3.9400000000000004,-0.11369040000000001,2.2229064000000003,-6.018276,6.594043200000001,0.0,0.0,0.0,0.0
3.9600000000000004,-0.054864,2.0061936,-5.9097672,6.5175384,0.0,0.0,0.0,0.0
3.9800000000000004,-0.135636,2.2229064000000003,-5.801258400000001,6.594043200000001,0.0,0.0,0.0,0.0
4.0,-0.10088880000000001,2.2771608000000003,-5.8555128,6.747662400000001,0.0,0.0,0.0,0.0
4.0200000000000005,-0.1316736,2.3314152,-5.9097672,6.747662400000001,0.0,0.0,0.0,0.0
4.04,-0.18958560000000002,2.1686520000000002,-5.964021600000001,6.747662400000001,0.0,0.0,0.0,0.0
4.0600000000000005,-0.23622,2.1143976,-5.801258400000001,6.594043200000001,0.0,0.0,0.0,0.0
4.08,-0.31760160000000004,2.0601432,-5.8555128,6.5175384,0.0,0.0,0.0,0.0
4.1000000000000005,-0.46268640000000005,2.2229064000000003,-5.9097672,6.8241672,0.0,0.0,0.0,0.0
4.12,-0.5617464,2.1686520000000002,-5.7470040000000004,6.747662400000001,0.0,0.0,0.0,0.0
4.140000000000001,-0.34198560000000006,1.9519392,-5.638800000000001,6.4407288000000005,0.0,0.0,0.0,0.0
4.16,-0.37338000000000005,1.9519392,-5.7470040000000004,6.6708528000000005,0.0,0.0,0.0,0.0
4.180000000000001,-0.371856,2.3314152,-5.801258400000001,6.6708528000000005,0.0,0.0,0.0,0.0
4.2,-0.24201120000000004,2.2771608000000003,-6.0725304,6.594043200000001,0.0,0.0,0.0,0.0
4.220000000000001,-0.20665440000000002,2.1143976,-5.6930544,6.4407288000000005,0.0,0.0,0.0,0.0
4.24,-0.38435280000000005,2.2771608000000003,-5.638800000000001,6.594043200000001,0.0,0.0,0.0,0.0
4.260000000000001,-0.3959352,2.2771608000000003,-5.7470040000000004,6.8241672,0.0,0.0,0.0,0.0
4.28,-0.35814,2.1143976,-6.018276,6.5175384,0.0,0.0,0.0,0.0
4.3,-0.38221920000000004,2.1143976,-5.6930544,6.4407288000000005,0.0,0.0,0.0,0.0
4.32,-0.324612,2.6566368,-8.6206584,8.1277968,0.0,0.0,0.0,0.0
4.34,-0.496824,5.7470040000000004,-14.313712800000001,17.17548,0.0,0.0,0.0,0.0
4.36,-0.8988552000000002,7.5364848,-20.1149712,22.4661984,0.0,0.0,0.0,0.0
4.38,-1.3295376,25.5367536,-18.3800496,51.449630400000004,0.0,0.0,0.0,0.0
4.4,-0.8970264000000001,35.7298752,-49.609857600000005,93.5449488,0.0,0.0,0.0,0.0
4.42,-0.9729216,25.3200408,-43.3203096,73.5323904,0.0,0.0,0.0,0.0
4.44,-2.4667464,24.9945144,-43.428818400000004,62.1843816,0.0,0.0,0.0,0.0
4.46,-3.2604455999999997,24.3983256,-39.145464000000004,65.3280888,0.0,0.0,0.0,0.0
4.48,-3.692652,21.470416800000002,-24.072799200000002,82.8105024,0.0,0.0,0.0,0.0
4.5,-3.8127432,33.452714400000005,-40.501214399999995,57.5837304,0.0,0.0,0.0,0.0
4.5200000000000005,-3.8880288,13.012521600000001,-45.109485600000006,68.47179600000001,0.0,0.0,0.0,0.0
4.54,-3.6899088,14.476171200000001,21.5246712,81.6601872,0.0,0.0,0.0,0.0
4.5600000000000005,-3.1619952,43.1035968,-41.476879200000006,84.1138272,0.0,0.0,0.0,0.0
4.58,-2.3829264,27.2177256,-58.6642464,66.7850328,0.0,0.0,0.0,0.0
4.6000000000000005,-2.1573744,23.801832,-36.922557600000005,60.49761840000001,0.0,0.0,0.0,0.0
4.62,-1.8327624,29.061156,-41.205912,60.49761840000001,0.0,0.0,0.0,0.0
4.640000000000001,-1.4127480000000001,22.1211648,-37.9527816,61.724438400000004,0.0,0.0,0.0,0.0
4.66,-0.9552432000000002,24.072799200000002,-35.458908,61.4943144,0.0,0.0,0.0,0.0
4.680000000000001,-0.42062400000000005,24.018849600000003,-35.2961448,61.110876000000005,0.0,0.0,0.0,0.0
4.7,0.2170176,19.0847472,-32.964729600000005,62.261191200000006,0.0,0.0,0.0,0.0
4.720000000000001,0.9192768,22.2836232,-34.3201752,58.1204832,0.0,0.0,0.0,0.0
4.74,1.3743432,20.765719200000003,-37.356288,58.964169600000005,0.0,0.0,0.0,0.0
4.76,1.7333976,22.880116800000003,-35.8926384,59.8075512,0.0,0.0,0.0,0.0
4.78,2.3058120000000004,20.5487016,-34.53719280000001,55.28370960000001,0.0,0.0,0.0,0.0
4.800000000000001,2.8242768000000003,18.705271200000002,-32.4767448,56.356910400000004,0.0,0.0,0.0,0.0
4.82,3.3884616000000003,19.952208,-34.916668800000004,54.74695680000001,0.0,0.0,0.0,0.0
4.84,3.6716208000000004,18.488558400000002,-34.1031576,53.3665176,0.0,0.0,0.0,0.0
4.86,4.4125896000000004,18.976543200000002,-32.0972688,53.6734512,0.0,0.0,0.0,0.0
4.88,5.2666392,20.6572104,-36.2721144,51.756564000000004,0.0,0.0,0.0,0.0
4.9,5.8177176,17.512588800000003,-32.9104752,49.8396768,0.0,0.0,0.0,0.0
4.92,6.2840616,17.024604,-31.229808,47.3092272,0.0,0.0,0.0,0.0
4.94,7.3408032,20.982432000000003,-31.500775200000003,54.5936424,0.0,0.0,0.0,0.0
4.96,8.3170776,16.4281104,-30.308092800000004,47.76917040000001,0.0,0.0,0.0,0.0
4.98,9.560052,14.476171200000001,-28.4646624,45.8522832,0.0,0.0,0.0,0.0
5.0,10.862157600000002,13.825728,-28.6813752,45.085711200000006,0.0,0.0,0.0,0.0
5.0200000000000005,11.8491,14.476171200000001,-28.789884,45.0089016,0.0,0.0,0.0,0.0
5.04,12.372136799999998,13.7172192,-28.247644800000003,44.47214880000001,0.0,0.0,0.0,0.0
5.0600000000000005,13.5608568,13.3377432,-27.651456,44.395644000000004,0.0,0.0,0.0,0.0
5.08,14.962632,12.361773600000001,-26.7836904,44.16552,0.0,0.0,0.0,0.0
5.1000000000000005,15.705429599999999,12.8497584,-26.4042144,42.938700000000004,0.0,0.0,0.0,0.0
5.12,16.325088,13.0664712,-25.645262400000004,42.785385600000005,0.0,0.0,0.0,0.0
5.140000000000001,16.482364800000003,11.277295200000001,-27.000708,41.86519440000001,0.0,0.0,0.0,0.0
5.16,17.074896,11.3315496,-24.9945144,41.4052512,0.0,0.0,0.0,0.0
5.180000000000001,17.775021600000002,13.012521600000001,-25.157277600000004,39.4115544,0.0,0.0,0.0,0.0
5.2,18.1170072,12.795504,-25.157277600000004,38.721487200000006,0.0,0.0,0.0,0.0
5.220000000000001,18.0816504,12.361773600000001,-24.723547200000002,37.2645432,0.0,0.0,0.0,0.0
5.24,18.330672,11.873788800000002,-23.9103408,37.724791200000006,0.0,0.0,0.0,0.0
5.26,19.3581528,12.686995200000002,-23.6390688,35.57778,0.0,0.0,0.0,0.0
5.28,20.479512,13.1207256,-23.3138472,34.9645224,0.0,0.0,0.0,0.0
5.300000000000001,21.6420192,13.3919976,-23.368101600000003,33.9675216,0.0,0.0,0.0,0.0
5.32,22.5189288,12.416028,-23.259592800000004,32.8175112,0.0,0.0,0.0,0.0
5.34,22.982529600000003,13.3377432,-22.771608,32.894016,0.0,0.0,0.0,0.0
5.36,23.9889792,13.3377432,-23.5308648,31.590691200000002,0.0,0.0,0.0,0.0
5.380000000000001,25.3179072,13.608710400000001,-20.982432000000003,31.590691200000002,0.0,0.0,0.0,0.0
5.4,26.503274400000002,14.1509496,-19.789749600000004,30.900624,0.0,0.0,0.0,0.0
5.42,27.5487384,13.825728,-20.1149712,29.3668704,0.0,0.0,0.0,0.0
5.44,28.6838136,14.58468,-22.0669104,34.1976456,0.0,0.0,0.0,0.0
5.46,29.434535999999998,11.76528,-18.3800496,28.2936696,0.0,0.0,0.0,0.0
5.48,29.7283632,10.952073600000002,-18.3257952,28.6002984,0.0,0.0,0.0,0.0
5.5,30.739689600000002,10.5183432,-17.783556,27.526792800000003,0.0,0.0,0.0,0.0
5.5200000000000005,31.950660000000003,11.1690912,-18.3257952,27.449983200000002,0.0,0.0,0.0,0.0
5.54,32.872984800000005,10.843564800000001,-17.1331128,26.99004,0.0,0.0,0.0,0.0
5.5600000000000005,33.404556,9.3256608,-16.1571432,25.3797816,0.0,0.0,0.0,0.0
5.58,33.9071712,9.217152,-16.1571432,24.843028800000003,0.0,0.0,0.0,0.0
5.6000000000000005,34.411005599999996,9.108643200000001,-14.6389344,25.0731528,0.0,0.0,0.0,0.0
5.62,34.728302400000004,8.241182400000001,-15.0726648,24.766524,0.0,0.0,0.0,0.0
5.640000000000001,34.8971616,7.5904344,-15.0726648,24.3830856,0.0,0.0,0.0,0.0
5.66,35.0891856,5.964021600000001,-14.096695200000001,23.3863896,0.0,0.0,0.0,0.0
5.68,35.2004376,6.2349888,-14.909901600000001,22.9261416,0.0,0.0,0.0,0.0
5.7,35.3321112,6.0725304,-13.771473600000002,22.312884,0.0,0.0,0.0,0.0
5.720000000000001,35.4735384,6.4520064,-12.199010400000002,22.9261416,0.0,0.0,0.0,0.0
5.74,35.7472488,7.156704,-13.1207256,21.9294456,0.0,0.0,0.0,0.0
5.76,36.052658400000006,5.8555128,-11.6028216,21.0092544,0.0,0.0,0.0,0.0
5.78,36.327283200000004,6.9942456,-11.5485672,20.4725016,0.0,0.0,0.0,0.0
5.800000000000001,36.6677448,5.7470040000000004,-11.6028216,20.242377600000005,0.0,0.0,0.0,0.0
5.82,37.2590568,5.9097672,-11.657076,19.398996,0.0,0.0,0.0,0.0
5.84,37.9771656,4.8795432000000005,-11.928043200000001,18.2489856,0.0,0.0,0.0,0.0
5.86,38.8656576,4.8252888,-11.982297599999999,17.2522896,0.0,0.0,0.0,0.0
5.880000000000001,39.9998184,4.8795432000000005,-12.036552,16.8688512,0.0,0.0,0.0,0.0
5.9,41.3823912,5.0423064,-11.982297599999999,15.642031200000002,0.0,0.0,0.0,0.0
5.92,43.1072544,3.957828,-12.7412496,14.645030400000001,0.0,0.0,0.0,0.0
5.94,45.1417944,3.3616392,-11.277295200000001,14.108277600000001,0.0,0.0,0.0,0.0
5.96,47.467113600000005,4.3376088,-11.1690912,13.6483344,0.0,0.0,0.0,0.0
5.98,49.95214800000001,3.7953696000000003,-10.843564800000001,13.264896000000002,0.0,0.0,0.0,0.0
6.0,52.27411440000001,3.9035736000000005,-9.6508824,13.111581600000001,0.0,0.0,0.0,0.0
6.0200000000000005,54.56072400000001,4.3376088,-9.7593912,12.345009600000001,0.0,0.0,0.0,0.0
6.04,56.5730136,4.2833544,-9.488119200000002,11.501323200000002,0.0,0.0,0.0,0.0
6.0600000000000005,58.58774160000001,4.608576,-7.6446888,11.5781328,0.0,0.0,0.0,0.0
6.08,60.231528000000004,4.012082400000001,-7.807452,11.1181896,0.0,0.0,0.0,0.0
6.1000000000000005,61.729620000000004,2.8194000000000004,-8.024164800000001,9.891369599999999,0.0,0.0,0.0,0.0
6.12,63.293853600000006,2.6566368,-7.5364848,10.044684,0.0,0.0,0.0,0.0
6.140000000000001,64.6273536,3.5240976,-7.427976000000001,9.4311216,0.0,0.0,0.0,0.0
6.16,65.75298000000001,3.1446216000000002,-5.8555128,9.1244928,0.0,0.0,0.0,0.0
6.18,66.54515520000001,2.548128,-5.6930544,8.5109304,0.0,0.0,0.0,0.0
6.2,67.26174,2.548128,-4.8252888,7.9744824,0.0,0.0,0.0,0.0
6.220000000000001,67.95912240000001,1.8434304000000001,-4.6628304,6.9009768,0.0,0.0,0.0,0.0
6.24,68.8210968,1.8434304000000001,-4.988052,5.827471200000001,0.0,0.0,0.0,0.0
6.26,69.66966000000001,0.650748,-4.554321600000001,5.4440328000000004,0.0,0.0,0.0,0.0
6.28,70.8285096,-0.1085088,-3.1446216000000002,6.2109096,0.0,0.0,0.0,0.0
6.300000000000001,71.897748,-0.7589520000000001,-2.7108912000000003,4.6006512,0.0,0.0,0.0,0.0
6.32,72.720708,-0.4879848,-2.0061936,4.2937176,0.0,0.0,0.0,0.0
6.34,73.51166400000001,-0.3252216,-2.2771608000000003,5.137404,0.0,0.0,0.0,0.0
6.36,74.4922056,0.2170176,-2.8194000000000004,0.9201912000000001,0.0,0.0,0.0,0.0
6.380000000000001,76.14056400000001,0.37947600000000004,-2.3314152,1.3036296,0.0,0.0,0.0,0.0
6.4,78.16474080000002,-0.7589520000000001,-0.2170176,-0.8433816000000001,0.0,0.0,0.0,0.0
6.42,80.2803576,-0.7046976,0.37947600000000004,-2.3003256,0.0,0.0,0.0,0.0
6.44,82.65749280000001,-3.578352,-0.3252216,-4.2172128,0.0,0.0,0.0,0.0
6.460000000000001,84.9419688,0.9217152000000001,0.4879848,-2.7602688,0.0,0.0,0.0,0.0
6.48,86.9414568,-1.789176,-0.4879848,1.4569440000000002,0.0,0.0,0.0,0.0
6.5,88.80561360000002,-3.578352,0.4337304,-3.5271456,0.0,0.0,0.0,0.0
6.5200000000000005,90.50243520000002,-2.4399240000000004,-0.16276320000000002,-1.7635728,0.0,0.0,0.0,0.0
6.54,92.1809688,-1.3554456000000001,0.16276320000000002,-1.1500104,0.0,0.0,0.0,0.0
6.5600000000000005,93.9494184,-0.8132064000000001,0.4879848,0.0768096,0.0,0.0,0.0,0.0
6.58,95.41977360000001,-1.8434304000000001,2.4941784,-1.9936968000000002,0.0,0.0,0.0,0.0
6.6,96.5783184,-0.9217152000000001,1.4639544,-1.4569440000000002,0.0,0.0,0.0,0.0
6.62,97.6222584,-0.9759696,2.2771608000000003,-1.3801344,0.0,0.0,0.0,0.0
6.640000000000001,98.43333120000001,0.650748,2.3856696,-1.3801344,0.0,0.0,0.0,0.0
6.66,99.10937760000002,0.0,3.3616392,0.23012400000000002,0.0,0.0,0.0,0.0
6.68,99.76195440000001,-1.4097000000000002,2.9279088,-0.0768096,0.0,0.0,0.0,0.0
6.7,100.4779296,-1.5724632,2.2229064000000003,-1.3801344,0.0,0.0,0.0,0.0
6.720000000000001,101.35240080000001,0.9759696,2.3856696,-0.23012400000000002,0.0,0.0,0.0,0.0
6.74,102.54874080000002,-0.2709672,2.548128,-2.7602688,0.0,0.0,0.0,0.0
6.76,104.52719760000001,-2.1686520000000002,2.7108912000000003,-1.5334488,0.0,0.0,0.0,0.0
6.78,106.1362368,-2.1143976,2.2229064000000003,-1.7635728,0.0,0.0,0.0,0.0
6.800000000000001,107.59775280000001,-2.2771608000000003,2.8194000000000004,-3.6036504000000003,0.0,0.0,0.0,0.0
6.82,109.50580080000002,-0.7046976,1.030224,-1.6867632000000001,0.0,0.0,0.0,0.0
6.84,111.32271360000001,-0.9759696,2.6023824,-3.3738312000000006,0.0,0.0,0.0,0.0
6.86,113.27556720000001,0.2170176,2.6023824,-2.1470112,0.0,0.0,0.0,0.0
6.880000000000001,115.36619040000001,0.2709672,2.9818584,-1.5334488,0.0,0.0,0.0,0.0
6.9,116.98955520000001,-1.6264128000000002,2.7108912000000003,0.15331440000000002,0.0,0.0,0.0,0.0
6.92,118.17431280000001,-2.3856696,3.1446216000000002,-0.3834384,0.0,0.0,0.0,0.0
6.94,119.04969840000001,-1.8976848000000002,2.548128,-1.0735056,0.0,0.0,0.0,0.0
6.960000000000001,120.26981280000001,-1.2469368,3.0903671999999998,-1.5334488,0.0,0.0,0.0,0.0
6.98,122.24766,-1.7349216,2.0601432,-2.3768304000000002,0.0,0.0,0.0,0.0
7.0,124.57938000000001,-1.8976848000000002,2.2229064000000003,-2.223516,0.0,0.0,0.0,0.0
7.0200000000000005,126.61727280000001,-1.7349216,2.6023824,-1.7635728,0.0,0.0,0.0,0.0
7.04,128.227836,-1.789176,2.3314152,-1.9168872,0.0,0.0,0.0,0.0
7.0600000000000005,129.4321008,-2.3314152,2.4399240000000004,-1.3801344,0.0,0.0,0.0,0.0
7.08,130.361436,-2.3314152,2.3314152,-0.6900672,0.0,0.0,0.0,0.0
7.1,131.19689280000003,-2.2229064000000003,2.1143976,-1.2268200000000002,0.0,0.0,0.0,0.0
7.12,132.164328,-2.3856696,1.9519392,-1.5334488,0.0,0.0,0.0,0.0
7.140000000000001,133.5493392,-2.548128,1.789176,-2.3768304000000002,0.0,0.0,0.0,0.0
7.16,135.4360512,-2.3314152,2.2229064000000003,-2.5304496,0.0,0.0,0.0,0.0
7.18,137.256012,-2.1686520000000002,2.6023824,-1.3801344,0.0,0.0,0.0,0.0
7.2,138.75837120000003,-2.4399240000000004,2.2229064000000003,-0.7668768,0.0,0.0,0.0,0.0
7.220000000000001,139.6721616,-1.8976848000000002,2.8736544000000004,-0.30662880000000003,0.0,0.0,0.0,0.0
7.24,140.2945632,-1.4097000000000002,3.2531304000000003,-0.3834384,0.0,0.0,0.0,0.0
7.26,140.8883136,-1.3011912,3.1446216000000002,-0.9201912000000001,0.0,0.0,0.0,0.0
7.28,142.0465536,-1.3011912,2.6023824,-1.6102584000000002,0.0,0.0,0.0,0.0
7.300000000000001,143.2261296,-1.7349216,1.7349216,-2.5304496,0.0,0.0,0.0,0.0
7.32,144.79463040000002,-1.8434304000000001,1.8434304000000001,-2.683764,0.0,0.0,0.0,0.0
7.34,147.11629200000002,-1.5182088,1.4097000000000002,-3.6036504000000003,0.0,0.0,0.0,0.0
7.36,149.9335584,-0.3252216,1.0844784,-3.5271456,0.0,0.0,0.0,0.0
7.380000000000001,152.78892480000002,-0.2709672,0.9217152000000001,-3.2970216000000003,0.0,0.0,0.0,0.0
7.4,155.71744320000002,-0.4337304,0.7589520000000001,-4.907280000000001,0.0,0.0,0.0,0.0
7.42,158.35030559999998,-0.0542544,1.789176,-2.3003256,0.0,0.0,0.0,0.0
7.44,160.5878424,0.16276320000000002,1.5724632,-3.6036504000000003,0.0,0.0,0.0,0.0
7.460000000000001,162.7927656,0.2170176,2.7108912000000003,-3.0672024,0.0,0.0,0.0,0.0
7.48,164.5276872,0.0,2.4941784,-2.223516,0.0,0.0,0.0,0.0
7.5,166.0812528,-0.8674608,3.3616392,-0.9201912000000001,0.0,0.0,0.0,0.0
7.5200000000000005,167.40377999999998,-2.2229064000000003,2.3314152,-0.6135624,0.0,0.0,0.0,0.0
7.54,168.0298392,-2.7651456,2.9818584,0.15331440000000002,0.0,0.0,0.0,0.0
7.5600000000000005,168.1694376,-2.6566368,2.9818584,0.3834384,0.0,0.0,0.0,0.0
7.58,168.4425384,-2.2771608000000003,2.4941784,0.30662880000000003,0.0,0.0,0.0,0.0
7.6,168.61718879999998,-2.3314152,3.4158936000000004,0.6900672,0.0,0.0,0.0,0.0
7.62,168.4029144,-2.9818584,2.6566368,0.4599432,0.0,0.0,0.0,0.0
7.640000000000001,167.98411919999998,-2.3314152,2.9818584,0.6135624,0.0,0.0,0.0,0.0
7.66,167.6168352,-2.0601432,3.1446216000000002,0.6135624,0.0,0.0,0.0,0.0
7.68,167.429688,-1.6806672000000002,2.7651456,0.23012400000000002,0.0,0.0,0.0,0.0
7.7,167.4824184,-1.5182088,3.3616392,1.3801344,0.0,0.0,0.0,0.0
7.720000000000001,168.33799199999999,-1.5182088,2.7108912000000003,-0.4599432,0.0,0.0,0.0,0.0
7.74,170.66422559999998,-0.7589520000000001,2.3856696,-1.5334488,0.0,0.0,0.0,0.0
7.76,173.63602559999998,-0.2709672,2.3314152,-1.7635728,0.0,0.0,0.0,0.0
7.78,176.3182656,0.0542544,2.0061936,-1.9936968000000002,0.0,0.0,0.0,0.0
7.800000000000001,178.1065272,0.0,2.1686520000000002,-2.3768304000000002,0.0,0.0,0.0,0.0
7.82,179.8280376,-0.650748,1.7349216,-2.8370784000000002,0.0,0.0,0.0,0.0
7.84,181.564788,-1.4639544,1.2469368,-3.3738312000000006,0.0,0.0,0.0,0.0
7.86,183.392064,-0.8674608,1.4097000000000002,-2.8370784000000002,0.0,0.0,0.0,0.0
7.880000000000001,185.030364,-1.4097000000000002,1.7349216,-2.7602688,0.0,0.0,0.0,0.0
7.9,186.5961216,-1.4639544,1.6806672000000002,-2.3768304000000002,0.0,0.0,0.0,0.0
7.92,187.98936239999998,-1.7349216,1.7349216,-2.5304496,0.0,0.0,0.0,0.0
7.94,189.3192048,-2.1143976,1.5724632,-1.9936968000000002,0.0,0.0,0.0,0.0
7.960000000000001,190.6267968,-2.6566368,1.6806672000000002,-1.3036296,0.0,0.0,0.0,0.0
7.98,192.1608552,-2.3856696,1.7349216,-1.2268200000000002,0.0,0.0,0.0,0.0
8.0,193.889376,-2.3314152,2.2229064000000003,-0.8433816000000001,0.0,0.0,0.0,0.0
8.02,195.54169679999998,-2.1143976,2.2229064000000003,-0.5367528,0.0,0.0,0.0,0.0
8.04,196.285104,-2.1686520000000002,2.1686520000000002,-0.23012400000000002,0.0,0.0,0.0,0.0
8.06,196.8178944,-1.7349216,2.1686520000000002,-0.15331440000000002,0.0,0.0,0.0,0.0
8.08,198.0002136,-0.37947600000000004,2.8736544000000004,0.0768096,0.0,0.0,0.0,0.0
8.1,199.19807759999998,0.16276320000000002,2.548128,-0.23012400000000002,0.0,0.0,0.0,0.0
8.120000000000001,200.43099360000002,0.2709672,2.548128,-0.6900672,0.0,0.0,0.0,0.0
8.14,201.6504984,0.2709672,2.6566368,-0.6135624,0.0,0.0,0.0,0.0
8.16,202.85903040000002,0.3252216,2.7108912000000003,-0.4599432,0.0,0.0,0.0,0.0
8.18,203.8855968,0.0,2.7108912000000003,-0.8433816000000001,0.0,0.0,0.0,0.0
8.2,204.88686479999998,-0.3252216,2.4941784,-0.7668768,0.0,0.0,0.0,0.0
8.22,205.80156960000002,-0.0542544,2.548128,-0.9201912000000001,0.0,0.0,0.0,0.0
8.24,206.6327592,0.0,2.4941784,-0.30662880000000003,0.0,0.0,0.0,0.0
8.26,207.4578528,-0.4337304,1.9519392,-1.3036296,0.0,0.0,0.0,0.0
8.280000000000001,208.2478944,-0.5964936000000001,2.0061936,-1.5334488,0.0,0.0,0.0,0.0
8.3,208.9611264,-0.8132064000000001,1.5724632,-1.3801344,0.0,0.0,0.0,0.0
8.32,209.68898879999998,-1.4097000000000002,1.8434304000000001,-1.7635728,0.0,0.0,0.0,0.0
8.34,210.5265792,-1.7349216,1.7349216,-1.4569440000000002,0.0,0.0,0.0,0.0
8.36,211.2876648,-1.2469368,1.4639544,-1.6102584000000002,0.0,0.0,0.0,0.0
8.379999999999999,212.114892,-1.8976848000000002,1.789176,-1.0735056,0.0,0.0,0.0,0.0
8.4,212.8976184,-1.4639544,1.3554456000000001,-1.5334488,0.0,0.0,0.0,0.0
8.42,213.7489248,-1.3554456000000001,1.3554456000000001,-1.6102584000000002,0.0,0.0,0.0,0.0
8.440000000000001,214.6041936,-2.1143976,2.1143976,-0.9201912000000001,0.0,0.0,0.0,0.0
8.46,215.4396504,-1.8976848000000002,1.8976848000000002,-0.996696,0.0,0.0,0.0,0.0
8.48,216.36685200000002,-2.0601432,1.9519392,-0.0768096,0.0,0.0,0.0,0.0
8.5,217.2702792,-1.9519392,1.9519392,0.15331440000000002,0.0,0.0,0.0,0.0
8.52,218.151456,-1.8976848000000002,2.3314152,0.4599432,0.0,0.0,0.0,0.0
8.54,219.11919600000002,-1.8434304000000001,1.8434304000000001,-0.15331440000000002,0.0,0.0,0.0,0.0
8.56,220.01286960000002,-2.3314152,1.8976848000000002,-0.23012400000000002,0.0,0.0,0.0,0.0
8.58,220.89770399999998,-2.0061936,2.0061936,-0.6900672,0.0,0.0,0.0,0.0
8.600000000000001,221.798388,-1.8976848000000002,2.1143976,-0.15331440000000002,0.0,0.0,0.0,0.0
8.620000000000001,222.657924,-1.6264128000000002,2.1686520000000002,0.0768096,0.0,0.0,0.0,0.0
8.64,223.5747624,-1.1926824,2.0601432,-0.15331440000000002,0.0,0.0,0.0,0.0
8.66,224.505012,-0.9217152000000001,2.2229064000000003,-0.6900672,0.0,0.0,0.0,0.0
8.68,225.29383439999998,-0.4337304,1.7349216,-0.9201912000000001,0.0,0.0,0.0,0.0
8.7,226.12441439999998,-0.4879848,2.1143976,-0.8433816000000001,0.0,0.0,0.0,0.0
8.72,226.8775752,-0.16276320000000002,1.8976848000000002,-1.3036296,0.0,0.0,0.0,0.0
8.74,227.51887440000002,-0.2170176,1.6264128000000002,-1.6867632000000001,0.0,0.0,0.0,0.0
8.760000000000002,228.22936320000002,-0.650748,1.3011912,-1.6867632000000001,0.0,0.0,0.0,0.0
8.780000000000001,228.97764719999998,-0.2170176,1.3011912,-1.8400776,0.0,0.0,0.0,0.0
8.8,229.6649712,-0.8674608,1.3011912,-1.7635728,0.0,0.0,0.0,0.0
8.82,230.404416,-0.650748,0.9759696,-1.7635728,0.0,0.0,0.0,0.0
8.84,231.0768048,-1.1926824,1.4097000000000002,-1.6867632000000001,0.0,0.0,0.0,0.0
8.86,231.8561784,-1.030224,1.030224,-1.2268200000000002,0.0,0.0,0.0,0.0
8.879999999999999,232.713276,-1.2469368,1.2469368,-1.2268200000000002,0.0,0.0,0.0,0.0
8.9,233.61396,-1.6806672000000002,1.6806672000000002,-0.3834384,0.0,0.0,0.0,0.0
8.92,234.6069984,-1.7349216,1.7349216,-0.6900672,0.0,0.0,0.0,0.0
8.940000000000001,235.4948808,-1.6264128000000002,1.6264128000000002,-0.30662880000000003,0.0,0.0,0.0,0.0
8.96,236.3702664,-1.6264128000000002,1.5182088,-0.996696,0.0,0.0,0.0,0.0
8.98,237.10757759999998,-1.5182088,1.5182088,-0.996696,0.0,0.0,0.0,0.0
9.0,237.9640656,-1.5182088,1.5182088,-1.4569440000000002,0.0,0.0,0.0,0.0
9.02,238.8790752,-1.3554456000000001,1.6806672000000002,-0.23012400000000002,0.0,0.0,0.0,0.0
9.04,239.68496639999998,-1.4097000000000002,1.7349216,-0.3834384,0.0,0.0,0.0,0.0
9.06,240.5256048,-1.4639544,1.789176,0.0,0.0,0.0,0.0,0.0
9.08,241.265964,-1.3011912,1.3011912,-0.7668768,0.0,0.0,0.0,0.0
9.100000000000001,241.933476,-1.1926824,1.3011912,-1.2268200000000002,0.0,0.0,0.0,0.0
9.120000000000001,242.68785599999998,-1.030224,1.5724632,-0.8433816000000001,0.0,0.0,0.0,0.0
9.14,243.3251928,-0.5422392,1.3011912,-0.6900672,0.0,0.0,0.0,0.0
9.16,243.88358639999998,-0.4879848,1.1387328,-1.1500104,0.0,0.0,0.0,0.0
9.18,244.5047688,-0.4879848,1.2469368,-0.9201912000000001,0.0,0.0,0.0,0.0
9.2,245.0323776,-0.2709672,1.4639544,-0.8433816000000001,0.0,0.0,0.0,0.0
9.22,245.6913552,0.0,1.1926824,-1.3036296,0.0,0.0,0.0,0.0
9.24,246.35886720000002,0.16276320000000002,1.030224,-1.5334488,0.0,0.0,0.0,0.0
9.260000000000002,246.942864,0.0542544,1.030224,-1.5334488,0.0,0.0,0.0,0.0
9.280000000000001,247.47687359999998,-0.1085088,0.9759696,-2.0702016,0.0,0.0,0.0,0.0
9.3,248.1151248,-0.4337304,0.7589520000000001,-1.9168872,0.0,0.0,0.0,0.0
9.32,248.7582528,-0.4879848,0.9217152000000001,-1.6867632000000001,0.0,0.0,0.0,0.0
9.34,249.40930559999998,-0.650748,0.8674608,-1.4569440000000002,0.0,0.0,0.0,0.0
9.36,250.0673688,-0.650748,1.1926824,-0.996696,0.0,0.0,0.0,0.0
9.379999999999999,250.6620336,-0.5964936000000001,1.3554456000000001,-1.1500104,0.0,0.0,0.0,0.0
9.4,251.3667312,-0.0542544,1.3554456000000001,-0.6900672,0.0,0.0,0.0,0.0
9.42,252.048264,-0.1085088,1.4097000000000002,-0.30662880000000003,0.0,0.0,0.0,0.0
9.440000000000001,252.68468639999998,-0.4337304,1.5182088,-0.4599432,0.0,0.0,0.0,0.0
9.46,253.30800240000002,0.0542544,1.4639544,-0.4599432,0.0,0.0,0.0,0.0
9.48,253.983744,-0.0542544,1.4639544,-0.30662880000000003,0.0,0.0,0.0,0.0
9.5,254.57962799999999,-0.0542544,1.789176,-0.3834384,0.0,0.0,0.0,0.0
9.52,255.25232160000002,-0.2170176,1.5182088,-0.15331440000000002,0.0,0.0,0.0,0.0
9.54,255.9655536,-0.1085088,1.6264128000000002,-0.23012400000000002,0.0,0.0,0.0,0.0
9.56,256.5873456,-0.1085088,1.8434304000000001,0.15331440000000002,0.0,0.0,0.0,0.0
9.58,257.1746952,-0.2709672,1.6806672000000002,0.0768096,0.0,0.0,0.0,0.0
9.600000000000001,257.7574728,-0.4337304,1.8434304000000001,0.15331440000000002,0.0,0.0,0.0,0.0
9.620000000000001,258.4426632,-0.5422392,1.6264128000000002,0.0,0.0,0.0,0.0,0.0
9.64,259.0623216,-0.4337304,1.4097000000000002,-0.15331440000000002,0.0,0.0,0.0,0.0
9.66,259.7560464,-0.4879848,1.3554456000000001,0.15331440000000002,0.0,0.0,0.0,0.0
9.68,260.4296544,-0.4879848,1.5724632,-0.0768096,0.0,0.0,0.0,0.0
9.7,261.10021439999997,-0.4879848,1.4639544,-0.23012400000000002,0.0,0.0,0.0,0.0
9.72,261.7643736,-0.5422392,1.6264128000000002,0.23012400000000002,0.0,0.0,0.0,0.0
9.74,262.3660488,-0.4337304,1.5182088,0.0768096,0.0,0.0,0.0,0.0
9.760000000000002,263.005824,-0.650748,1.3011912,-0.15331440000000002,0.0,0.0,0.0,0.0
9.780000000000001,263.5523304,-0.4879848,1.4639544,0.15331440000000002,0.0,0.0,0.0,0.0
9.8,264.12383040000003,-0.7589520000000001,1.3011912,-0.23012400000000002,0.0,0.0,0.0,0.0
9.82,264.7056936,-0.7046976,1.3554456000000001,-0.23012400000000002,0.0,0.0,0.0,0.0
9.84,265.1824008,-0.9759696,1.5182088,-0.30662880000000003,0.0,0.0,0.0,0.0
9.86,265.7548152,-0.8674608,1.7349216,0.4599432,0.0,0.0,0.0,0.0
9.879999999999999,266.41165920000003,-0.5964936000000001,1.5724632,0.4599432,0.0,0.0,0.0,0.0
9.9,267.056616,-0.2709672,1.4639544,0.15331440000000002,0.0,0.0,0.0,0.0
9.92,267.5875776,-0.3252216,1.5182088,-0.15331440000000002,0.0,0.0,0.0,0.0
9.940000000000001,268.2075408,-0.2170176,1.4097000000000002,0.0768096,0.0,0.0,0.0,0.0
9.96,268.7653248,-0.37947600000000004,1.3554456000000001,0.30662880000000003,0.0,0.0,0.0,0.0
9.98,269.409672,-0.4337304,1.3011912,-0.23012400000000002,0.0,0.0,0.0,0.0
10.0,270.0107376,-0.7046976,1.2469368,-0.30662880000000003,0.0,0.0,0.0,0.0
10.02,270.5837616,-1.0844784,1.0844784,0.0,0.0,0.0,0.0,0.0
10.04,271.1970192,-1.0844784,1.0844784,-0.23012400000000002,0.0,0.0,0.0,0.0
10.06,271.841976,-1.2469368,1.2469368,-0.15331440000000002,0.0,0.0,0.0,0.0
10.08,272.5021728,-1.5724632,1.2469368,0.0,0.0,0.0,0.0,0.0
10.100000000000001,273.0721488,-1.5182088,1.3011912,-0.23012400000000002,0.0,0.0,0.0,0.0
10.120000000000001,273.65462160000004,-1.6806672000000002,1.1387328,0.0768096,0.0,0.0,0.0,0.0
10.14,274.1456544,-1.4097000000000002,1.0844784,-0.15331440000000002,0.0,0.0,0.0,0.0
10.16,274.7104488,-1.5724632,1.2469368,0.23012400000000002,0.0,0.0,0.0,0.0
10.18,275.2920072,-1.5724632,1.3554456000000001,0.15331440000000002,0.0,0.0,0.0,0.0
10.2,275.7589608,-1.5724632,1.1387328,0.0,0.0,0.0,0.0,0.0
10.22,276.3969072,-1.789176,1.1387328,0.0768096,0.0,0.0,0.0,0.0
10.24,276.8928168,-1.6806672000000002,0.9217152000000001,-0.0768096,0.0,0.0,0.0,0.0
10.260000000000002,277.34757840000003,-1.8976848000000002,1.1387328,0.0768096,0.0,0.0,0.0,0.0
10.280000000000001,277.8035592,-1.6806672000000002,1.2469368,0.0768096,0.0,0.0,0.0,0.0
10.3,278.2254024,-1.5724632,1.1387328,0.15331440000000002,0.0,0.0,0.0,0.0
10.32,278.68321199999997,-1.4639544,1.1387328,-0.30662880000000003,0.0,0.0,0.0,0.0
10.34,279.0514104,-1.4639544,1.1387328,0.0,0.0,0.0,0.0,0.0
10.36,279.5345184,-1.3011912,1.3011912,0.30662880000000003,0.0,0.0,0.0,0.0
10.379999999999999,279.9045456,-1.1926824,1.1926824,0.23012400000000002,0.0,0.0,0.0,0.0
10.4,280.31724479999997,-1.1387328,1.030224,0.23012400000000002,0.0,0.0,0.0,0.0
10.42,280.7381736,-1.2469368,1.1387328,0.0,0.0,0.0,0.0,0.0
10.440000000000001,281.0704056,-1.030224,1.030224,-0.15331440000000002,0.0,0.0,0.0,0.0
10.46,281.4593304,-1.1926824,1.0844784,-0.30662880000000003,0.0,0.0,0.0,0.0
10.48,281.9183592,-1.030224,0.9217152000000001,-0.23012400000000002,0.0,0.0,0.0,0.0
10.5,282.3024072,-1.0844784,0.9759696,-0.30662880000000003,0.0,0.0,0.0,0.0
10.52,282.737052,-0.8674608,0.8674608,-0.6135624,0.0,0.0,0.0,0.0
10.54,283.1110416,-0.7589520000000001,0.7589520000000001,-0.7668768,0.0,0.0,0.0,0.0
10.56,283.5398952,-0.7589520000000001,0.7589520000000001,-0.8433816000000001,0.0,0.0,0.0,0.0
10.58,283.8986448,-0.7046976,0.7046976,-0.8433816000000001,0.0,0.0,0.0,0.0
10.600000000000001,284.2790352,-0.9217152000000001,0.9217152000000001,-0.5367528,0.0,0.0,0.0,0.0
10.620000000000001,284.719776,-0.7046976,0.7046976,-0.30662880000000003,0.0,0.0,0.0,0.0
10.64,285.077916,-0.7046976,0.8132064000000001,-0.5367528,0.0,0.0,0.0,0.0
10.66,285.49518720000003,-0.650748,0.7589520000000001,-0.5367528,0.0,0.0,0.0,0.0
10.68,285.777432,-0.7046976,0.8132064000000001,-0.6900672,0.0,0.0,0.0,0.0
10.7,286.0962528,-0.7046976,0.7046976,-0.6135624,0.0,0.0,0.0,0.0
10.72,286.449516,-0.7046976,0.8132064000000001,-0.30662880000000003,0.0,0.0,0.0,0.0
10.74,286.7744328,-0.5964936000000001,0.8132064000000001,-0.3834384,0.0,0.0,0.0,0.0
10.760000000000002,287.1773784,-0.650748,0.7589520000000001,-0.4599432,0.0,0.0,0.0,0.0
10.780000000000001,287.5227168,-0.7046976,0.7046976,-0.6900672,0.0,0.0,0.0,0.0
10.8,287.9588856,-0.650748,0.7589520000000001,-0.3834384,0.0,0.0,0.0,0.0
10.82,288.3298272,-0.650748,0.7589520000000001,-0.15331440000000002,0.0,0.0,0.0,0.0
10.84,288.7181424,-0.650748,0.650748,-0.6135624,0.0,0.0,0.0,0.0
10.86,289.0817688,-0.7589520000000001,0.7589520000000001,-0.5367528,0.0,0.0,0.0,0.0
10.879999999999999,289.47648480000004,-0.7046976,0.7046976,-0.5367528,0.0,0.0,0.0,0.0
10.9,289.83645359999997,-0.7589520000000001,0.7589520000000001,-0.3834384,0.0,0.0,0.0,0.0
10.92,290.201604,-0.7589520000000001,0.7589520000000001,-0.3834384,0.0,0.0,0.0,0.0
10.940000000000001,290.4564168,-0.650748,0.7589520000000001,-0.4599432,0.0,0.0,0.0,0.0
10.96,290.8032792,-0.5964936000000001,0.8132064000000001,-0.5367528,0.0,0.0,0.0,0.0
10.98,291.067236,-0.5422392,0.7589520000000001,-0.3834384,0.0,0.0,0.0,0.0
11.0,291.4003824,-0.5964936000000001,0.7046976,-0.15331440000000002,0.0,0.0,0.0,0.0
11.02,291.768276,-0.5964936000000001,0.7046976,-0.30662880000000003,0.0,0.0,0.0,0.0
11.04,292.111176,-0.650748,0.7589520000000001,-0.23012400000000002,0.0,0.0,0.0,0.0
11.06,292.43914079999996,-0.650748,0.8674608,-0.3834384,0.0,0.0,0.0,0.0
11.08,292.736016,-0.5964936000000001,0.8132064000000001,-0.0768096,0.0,0.0,0.0,0.0
11.100000000000001,293.00515440000004,-0.5964936000000001,0.8132064000000001,-0.30662880000000003,0.0,0.0,0.0,0.0
11.120000000000001,293.2947144,-0.650748,0.8674608,-0.23012400000000002,0.0,0.0,0.0,0.0
11.14,293.6181072,-0.5964936000000001,0.8132064000000001,-0.23012400000000002,0.0,0.0,0.0,0.0
11.16,293.93509919999997,-0.4879848,0.8132064000000001,-0.0768096,0.0,0.0,0.0,0.0
11.18,294.2103336,-0.5964936000000001,0.9217152000000001,-0.0768096,0.0,0.0,0.0,0.0
11.2,294.477948,-0.5964936000000001,0.8132064000000001,-0.0768096,0.0,0.0,0.0,0.0
11.22,294.769032,-0.5964936000000001,0.9217152000000001,-0.0768096,0.0,0.0,0.0,0.0
11.24,294.9573984,-0.4879848,1.030224,0.0,0.0,0.0,0.0,0.0
11.260000000000002,295.2554928,-0.4879848,0.7046976,-0.0768096,0.0,0.0,0.0,0.0
11.280000000000001,295.447212,-0.5422392,0.8674608,-0.0768096,0.0,0.0,0.0,0.0
11.3,295.669716,-0.5422392,0.8674608,0.0,0.0,0.0,0.0,0.0
11.32,295.8687504,-0.37947600000000004,0.9217152000000001,0.0,0.0,0.0,0.0,0.0
11.34,296.1220392,-0.4337304,0.8674608,0.0,0.0,0.0,0.0,0.0
11.36,296.3037,-0.4879848,0.8132064000000001,0.0,0.0,0.0,0.0,0.0
11.379999999999999,296.544492,-0.4337304,0.8674608,0.0,0.0,0.0,0.0,0.0
11.4,296.8230792,-0.4337304,0.8674608,0.0,0.0,0.0,0.0,0.0
11.42,297.03796320000004,-0.37947600000000004,0.8132064000000001,0.0,0.0,0.0,0.0,0.0
11.440000000000001,297.3668424,-0.37947600000000004,0.9217152000000001,0.0768096,0.0,0.0,0.0,0.0
11.46,297.4991256,-0.3252216,0.8674608,0.0,0.0,0.0,0.0,0.0
11.48,297.6984648,-0.37947600000000004,1.030224,0.15331440000000002,0.0,0.0,0.0,0.0
11.5,297.9779664,-0.4337304,0.8674608,0.15331440000000002,0.0,0.0,0.0,0.0
11.52,298.1992512,-0.4879848,0.8132064000000001,-0.0768096,0.0,0.0,0.0,0.0
11.54,298.44126239999997,-0.37947600000000004,0.9217152000000001,0.0768096,0.0,0.0,0.0,0.0
11.56,298.5826896,-0.4337304,0.8674608,0.0768096,0.0,0.0,0.0,0.0
11.58,298.8256152,-0.4337304,0.8674608,0.23012400000000002,0.0,0.0,0.0,0.0
11.600000000000001,299.0874384,-0.3252216,0.8674608,0.15331440000000002,0.0,0.0,0.0,0.0
11.620000000000001,299.3413368,-0.3252216,0.8674608,0.0,0.0,0.0,0.0,0.0
11.64,299.5873104,-0.3252216,0.8674608,0.0,0.0,0.0,0.0,0.0
11.66,299.76775200000003,-0.4337304,0.9759696,0.15331440000000002,0.0,0.0,0.0,0.0
11.68,299.8924152,-0.37947600000000004,0.9217152000000001,0.15331440000000002,0.0,0.0,0.0,0.0
11.7,300.02988,-0.3252216,0.8674608,0.15331440000000002,0.0,0.0,0.0,0.0
11.72,300.23836320000004,-0.2709672,0.9217152000000001,0.0768096,0.0,0.0,0.0,0.0
11.74,300.485556,-0.3252216,0.8674608,0.0,0.0,0.0,0.0,0.0
11.760000000000002,300.68123760000003,-0.37947600000000004,0.8132064000000001,0.0,0.0,0.0,0.0,0.0
11.780000000000001,300.7988904,-0.2709672,0.8132064000000001,0.15331440000000002,0.0,0.0,0.0,0.0
11.8,300.8973408,-0.3252216,0.8674608,0.0768096,0.0,0.0,0.0,0.0
11.82,301.0512648,-0.2709672,0.9217152000000001,0.15331440000000002,0.0,0.0,0.0,0.0
11.84,301.169832,-0.2170176,0.8674608,0.15331440000000002,0.0,0.0,0.0,0.0
11.86,301.306992,-0.16276320000000002,0.9217152000000001,0.15331440000000002,0.0,0.0,0.0,0.0
11.879999999999999,301.4499432,-0.0542544,0.9217152000000001,0.0768096,0.0,0.0,0.0,0.0
11.9,301.5615,-0.2709672,0.9217152000000001,0.0768096,0.0,0.0,0.0,0.0
11.92,301.6718376,-0.16276320000000002,0.9217152000000001,0.0768096,0.0,0.0,0.0,0.0
11.940000000000001,301.85166960000004,-0.16276320000000002,0.9217152000000001,-0.0768096,0.0,0.0,0.0,0.0
11.96,301.9741992,0.0,0.8674608,0.15331440000000002,0.0,0.0,0.0,0.0
11.98,302.187864,-0.1085088,0.8674608,-0.0768096,0.0,0.0,0.0,0.0
12.0,302.3042976,-0.0542544,0.8132064000000001,0.15331440000000002,0.0,0.0,0.0,0.0
12.02,302.3734872,-0.0542544,0.9217152000000001,0.0768096,0.0,0.0,0.0,0.0
12.04,302.532288,0.0,0.8674608,0.0768096,0.0,0.0,0.0,0.0
12.06,302.6273856,-0.0542544,0.9217152000000001,0.15331440000000002,0.0,0.0,0.0,0.0
12.08,302.7477816,-0.0542544,0.8132064000000001,0.0,0.0,0.0,0.0,0.0
12.100000000000001,302.8907328,-0.0542544,0.9217152000000001,0.0768096,0.0,0.0,0.0,0.0
12.120000000000001,303.0208824,-0.0542544,0.8132064000000001,0.15331440000000002,0.0,0.0,0.0,0.0
12.14,303.0227112,-0.0542544,0.8132064000000001,0.0768096,0.0,0.0,0.0,0.0
12.16,303.1720632,0.0,0.8674608,0.0768096,0.0,0.0,0.0,0.0
12.18,303.2833152,-0.1085088,0.8674608,0.0,0.0,0.0,0.0,0.0
12.2,303.3412272,0.0,0.8674608,0.0,0.0,0.0,0.0,0.0
12.22,303.4122456,-0.0542544,0.9217152000000001,0.0,0.0,0.0,0.0,0.0
12.24,303.5049048,-0.0542544,0.8132064000000001,0.0768096,0.0,0.0,0.0,0.0
12.260000000000002,303.5713512,-0.1085088,0.7589520000000001,0.0,0.0,0.0,0.0,0.0
12.280000000000001,303.5920776,0.0542544,0.8132064000000001,-0.0768096,0.0,0.0,0.0,0.0
12.3,303.64541760000003,-0.0542544,0.7046976,0.0,0.0,0.0,0.0,0.0
12.32,303.72862799999996,0.0,0.8674608,-0.0768096,0.0,0.0,0.0,0.0
12.34,303.810924,0.0542544,0.8132064000000001,-0.0768096,0.0,0.0,0.0,0.0
12.36,303.9535704,0.0,0.8674608,-0.0768096,0.0,0.0,0.0,0.0
12.379999999999999,303.99441360000003,0.0,0.8674608,-0.0768096,0.0,0.0,0.0,0.0
12.399999999999999,303.9599712,0.0,0.8674608,-0.0768096,0.0,0.0,0.0,0.0
12.420000000000002,304.0035576,0.0,0.7589520000000001,0.0,0.0,0.0,0.0,0.0
12.440000000000001,304.0081296,0.0,0.7589520000000001,0.0,0.0,0.0,0.0,0.0
12.46,303.9931944,0.0,0.7589520000000001,-0.23012400000000002,0.0,0.0,0.0,0.0
12.48,303.998376,-0.0542544,0.8132064000000001,-0.0768096,0.0,0.0,0.0,0.0
12.5,304.0337328,0.0542544,0.8132064000000001,0.0,0.0,0.0,0.0,0.0
12.52,304.0209312,0.0542544,0.8132064000000001,-0.15331440000000002,0.0,0.0,0.0,0.0
12.54,304.0184928,0.0,0.8674608,-0.0768096,0.0,0.0,0.0,0.0
12.559999999999999,304.0233696,0.0542544,0.9217152000000001,-0.0768096,0.0,0.0,0.0,0.0
12.580000000000002,304.1407176,0.16276320000000002,0.8132064000000001,0.0,0.0,0.0,0.0,0.0
12.600000000000001,304.1443752,0.1085088,0.8674608,0.0,0.0,0.0,0.0,0.0
12.620000000000001,304.18003680000004,0.16276320000000002,0.8132064000000001,-0.0768096,0.0,0.0,0.0,0.0
12.64,304.18460880000003,0.2170176,0.8674608,0.0,0.0,0.0,0.0,0.0
12.66,304.1029224,0.2170176,0.7589520000000001,-0.15331440000000002,0.0,0.0,0.0,0.0
12.68,304.135536,0.2170176,0.8674608,-0.23012400000000002,0.0,0.0,0.0,0.0
12.7,304.196496,0.2709672,0.8132064000000001,-0.15331440000000002,0.0,0.0,0.0,0.0
12.719999999999999,304.1074944,0.37947600000000004,0.9217152000000001,-0.0768096,0.0,0.0,0.0,0.0
12.740000000000002,304.1367552,0.4879848,0.9217152000000001,-0.0768096,0.0,0.0,0.0,0.0
12.760000000000002,304.0788432,0.4879848,0.9217152000000001,-0.15331440000000002,0.0,0.0,0.0,0.0
12.780000000000001,304.0629936,0.4337304,0.7589520000000001,-0.30662880000000003,0.0,0.0,0.0,0.0
12.8,304.07457600000004,0.4879848,0.5964936000000001,-0.5367528,0.0,0.0,0.0,0.0
12.82,304.018188,0.4337304,0.5422392,-0.6900672,0.0,0.0,0.0,0.0
12.84,303.9438168,0.4879848,0.5964936000000001,-0.6135624,0.0,0.0,0.0,0.0
12.86,303.8837712,0.650748,0.650748,-0.4599432,0.0,0.0,0.0,0.0
12.879999999999999,303.8237256,0.7589520000000001,0.7589520000000001,-0.3834384,0.0,0.0,0.0,0.0
12.899999999999999,303.7411248,0.7046976,0.7046976,-0.3834384,0.0,0.0,0.0,0.0
12.920000000000002,303.76977600000004,0.7589520000000001,0.7589520000000001,-0.4599432,0.0,0.0,0.0,0.0
12.940000000000001,303.7033296,0.8674608,0.650748,-0.6135624,0.0,0.0,0.0,0.0
12.96,303.7810536,0.650748,0.650748,-0.6135624,0.0,0.0,0.0,0.0
12.98,303.6841272,0.7046976,0.5964936000000001,-0.6900672,0.0,0.0,0.0,0.0
13.0,303.59573520000004,0.8674608,0.650748,-0.6135624,0.0,0.0,0.0,0.0
13.02,303.4793016,0.8674608,0.7589520000000001,-0.6135624,0.0,0.0,0.0,0.0
13.04,303.3741456,0.9217152000000001,0.7046976,-0.6135624,0.0,0.0,0.0,0.0
13.059999999999999,303.2449104,0.9217152000000001,0.5964936000000001,-0.6135624,0.0,0.0,0.0,0.0
13.080000000000002,303.11963760000003,0.9759696,0.7589520000000001,-0.7668768,0.0,0.0,0.0,0.0
13.100000000000001,302.9157264,1.1387328,0.5964936000000001,-0.8433816000000001,0.0,0.0,0.0,0.0
13.120000000000001,302.7630216,1.0844784,0.650748,-0.7668768,0.0,0.0,0.0,0.0
13.14,302.5389936,1.1926824,0.650748,-0.8433816000000001,0.0,0.0,0.0,0.0
13.16,302.3152704,1.1926824,0.650748,-0.996696,0.0,0.0,0.0,0.0
13.18,302.1951792,1.2469368,0.7046976,-0.996696,0.0,0.0,0.0,0.0
13.2,301.9796856,1.1926824,0.7589520000000001,-0.6135624,0.0,0.0,0.0,0.0
13.219999999999999,301.8260664,1.2469368,0.4879848,-0.9201912000000001,0.0,0.0,0.0,0.0
13.240000000000002,301.712376,1.3011912,0.5422392,-1.1500104,0.0,0.0,0.0,0.0
13.260000000000002,301.529496,1.4639544,0.5964936000000001,-1.0735056,0.0,0.0,0.0,0.0
13.280000000000001,301.3453968,1.4097000000000002,0.650748,-0.996696,0.0,0.0,0.0,0.0
13.3,301.146972,1.5182088,0.650748,-1.1500104,0.0,0.0,0.0,0.0
13.32,301.0710768,1.4097000000000002,0.5422392,-1.1500104,0.0,0.0,0.0,0.0
13.34,300.945804,1.5724632,0.4879848,-1.1500104,0.0,0.0,0.0,0.0
13.36,300.88057680000003,2.0061936,0.7046976,-0.9201912000000001,0.0,0.0,0.0,0.0
13.379999999999999,300.8470488,1.9519392,0.650748,-1.1500104,0.0,0.0,0.0,0.0
13.399999999999999,300.6824568,1.9519392,0.650748,-1.4569440000000002,0.0,0.0,0.0,0.0
13.420000000000002,300.4904328,2.2229064000000003,0.5964936000000001,-1.3036296,0.0,0.0,0.0,0.0
13.440000000000001,300.2408016,2.4941784,0.9759696,-0.996696,0.0,0.0,0.0,0.0
13.46,300.1057752,2.7108912000000003,0.9759696,-0.8433816000000001,0.0,0.0,0.0,0.0
13.48,300.013116,2.7108912000000003,0.7589520000000001,-1.3801344,0.0,0.0,0.0,0.0
13.5,299.85980159999997,2.7108912000000003,0.8674608,-1.4569440000000002,0.0,0.0,0.0,0.0
13.52,299.7366624,3.0903671999999998,0.9217152000000001,-0.996696,0.0,0.0,0.0,0.0
13.54,299.70984,3.2531304000000003,0.9759696,-0.9201912000000001,0.0,0.0,0.0,0.0
13.559999999999999,299.517816,3.4698432,1.1926824,-1.0735056,0.0,0.0,0.0,0.0
13.580000000000002,299.3949816,3.5240976,1.2469368,-0.6900672,0.0,0.0,0.0,0.0
13.600000000000001,299.2029576,3.7411152,1.1387328,-0.4599432,0.0,0.0,0.0,0.0
13.620000000000001,299.0600064,3.4698432,1.1926824,-0.6135624,0.0,0.0,0.0,0.0
13.64,298.8862704,3.6326064,0.9217152000000001,-0.9201912000000001,0.0,0.0,0.0,0.0
13.66,298.9085208,3.6326064,0.8132064000000001,-1.3801344,0.0,0.0,0.0,0.0
13.68,298.8637152,3.3073848000000003,0.8132064000000001,-1.3801344,0.0,0.0,0.0,0.0
13.7,298.9347336,3.7411152,0.9217152000000001,-0.6900672,0.0,0.0,0.0,0.0
13.719999999999999,299.010324,3.4158936000000004,1.2469368,-0.15331440000000002,0.0,0.0,0.0,0.0
13.740000000000002,299.1099936,3.2531304000000003,1.5182088,-0.0768096,0.0,0.0,0.0,0.0
13.760000000000002,299.2035672,3.3616392,1.3011912,-0.4599432,0.0,0.0,0.0,0.0
13.780000000000001,299.28159600000004,3.3073848000000003,1.4639544,0.15331440000000002,0.0,0.0,0.0,0.0
13.8,299.2133208,2.8736544000000004,2.1143976,1.2268200000000002,0.0,0.0,0.0,0.0
13.82,299.15815200000003,3.7953696000000003,1.9519392,1.1500104,0.0,0.0,0.0,0.0
13.84,299.1270624,3.7411152,2.2229064000000003,0.996696,0.0,0.0,0.0,0.0
13.86,299.2425816,3.198876,2.1143976,1.1500104,0.0,0.0,0.0,0.0
13.879999999999999,299.4279,3.5240976,2.2229064000000003,1.1500104,0.0,0.0,0.0,0.0
13.899999999999999,299.5019664,3.957828,2.2229064000000003,1.1500104,0.0,0.0,0.0,0.0
13.920000000000002,299.5202544,3.4698432,2.4941784,1.6102584000000002,0.0,0.0,0.0,0.0
13.940000000000001,299.5446384,3.7411152,2.548128,1.6867632000000001,0.0,0.0,0.0,0.0
13.96,299.41052640000004,3.8496240000000004,2.2229064000000003,1.4569440000000002,0.0,0.0,0.0,0.0
13.98,299.1450456,4.3376088,2.6023824,1.4569440000000002,0.0,0.0,0.0,0.0
14.0,298.91736,3.6868608000000003,2.7108912000000003,1.9168872,0.0,0.0,0.0,0.0
14.02,298.6771776,3.578352,2.9279088,2.3768304000000002,0.0,0.0,0.0,0.0
14.04,298.5217296,3.9035736000000005,2.9279088,2.6069544000000002,0.0,0.0,0.0,0.0
14.059999999999999,298.3022736,3.8496240000000004,3.198876,2.223516,0.0,0.0,0.0,0.0
14.080000000000002,298.00753199999997,4.120591200000001,3.2531304000000003,2.7602688,0.0,0.0,0.0,0.0
14.100000000000001,297.7643016,4.445812800000001,3.3616392,2.5304496,0.0,0.0,0.0,0.0
