time,baro_altitude,accl_x,accl_y,accl_z,gps_altitude,gyro_roll,gyro_pitch,gyro_yaw
0.0,0.0,-2.1143976,-9.1628976,-2.0702016,0.0,0.0,0.0,0.0
0.020000000000000018,0.025298400000000006,-2.2229064000000003,-9.1628976,-2.0702016,0.0,0.0,0.0,0.0
0.040000000000000036,0.0368808,-2.1143976,-9.1628976,-2.0702016,0.0,0.0,0.0,0.0
0.06000000000000005,0.030175199999999996,-2.1143976,-9.1628976,-2.0702016,0.0,0.0,0.0,0.0
0.08000000000000007,0.0402336,-2.1143976,-9.1628976,-2.1470112,0.0,0.0,0.0,0.0
0.09999999999999964,-0.0725424,-2.1686520000000002,-9.217152,-2.0702016,0.0,0.0,0.0,0.0
0.11999999999999966,0.010972799999999993,-2.1143976,-9.1628976,-2.0702016,0.0,0.0,0.0,0.0
0.13999999999999968,0.1368552,-2.1686520000000002,-9.217152,-2.1470112,0.0,0.0,0.0,0.0
0.1599999999999997,0.1319784,-2.1686520000000002,-9.217152,-2.0702016,0.0,0.0,0.0,0.0
0.17999999999999972,-0.008534400000000008,-2.1143976,-9.1628976,-2.1470112,0.0,0.0,0.0,0.0
0.19999999999999973,-0.15849600000000003,-2.1686520000000002,-9.217152,-2.1470112,0.0,0.0,0.0,0.0
0.21999999999999975,-0.105156,-2.2229064000000003,-9.1628976,-2.0702016,0.0,0.0,0.0,0.0
0.23999999999999977,-0.0432816,-2.2229064000000003,-9.1628976,-2.0702016,0.0,0.0,0.0,0.0
0.2599999999999998,0.0573024,-2.2229064000000003,-9.1628976,-2.1470112,0.0,0.0,0.0,0.0
0.2799999999999998,0.1450848,-2.2229064000000003,-9.1628976,-2.1470112,0.0,0.0,0.0,0.0
0.2999999999999998,0.04907279999999999,-2.1686520000000002,-9.217152,-2.1470112,0.0,0.0,0.0,0.0
0.31999999999999984,-0.0789432,-2.1686520000000002,-9.108643200000001,-2.0702016,0.0,0.0,0.0,0.0
0.33999999999999986,0.057912000000000005,-2.1143976,-9.1628976,-1.9936968000000002,0.0,0.0,0.0,0.0
0.3599999999999999,0.0810768,-2.1686520000000002,-9.217152,-2.0702016,0.0,0.0,0.0,0.0
0.3799999999999999,-0.039624000000000006,-2.0601432,-9.217152,-2.0702016,0.0,0.0,0.0,0.0
0.3999999999999999,-0.1121664,-2.1143976,-9.1628976,-1.9936968000000002,0.0,0.0,0.0,0.0
0.41999999999999993,-0.071628,-2.1143976,-9.1628976,-1.9936968000000002,0.0,0.0,0.0,0.0
0.43999999999999995,0.0003048000000000003,-2.2229064000000003,-9.0543888,-2.1470112,0.0,0.0,0.0,0.0
0.45999999999999996,0.1740408,-2.1686520000000002,-9.108643200000001,-2.0702016,0.0,0.0,0.0,0.0
0.48,0.20939760000000002,-2.2229064000000003,-9.1628976,-2.0702016,0.0,0.0,0.0,0.0
0.5,0.1853184,-2.1686520000000002,-9.108643200000001,-1.9936968000000002,0.0,0.0,0.0,0.0
0.52,0.192024,-2.1143976,-9.1628976,-1.9936968000000002,0.0,0.0,0.0,0.0
0.54,0.0932688,-2.1686520000000002,-9.108643200000001,-2.1470112,0.0,0.0,0.0,0.0
0.56,-0.1938528,-2.1686520000000002,-9.108643200000001,-2.0702016,0.0,0.0,0.0,0.0
0.5800000000000001,0.0362712,-2.1143976,-9.1628976,-2.0702016,0.0,0.0,0.0,0.0
0.5999999999999996,0.074676,-2.2771608000000003,-9.217152,-2.0702016,0.0,0.0,0.0,0.0
0.6199999999999997,0.20695920000000004,-2.1143976,-9.1628976,-2.1470112,0.0,0.0,0.0,0.0
0.6399999999999997,0.187452,-2.1143976,-9.1628976,-1.9936968000000002,0.0,0.0,0.0,0.0
0.6599999999999997,-0.0353568,-2.2229064000000003,-9.1628976,-2.0702016,0.0,0.0,0.0,0.0
0.6799999999999997,0.012191999999999995,-2.1686520000000002,-9.108643200000001,-1.9936968000000002,0.0,0.0,0.0,0.0
0.6999999999999997,-0.017373600000000017,-2.2229064000000003,-9.1628976,-2.1470112,0.0,0.0,0.0,0.0
0.7199999999999998,-0.0719328,-2.1686520000000002,-9.108643200000001,-2.0702016,0.0,0.0,0.0,0.0
0.7399999999999998,0.1072896,-2.1686520000000002,-9.108643200000001,-2.0702016,0.0,0.0,0.0,0.0
0.7599999999999998,0.04480560000000001,-2.1686520000000002,-9.217152,-2.1470112,0.0,0.0,0.0,0.0
0.7799999999999998,-0.022555199999999987,-2.2229064000000003,-9.1628976,-2.1470112,0.0,0.0,0.0,0.0
0.7999999999999998,-0.071628,-2.1143976,-9.1628976,-2.0702016,0.0,0.0,0.0,0.0
0.8199999999999998,-0.05730240000000002,-2.1143976,-9.1628976,-2.0702016,0.0,0.0,0.0,0.0
0.8399999999999999,-0.0771144,-2.2229064000000003,-9.1628976,-2.223516,0.0,0.0,0.0,0.0
0.8599999999999999,-0.17465039999999998,-2.1686520000000002,-9.217152,-2.1470112,0.0,0.0,0.0,0.0
0.8799999999999999,-0.1520952,-2.1143976,-9.1628976,-2.1470112,0.0,0.0,0.0,0.0
0.8999999999999999,-0.146304,-2.1143976,-9.1628976,-2.1470112,0.0,0.0,0.0,0.0
0.9199999999999999,-0.11643360000000001,-2.2229064000000003,-9.1628976,-2.1470112,0.0,0.0,0.0,0.0
0.94,-0.05913119999999999,-2.1686520000000002,-9.217152,-1.9936968000000002,0.0,0.0,0.0,0.0
0.96,-0.112776,-2.1686520000000002,-9.217152,-2.0702016,0.0,0.0,0.0,0.0
0.98,-0.08595360000000002,-2.1686520000000002,-9.108643200000001,-2.0702016,0.0,0.0,0.0,0.0
1.0,-0.1487424,-2.1686520000000002,-9.108643200000001,-2.1470112,0.0,0.0,0.0,0.0
1.02,-0.18105120000000002,-2.2229064000000003,-9.1628976,-2.1470112,0.0,0.0,0.0,0.0
1.04,-0.222504,-2.1686520000000002,-9.108643200000001,-1.9936968000000002,0.0,0.0,0.0,0.0
1.06,-0.08016240000000001,-2.1686520000000002,-9.108643200000001,-2.1470112,0.0,0.0,0.0,0.0
1.08,-0.24475439999999998,-2.1686520000000002,-9.108643200000001,-2.1470112,0.0,0.0,0.0,0.0
1.0999999999999996,-0.33649920000000005,-2.1686520000000002,-9.108643200000001,-2.1470112,0.0,0.0,0.0,0.0
1.1199999999999997,-0.1825752,-2.1686520000000002,-9.217152,-2.0702016,0.0,0.0,0.0,0.0
1.1399999999999997,-0.11033760000000001,-2.1686520000000002,-9.108643200000001,-2.0702016,0.0,0.0,0.0,0.0
1.1599999999999997,-0.015240000000000014,-2.1686520000000002,-9.217152,-2.223516,0.0,0.0,0.0,0.0
1.1799999999999997,0.11856720000000001,-2.1686520000000002,-9.108643200000001,-2.0702016,0.0,0.0,0.0,0.0
1.1999999999999997,0.39928800000000003,-2.2229064000000003,-9.1628976,-2.0702016,0.0,0.0,0.0,0.0
1.2199999999999998,0.21518879999999999,-2.0601432,-9.217152,-2.1470112,0.0,0.0,0.0,0.0
1.2399999999999998,0.19507200000000002,-2.1143976,-9.1628976,-2.0702016,0.0,0.0,0.0,0.0
1.2599999999999998,-0.029260799999999993,-2.1686520000000002,-9.217152,-2.1470112,0.0,0.0,0.0,0.0
1.2799999999999998,-0.09204960000000002,-2.1686520000000002,-9.217152,-2.0702016,0.0,0.0,0.0,0.0
1.2999999999999998,-0.2721864,-2.1143976,-9.1628976,-2.0702016,0.0,0.0,0.0,0.0
1.3199999999999998,-0.20970239999999998,-2.1143976,-9.1628976,-2.0702016,0.0,0.0,0.0,0.0
1.3399999999999999,-0.20878800000000003,-2.1143976,-9.1628976,-2.0702016,0.0,0.0,0.0,0.0
1.3599999999999999,-0.0691896,-2.2229064000000003,-9.1628976,-2.1470112,0.0,0.0,0.0,0.0
1.38,-0.1764792,-2.1143976,-9.1628976,-2.0702016,0.0,0.0,0.0,0.0
1.4,-0.242316,-2.1686520000000002,-9.108643200000001,-2.1470112,0.0,0.0,0.0,0.0
1.42,-0.2081784,-2.1686520000000002,-9.108643200000001,-2.1470112,0.0,0.0,0.0,0.0
1.44,-0.12435840000000002,-2.2229064000000003,-9.1628976,-2.1470112,0.0,0.0,0.0,0.0
1.46,-0.0743712,-2.1143976,-9.1628976,-2.0702016,0.0,0.0,0.0,0.0
1.48,-0.020421599999999984,-2.1686520000000002,-9.108643200000001,-2.0702016,0.0,0.0,0.0,0.0
1.5,0.0408432,-2.1686520000000002,-9.217152,-2.1470112,0.0,0.0,0.0,0.0
1.52,0.13776960000000002,-2.1143976,-9.2714064,-2.1470112,0.0,0.0,0.0,0.0
1.54,0.24018240000000002,-2.1686520000000002,-9.108643200000001,-2.1470112,0.0,0.0,0.0,0.0
1.56,0.06309360000000001,-2.2229064000000003,-9.1628976,-1.9936968000000002,0.0,0.0,0.0,0.0
1.58,0.0560832,-2.1686520000000002,-9.108643200000001,-2.1470112,0.0,0.0,0.0,0.0
1.5999999999999996,0.08199120000000001,-2.2229064000000003,-9.1628976,-2.1470112,0.0,0.0,0.0,0.0
1.6199999999999997,0.0329184,-2.1143976,-9.0543888,-2.0702016,0.0,0.0,0.0,0.0
1.6399999999999997,0.1109472,-2.2229064000000003,-9.1628976,-2.1470112,0.0,0.0,0.0,0.0
1.6599999999999997,0.2014728,-2.1686520000000002,-9.217152,-2.1470112,0.0,0.0,0.0,0.0
1.6799999999999997,0.135636,-2.2229064000000003,-9.1628976,-1.9168872,0.0,0.0,0.0,0.0
1.6999999999999997,0.044196000000000006,-2.2229064000000003,-9.1628976,-1.9936968000000002,0.0,0.0,0.0,0.0
1.7199999999999998,0.1255776,-2.1686520000000002,-9.217152,-2.1470112,0.0,0.0,0.0,0.0
1.7399999999999998,0.1039368,-2.1686520000000002,-9.217152,-2.1470112,0.0,0.0,0.0,0.0
1.7599999999999998,0.08564880000000001,-2.1686520000000002,-9.108643200000001,-2.223516,0.0,0.0,0.0,0.0
1.7799999999999998,0.2191512,-2.2771608000000003,-9.217152,-2.0702016,0.0,0.0,0.0,0.0
1.7999999999999998,0.1581912,-2.1686520000000002,-9.217152,-2.0702016,0.0,0.0,0.0,0.0
1.8199999999999998,0.0908304,-2.1686520000000002,-9.108643200000001,-2.1470112,0.0,0.0,0.0,0.0
1.8399999999999999,0.12192000000000001,-2.1143976,-9.1628976,-1.9936968000000002,0.0,0.0,0.0,0.0
1.8599999999999999,-0.04297680000000001,-2.2229064000000003,-9.1628976,-2.223516,0.0,0.0,0.0,0.0
1.88,-0.15179040000000002,-2.0601432,-9.217152,-2.1470112,0.0,0.0,0.0,0.0
1.9,-0.2496312,-2.1686520000000002,-9.217152,-2.0702016,0.0,0.0,0.0,0.0
1.92,-0.2901696,-2.2229064000000003,-9.1628976,-2.0702016,0.0,0.0,0.0,0.0
1.94,-0.30906720000000004,-2.1686520000000002,-9.217152,-2.1470112,0.0,0.0,0.0,0.0
1.96,-0.21610320000000002,-2.1686520000000002,-9.217152,-2.0702016,0.0,0.0,0.0,0.0
1.9799999999999998,-0.34046160000000003,-2.1686520000000002,-9.217152,-2.0702016,0.0,0.0,0.0,0.0
1.9999999999999998,-0.1776984,-2.1143976,-9.1628976,-2.0702016,0.0,0.0,0.0,0.0
2.0199999999999996,-0.25054560000000003,-2.1686520000000002,-9.217152,-2.0702016,0.0,0.0,0.0,0.0
2.04,-0.16489679999999998,-2.1686520000000002,-9.217152,-1.9936968000000002,0.0,0.0,0.0,0.0
2.0599999999999996,-0.23378159999999998,-2.1686520000000002,-9.217152,-2.0702016,0.0,0.0,0.0,0.0
2.08,-0.3041904,-2.1686520000000002,-9.217152,-2.0702016,0.0,0.0,0.0,0.0
2.0999999999999996,-0.1655064,-2.1686520000000002,-9.108643200000001,-2.1470112,0.0,0.0,0.0,0.0
2.12,-0.172212,-2.1686520000000002,-9.108643200000001,-2.0702016,0.0,0.0,0.0,0.0
2.1399999999999997,-0.26334720000000006,-2.1686520000000002,-9.108643200000001,-2.0702016,0.0,0.0,0.0,0.0
2.16,-0.13075920000000002,-2.2229064000000003,-9.2714064,-2.0702016,0.0,0.0,0.0,0.0
2.1799999999999997,-0.23042880000000002,-2.1686520000000002,-9.3256608,-2.223516,0.0,0.0,0.0,0.0
2.2,-0.18592800000000004,-2.1686520000000002,-9.108643200000001,-2.1470112,0.0,0.0,0.0,0.0
2.2199999999999998,0.030784799999999994,-2.1686520000000002,-9.108643200000001,-2.0702016,0.0,0.0,0.0,0.0
2.2399999999999998,0.0957072,-2.2229064000000003,-9.1628976,-2.0702016,0.0,0.0,0.0,0.0
2.26,0.36728400000000005,-2.1686520000000002,-9.108643200000001,-1.9936968000000002,0.0,0.0,0.0,0.0
2.28,0.3157728,-2.2229064000000003,-9.1628976,-2.1470112,0.0,0.0,0.0,0.0
2.3,0.109728,-2.1143976,-9.1628976,-1.9936968000000002,0.0,0.0,0.0,0.0
2.32,-0.04572000000000001,-2.1686520000000002,-9.217152,-1.9936968000000002,0.0,0.0,0.0,0.0
2.34,-0.08564880000000001,-2.1143976,-9.1628976,-2.0702016,0.0,0.0,0.0,0.0
2.36,-0.1527048,-2.1686520000000002,-9.108643200000001,-2.1470112,0.0,0.0,0.0,0.0
2.38,0.134112,-2.1143976,-9.1628976,-2.0702016,0.0,0.0,0.0,0.0
2.4,0.31211520000000004,-2.2771608000000003,-9.217152,-2.1470112,0.0,0.0,0.0,0.0
2.42,0.173736,-2.2771608000000003,-9.217152,-2.0702016,0.0,0.0,0.0,0.0
2.44,0.178308,-2.2229064000000003,-9.1628976,-2.0702016,0.0,0.0,0.0,0.0
2.46,-0.04297680000000001,-2.1686520000000002,-9.108643200000001,-2.0702016,0.0,0.0,0.0,0.0
2.4799999999999995,-0.04785360000000001,-2.1686520000000002,-9.217152,-2.0702016,0.0,0.0,0.0,0.0
2.5,-0.11948160000000001,-2.1143976,-9.1628976,-2.0702016,0.0,0.0,0.0,0.0
2.5199999999999996,-0.0341376,-2.1686520000000002,-9.217152,-2.1470112,0.0,0.0,0.0,0.0
2.54,-0.016764000000000015,-2.1686520000000002,-9.108643200000001,-2.0702016,0.0,0.0,0.0,0.0
2.5599999999999996,-0.0003048000000000003,-2.1143976,-9.1628976,-2.0702016,0.0,0.0,0.0,0.0
2.58,-0.1054608,-2.1686520000000002,-9.108643200000001,-2.0702016,0.0,0.0,0.0,0.0
2.5999999999999996,0.018288,-2.1686520000000002,-9.108643200000001,-1.9936968000000002,0.0,0.0,0.0,0.0
2.62,0.13776960000000002,-2.1686520000000002,-9.217152,-2.1470112,0.0,0.0,0.0,0.0
2.6399999999999997,0.074676,-2.1686520000000002,-9.217152,-2.1470112,0.0,0.0,0.0,0.0
2.66,0.021945600000000003,-2.1686520000000002,-9.108643200000001,-1.9936968000000002,0.0,0.0,0.0,0.0
2.6799999999999997,0.044196000000000006,-2.1686520000000002,-9.108643200000001,-2.1470112,0.0,0.0,0.0,0.0
2.7,0.08473440000000002,-2.1143976,-9.1628976,-2.1470112,0.0,0.0,0.0,0.0
2.7199999999999998,-0.020726399999999985,-2.1143976,-9.1628976,-2.0702016,0.0,0.0,0.0,0.0
2.7399999999999998,-0.017983200000000015,-2.2771608000000003,-9.217152,-1.9168872,0.0,0.0,0.0,0.0
2.76,0.0353568,-2.2229064000000003,-9.1628976,-1.9936968000000002,0.0,0.0,0.0,0.0
2.78,0.041757600000000006,-2.2771608000000003,-9.217152,-2.223516,0.0,0.0,0.0,0.0
2.8,-0.0688848,-2.2229064000000003,-9.1628976,-1.9936968000000002,0.0,0.0,0.0,0.0
2.82,0.0161544,-2.2229064000000003,-9.1628976,-2.0702016,0.0,0.0,0.0,0.0
2.84,0.0667512,-2.1686520000000002,-9.108643200000001,-2.1470112,0.0,0.0,0.0,0.0
2.86,0.12100560000000002,-2.1143976,-9.1628976,-2.1470112,0.0,0.0,0.0,0.0
2.88,0.077724,-2.1686520000000002,-9.217152,-2.1470112,0.0,0.0,0.0,0.0
2.9,0.024688800000000007,-2.1143976,-9.1628976,-1.9936968000000002,0.0,0.0,0.0,0.0
2.92,-0.0036576000000000035,-2.1143976,-9.1628976,-2.0702016,0.0,0.0,0.0,0.0
2.94,0.19690080000000001,-2.2229064000000003,-9.1628976,-2.0702016,0.0,0.0,0.0,0.0
2.96,0.1709928,-2.1686520000000002,-9.217152,-1.9936968000000002,0.0,0.0,0.0,0.0
2.98,0.0527304,-2.1686520000000002,-9.217152,-1.9936968000000002,0.0,0.0,0.0,0.0
3.0,0.0673608,-2.1686520000000002,-9.217152,-2.1470112,0.0,0.0,0.0,0.0
3.02,0.1956816,-2.1143976,-9.1628976,-2.0702016,0.0,0.0,0.0,0.0
3.04,0.039624000000000006,-2.2229064000000003,-9.1628976,-2.1470112,0.0,0.0,0.0,0.0
3.0599999999999996,0.08199120000000001,-2.1686520000000002,-9.108643200000001,-2.1470112,0.0,0.0,0.0,0.0
3.08,0.038709600000000004,-2.1686520000000002,-9.108643200000001,-2.1470112,0.0,0.0,0.0,0.0
3.0999999999999996,-0.11582400000000001,-2.1686520000000002,-9.217152,-2.0702016,0.0,0.0,0.0,0.0
3.12,-0.06644639999999999,-2.1143976,-9.2714064,-2.223516,0.0,0.0,0.0,0.0
3.1399999999999997,0.060045600000000005,-2.2229064000000003,-9.2714064,-2.0702016,0.0,0.0,0.0,0.0
3.1599999999999997,0.007315200000000007,-2.1686520000000002,-9.108643200000001,-1.9936968000000002,0.0,0.0,0.0,0.0
3.1799999999999997,0.16916399999999998,-2.1143976,-9.1628976,-2.0702016,0.0,0.0,0.0,0.0
3.1999999999999997,0.1115568,-2.1143976,-9.1628976,-2.1470112,0.0,0.0,0.0,0.0
3.2199999999999998,0.011277599999999994,-2.1143976,-9.1628976,-2.0702016,0.0,0.0,0.0,0.0
3.2399999999999998,-0.1496568,-2.2229064000000003,-9.1628976,-2.1470112,0.0,0.0,0.0,0.0
3.26,0.20208240000000002,-2.1686520000000002,-9.108643200000001,-2.0702016,0.0,0.0,0.0,0.0
3.28,0.4111752,-2.1143976,-9.1628976,-1.9936968000000002,0.0,0.0,0.0,0.0
3.3,0.44958000000000004,-2.1686520000000002,-9.108643200000001,-2.1470112,0.0,0.0,0.0,0.0
3.32,0.44165519999999997,-2.0601432,-9.217152,-2.223516,0.0,0.0,0.0,0.0
3.34,0.257556,-2.1686520000000002,-9.108643200000001,-2.1470112,0.0,0.0,0.0,0.0
3.36,0.22463760000000002,-2.1686520000000002,-9.108643200000001,-2.0702016,0.0,0.0,0.0,0.0
3.38,0.0932688,-2.0601432,-9.217152,-2.223516,0.0,0.0,0.0,0.0
3.4,0.06126480000000001,-0.9217152000000001,-8.729167200000001,-1.3036296,0.0,0.0,0.0,0.0
3.42,-0.2078736,-0.7589520000000001,-9.5423736,-2.4536400000000005,0.0,0.0,0.0,0.0
3.44,-0.1389888,-2.4941784,-9.4338648,-2.7602688,0.0,0.0,0.0,0.0
3.46,-0.041452800000000005,-2.9818584,-9.1628976,-2.4536400000000005,0.0,0.0,0.0,0.0
3.48,0.04267200000000001,-2.1143976,-9.2714064,-1.6867632000000001,0.0,0.0,0.0,0.0
3.5,0.041452800000000005,-1.8434304000000001,-9.217152,-2.1470112,0.0,0.0,0.0,0.0
3.52,0.2459736,-2.4941784,-9.0001344,-1.8400776,0.0,0.0,0.0,0.0
3.54,0.16703040000000002,-2.1686520000000002,-9.0001344,-1.9168872,0.0,0.0,0.0,0.0
3.5599999999999996,0.0347472,-2.3314152,-9.1628976,-2.223516,0.0,0.0,0.0,0.0
3.58,0.050291999999999996,-2.1686520000000002,-9.217152,-2.1470112,0.0,0.0,0.0,0.0
3.5999999999999996,-0.005181600000000005,-2.0061936,-9.1628976,-1.9936968000000002,0.0,0.0,0.0,0.0
3.6199999999999997,0.019507200000000002,-2.4399240000000004,-9.1628976,-2.0702016,0.0,0.0,0.0,0.0
3.6399999999999997,0.1146048,-1.7349216,-9.3256608,-1.7635728,0.0,0.0,0.0,0.0
3.6599999999999997,0.39258240000000005,-0.8132064000000001,-9.2714064,-2.223516,0.0,0.0,0.0,0.0
3.6799999999999997,0.4361688,-2.0601432,-9.217152,-1.8400776,0.0,0.0,0.0,0.0
3.6999999999999997,0.260604,-1.9519392,-10.843564800000001,-1.9168872,0.0,0.0,0.0,0.0
3.7199999999999998,0.38801040000000003,-2.6566368,-13.174980000000001,-2.5304496,0.0,0.0,0.0,0.0
3.7399999999999998,0.44775119999999996,-3.198876,-17.512588800000003,-5.4440328000000004,0.0,0.0,0.0,0.0
3.76,0.4056888,-3.8496240000000004,-19.6812408,-1.0735056,0.0,0.0,0.0,0.0
3.78,0.44927520000000004,-4.2291,-19.4102736,-5.2907184,0.0,0.0,0.0,0.0
3.8,0.5001768,-0.4337304,-20.0607168,-4.1404032,0.0,0.0,0.0,0.0
3.82,0.6163056000000001,-10.3013256,-13.229234400000001,-1.7635728,0.0,0.0,0.0,0.0
3.84,0.6845808,-2.4399240000000004,-23.801832,-3.8337744,0.0,0.0,0.0,0.0
3.86,0.8330184,-8.241182400000001,-30.2538384,-6.9774816,0.0,0.0,0.0,0.0
3.88,1.0405872,-6.343497600000001,-33.9949536,-6.594043200000001,0.0,0.0,0.0,0.0
3.9,1.0597896,-4.0663368,-37.7900184,-8.5109304,0.0,0.0,0.0,0.0
3.92,1.4029944,-9.596628,-35.187636,-7.8976728000000005,0.0,0.0,0.0,0.0
3.94,1.6575024000000003,-5.3132736,-43.5915816,-6.747662400000001,0.0,0.0,0.0,0.0
3.96,1.9549872,-9.9218496,-41.585388,-4.0638984,0.0,0.0,0.0,0.0
3.98,2.1652991999999998,-2.7651456,-45.4892664,-10.044684,0.0,0.0,0.0,0.0
4.0,2.3009352,-11.8195344,-42.0733728,-1.5334488,0.0,0.0,0.0,0.0
4.02,2.4118824,-4.120591200000001,-33.181747200000004,-9.6612456,0.0,0.0,0.0,0.0
4.04,2.5200864000000003,-5.7470040000000004,-27.759660000000004,-7.8976728000000005,0.0,0.0,0.0,0.0
4.06,2.3859744,-7.5904344,-26.566977600000005,-4.2937176,0.0,0.0,0.0,0.0
4.08,2.5484328000000005,-10.735360799999999,-23.5308648,-8.1277968,0.0,0.0,0.0,0.0
4.1,2.6517600000000003,-8.3496912,-23.856086400000002,-6.2874144,0.0,0.0,0.0,0.0
4.12,2.7093672000000004,-6.5605152,-22.5006408,-3.9870888,0.0,0.0,0.0,0.0
4.14,2.8901136000000003,-9.5423736,-26.6754864,-6.747662400000001,0.0,0.0,0.0,0.0
4.16,3.0425136000000004,-7.048500000000001,-14.855952000000002,-9.967874400000001,0.0,0.0,0.0,0.0
4.18,3.2293560000000006,-4.0663368,-22.7173536,-7.6675488,0.0,0.0,0.0,0.0
4.2,3.387852,-6.4520064,-25.211532000000002,-0.9201912000000001,0.0,0.0,0.0,0.0
4.22,3.7295328000000003,-3.4698432,-24.723547200000002,-4.2937176,0.0,0.0,0.0,0.0
4.24,3.8554152000000004,-5.5302912,-24.6150384,-3.450336,0.0,0.0,0.0,0.0
4.26,3.8435280000000005,-4.2833544,-23.9103408,-4.0638984,0.0,0.0,0.0,0.0
4.28,3.9108888000000004,-5.096560800000001,-23.964595199999998,-3.7572696000000003,0.0,0.0,0.0,0.0
4.3,4.115104800000001,-4.7170848,-24.018849600000003,-3.9870888,0.0,0.0,0.0,0.0
4.32,4.2321480000000005,-4.988052,-23.747577600000003,-3.450336,0.0,0.0,0.0,0.0
4.34,4.437888,-4.7170848,-23.801832,-3.7572696000000003,0.0,0.0,0.0,0.0
4.359999999999999,4.461052800000001,-4.8795432000000005,-23.3138472,-3.5271456,0.0,0.0,0.0,0.0
4.38,4.4921424000000005,-4.7170848,-22.825862400000002,-3.7572696000000003,0.0,0.0,0.0,0.0
4.4,4.7155608,-4.933797600000001,-23.259592800000004,-3.2205168000000004,0.0,0.0,0.0,0.0
4.42,5.0602896,-4.2291,-22.771608,-3.3738312000000006,0.0,0.0,0.0,0.0
4.4399999999999995,5.3074824000000005,-4.445812800000001,-22.771608,-3.3738312000000006,0.0,0.0,0.0,0.0
4.46,5.664707999999999,-4.554321600000001,-22.771608,-3.450336,0.0,0.0,0.0,0.0
4.4799999999999995,5.9000136,-4.2833544,-22.9343712,-3.7572696000000003,0.0,0.0,0.0,0.0
4.5,6.18744,-4.8252888,-21.958401600000002,-3.6036504000000003,0.0,0.0,0.0,0.0
4.52,6.500164799999999,-4.5000672,-22.2836232,-3.2205168000000004,0.0,0.0,0.0,0.0
4.54,6.9308472,-4.8252888,-21.849892800000003,-3.1437072,0.0,0.0,0.0,0.0
4.56,7.1740776,-4.8252888,-21.849892800000003,-3.0672024,0.0,0.0,0.0,0.0
4.58,7.378293599999999,-5.367528,-22.2836232,-3.450336,0.0,0.0,0.0,0.0
4.6,7.4989944,-4.988052,-21.904147200000004,-3.2970216000000003,0.0,0.0,0.0,0.0
4.62,7.5962255999999995,-5.5845456,-21.63318,-3.0672024,0.0,0.0,0.0,0.0
4.64,7.6998576,-4.3915584,-21.5246712,-2.9903928,0.0,0.0,0.0,0.0
4.66,8.0336136,-5.096560800000001,-21.687434400000004,-2.5304496,0.0,0.0,0.0,0.0
4.68,8.5508592,-4.7170848,-21.741384,-2.9903928,0.0,0.0,0.0,0.0
4.7,8.919667200000001,-5.205069600000001,-21.5789256,-2.3768304000000002,0.0,0.0,0.0,0.0
4.72,9.1491816,-5.259324,-20.982432000000003,-2.683764,0.0,0.0,0.0,0.0
4.74,9.4521528,-5.205069600000001,-21.361908,-2.6069544000000002,0.0,0.0,0.0,0.0
4.76,9.611868000000001,-5.8555128,-20.9281776,-2.5304496,0.0,0.0,0.0,0.0
4.779999999999999,10.016032800000001,-5.1508152,-20.982432000000003,-2.6069544000000002,0.0,0.0,0.0,0.0
4.8,10.440924,-4.445812800000001,-21.253704000000003,-3.1437072,0.0,0.0,0.0,0.0
4.82,10.828629600000001,-5.421782400000001,-20.9281776,-2.9135831999999997,0.0,0.0,0.0,0.0
4.84,11.200790400000002,-5.421782400000001,-20.9281776,-2.9135831999999997,0.0,0.0,0.0,0.0
4.859999999999999,11.541861600000002,-5.9097672,-20.5487016,-2.9135831999999997,0.0,0.0,0.0,0.0
4.88,11.811304800000002,-6.2349888,-20.3319888,-2.223516,0.0,0.0,0.0,0.0
4.9,12.023445600000002,-6.018276,-20.22348,-3.2970216000000003,0.0,0.0,0.0,0.0
4.92,12.557760000000002,-6.506260800000001,-20.1692256,-3.3738312000000006,0.0,0.0,0.0,0.0
4.9399999999999995,12.701625600000002,-6.8314824000000005,-20.3859384,-3.68046,0.0,0.0,0.0,0.0
4.96,13.0701288,-6.343497600000001,-20.1149712,-3.910584,0.0,0.0,0.0,0.0
4.9799999999999995,13.544397600000002,-5.6930544,-20.1149712,-4.4473368,0.0,0.0,0.0,0.0
5.0,13.945209600000002,-5.0423064,-19.898258400000003,-4.523841600000001,0.0,0.0,0.0,0.0
5.02,14.2058136,-4.8252888,-20.765719200000003,-5.137404,0.0,0.0,0.0,0.0
5.04,14.587728,-5.1508152,-20.3319888,-5.060594400000001,0.0,0.0,0.0,0.0
5.06,14.8181568,-4.1748456,-20.3319888,-4.523841600000001,0.0,0.0,0.0,0.0
5.08,15.129662400000003,-4.2833544,-19.898258400000003,-4.1404032,0.0,0.0,0.0,0.0
5.1,15.609112800000002,-4.445812800000001,-19.844004,-4.523841600000001,0.0,0.0,0.0,0.0
5.12,15.881908800000001,-4.608576,-20.1149712,-4.7539656,0.0,0.0,0.0,0.0
5.14,16.1934144,-4.1748456,-20.1149712,-4.7539656,0.0,0.0,0.0,0.0
5.16,16.725290400000002,-4.7713392,-19.7354952,-4.4473368,0.0,0.0,0.0,0.0
5.18,17.135856,-2.7651456,-19.6812408,-4.6006512,0.0,0.0,0.0,0.0
5.2,17.3668944,-4.6628304,-19.952208,-4.2937176,0.0,0.0,0.0,0.0
5.22,17.676266400000003,-3.3616392,-19.518477600000004,-4.677156,0.0,0.0,0.0,0.0
5.24,17.9838096,-5.367528,-19.464223200000003,-4.1404032,0.0,0.0,0.0,0.0
5.26,18.3730392,-4.6628304,-19.4102736,-4.523841600000001,0.0,0.0,0.0,0.0
5.279999999999999,18.8296296,-5.096560800000001,-19.3017648,-3.910584,0.0,0.0,0.0,0.0
5.3,19.2508632,-5.0423064,-19.3560192,-4.523841600000001,0.0,0.0,0.0,0.0
5.32,19.5388992,-5.205069600000001,-19.3017648,-3.68046,0.0,0.0,0.0,0.0
5.34,19.878446399999998,-4.2291,-19.193256,-4.6006512,0.0,0.0,0.0,0.0
5.359999999999999,20.2216512,-5.205069600000001,-19.3017648,-3.9870888,0.0,0.0,0.0,0.0
5.38,20.522184,-4.6628304,-19.193256,-4.1404032,0.0,0.0,0.0,0.0
5.4,20.81784,-4.1748456,-19.464223200000003,-3.9870888,0.0,0.0,0.0,0.0
5.42,21.268944,-4.1748456,-19.247510400000003,-3.68046,0.0,0.0,0.0,0.0
5.4399999999999995,21.670060799999998,-5.205069600000001,-18.8680344,-3.910584,0.0,0.0,0.0,0.0
5.46,22.0806264,-3.198876,-18.9222888,-3.8337744,0.0,0.0,0.0,0.0
5.4799999999999995,22.4482152,-3.2531304000000003,-19.193256,-2.9135831999999997,0.0,0.0,0.0,0.0
5.5,22.9340664,-4.012082400000001,-18.8680344,-3.2205168000000004,0.0,0.0,0.0,0.0
5.52,23.458017599999998,-3.6868608000000003,-18.7595256,-3.1437072,0.0,0.0,0.0,0.0
5.54,23.965814400000003,-3.7411152,-18.81378,-2.6069544000000002,0.0,0.0,0.0,0.0
5.56,24.45258,-3.2531304000000003,-18.542508,-3.3738312000000006,0.0,0.0,0.0,0.0
5.58,24.97074,-3.4698432,-18.542508,-2.8370784000000002,0.0,0.0,0.0,0.0
5.6,25.4779272,-3.3073848000000003,-18.81378,-2.4536400000000005,0.0,0.0,0.0,0.0
5.62,26.043026400000002,-2.3856696,-18.7595256,-2.9903928,0.0,0.0,0.0,0.0
5.64,26.512418399999998,-2.8194000000000004,-18.7595256,-2.0702016,0.0,0.0,0.0,0.0
5.66,26.8519656,-2.1686520000000002,-18.976543200000002,-2.5304496,0.0,0.0,0.0,0.0
5.68,27.231136799999998,-2.548128,-19.0304928,-1.6867632000000001,0.0,0.0,0.0,0.0
5.7,27.742896000000002,-2.3314152,-18.5967624,-2.3003256,0.0,0.0,0.0,0.0
5.72,28.276296,-2.6023824,-18.6510168,-1.6867632000000001,0.0,0.0,0.0,0.0
5.74,28.858159200000003,-1.8434304000000001,-19.193256,-2.3003256,0.0,0.0,0.0,0.0
5.76,29.373576,-2.2771608000000003,-18.6510168,-1.6867632000000001,0.0,0.0,0.0,0.0
5.779999999999999,29.9075856,-2.6023824,-18.7595256,-2.3768304000000002,0.0,0.0,0.0,0.0
5.8,30.280356,-3.0361128,-18.6510168,-2.5304496,0.0,0.0,0.0,0.0
5.82,30.8829456,-2.6566368,-18.705271200000002,-2.0702016,0.0,0.0,0.0,0.0
5.84,31.3294776,-1.7349216,-18.8680344,-1.9168872,0.0,0.0,0.0,0.0
5.859999999999999,31.9594992,-3.3616392,-18.434304,-1.1500104,0.0,0.0,0.0,0.0
5.88,32.6477376,-1.9519392,-18.1087776,-2.3003256,0.0,0.0,0.0,0.0
5.9,33.3399384,-3.4158936000000004,-18.054828,-2.3003256,0.0,0.0,0.0,0.0
5.92,33.8477352,-2.3314152,-18.488558400000002,-2.3768304000000002,0.0,0.0,0.0,0.0
5.9399999999999995,34.2055704,-2.7651456,-18.2715408,-2.1470112,0.0,0.0,0.0,0.0
5.96,34.6676472,-2.7108912000000003,-18.217286400000003,-2.3768304000000002,0.0,0.0,0.0,0.0
5.98,35.0651064,-2.4941784,-18.217286400000003,-1.7635728,0.0,0.0,0.0,0.0
6.0,35.513772,-2.6566368,-17.512588800000003,-3.1437072,0.0,0.0,0.0,0.0
6.02,35.9929176,-2.2229064000000003,-18.054828,-2.3003256,0.0,0.0,0.0,0.0
6.04,36.5247936,-1.030224,-18.488558400000002,-2.9903928,0.0,0.0,0.0,0.0
6.0600000000000005,37.0740432,-1.9519392,-18.3257952,-2.7602688,0.0,0.0,0.0,0.0
6.08,37.6303032,-1.789176,-18.163032,-3.1437072,0.0,0.0,0.0,0.0
6.1,38.1027432,-2.1686520000000002,-18.1087776,-2.8370784000000002,0.0,0.0,0.0,0.0
6.119999999999999,38.456616000000004,-1.030224,-17.729301600000003,-3.1437072,0.0,0.0,0.0,0.0
6.14,38.9906256,-0.9217152000000001,-18.2715408,-2.7602688,0.0,0.0,0.0,0.0
6.16,39.51975840000001,-1.4639544,-17.837810400000002,-2.683764,0.0,0.0,0.0,0.0
6.18,39.9236184,-1.4097000000000002,-17.5668432,-3.2205168000000004,0.0,0.0,0.0,0.0
6.199999999999999,40.393620000000006,-2.548128,-17.40408,-2.4536400000000005,0.0,0.0,0.0,0.0
6.22,40.8185112,-1.3011912,-18.217286400000003,-3.2205168000000004,0.0,0.0,0.0,0.0
6.24,41.31045840000001,-1.6264128000000002,-17.783556,-2.9135831999999997,0.0,0.0,0.0,0.0
6.26,41.780460000000005,-1.5724632,-17.6210976,-2.683764,0.0,0.0,0.0,0.0
6.279999999999999,42.27210240000001,-1.6264128000000002,-18.000573600000003,-2.8370784000000002,0.0,0.0,0.0,0.0
6.3,42.816475200000006,-2.3856696,-17.458334400000002,-3.1437072,0.0,0.0,0.0,0.0
6.32,43.320919200000006,-1.3011912,-17.6750472,-2.3768304000000002,0.0,0.0,0.0,0.0
6.34,43.84304160000001,-2.4941784,-18.000573600000003,-2.3768304000000002,0.0,0.0,0.0,0.0
6.359999999999999,44.473368,-2.8736544000000004,-17.6210976,-2.1470112,0.0,0.0,0.0,0.0
6.38,45.0503544,-0.5964936000000001,-17.2955712,-2.0702016,0.0,0.0,0.0,0.0
6.4,45.6063096,-1.2469368,-17.729301600000003,-1.9168872,0.0,0.0,0.0,0.0
6.42,46.117764,-2.2229064000000003,-17.512588800000003,-2.0702016,0.0,0.0,0.0,0.0
6.4399999999999995,46.59020400000001,-3.4158936000000004,-16.645128,-2.5304496,0.0,0.0,0.0,0.0
6.46,47.115984000000005,-2.0061936,-17.1870624,-2.4536400000000005,0.0,0.0,0.0,0.0
6.48,47.723450400000004,-1.5182088,-17.2413168,-2.223516,0.0,0.0,0.0,0.0
6.5,48.34128000000001,-2.2229064000000003,-17.6210976,-1.8400776,0.0,0.0,0.0,0.0
6.52,49.0130592,-1.1926824,-17.2413168,-2.3003256,0.0,0.0,0.0,0.0
6.54,51.2371848,-0.0542544,-222.02394,-82.27374960000002,0.0,0.0,0.0,0.0
6.5600000000000005,52.09062480000001,10.735360799999999,11.8195344,-3.68046,0.0,0.0,0.0,0.0
6.58,52.9699728,1.1926824,0.9759696,-4.8304704,0.0,0.0,0.0,0.0
6.6,53.875533600000004,1.2469368,2.3314152,2.3768304000000002,0.0,0.0,0.0,0.0
6.619999999999999,50.08473600000001,-0.2709672,2.4399240000000004,0.9201912000000001,0.0,0.0,0.0,0.0
6.64,46.901709600000004,0.9759696,1.9519392,1.9936968000000002,0.0,0.0,0.0,0.0
6.66,44.39412,0.0542544,2.3314152,0.3834384,0.0,0.0,0.0,0.0
6.68,42.3114216,0.4337304,2.0601432,0.15331440000000002,0.0,0.0,0.0,0.0
6.699999999999999,40.80570960000001,-0.2709672,1.789176,-0.8433816000000001,0.0,0.0,0.0,0.0
6.72,39.65600400000001,-0.5422392,1.8434304000000001,-0.23012400000000002,0.0,0.0,0.0,0.0
6.74,38.9750808,-0.5964936000000001,1.3554456000000001,-0.3834384,0.0,0.0,0.0,0.0
6.76,38.7498336,-1.2469368,1.030224,-0.15331440000000002,0.0,0.0,0.0,0.0
6.779999999999999,38.8598664,-2.0061936,0.7046976,0.5367528,0.0,0.0,0.0,0.0
6.8,39.252753600000005,0.1085088,-1.6264128000000002,-0.5367528,0.0,0.0,0.0,0.0
6.82,39.8565624,-0.7589520000000001,-3.2531304000000003,0.6900672,0.0,0.0,0.0,0.0
6.84,40.5877776,-1.1926824,-5.3132736,-0.15331440000000002,0.0,0.0,0.0,0.0
6.859999999999999,41.61922080000001,-1.789176,-7.753197600000001,0.0768096,0.0,0.0,0.0,0.0
6.88,42.640300800000006,-1.789176,-10.0303584,-0.7668768,0.0,0.0,0.0,0.0
6.9,43.8445656,-3.6868608000000003,-12.5787912,-1.3036296,0.0,0.0,0.0,0.0
6.92,45.1872096,-5.1508152,-15.777667200000002,-2.223516,0.0,0.0,0.0,0.0
6.9399999999999995,46.638362400000005,-4.608576,-19.247510400000003,-2.6069544000000002,0.0,0.0,0.0,0.0
6.96,48.13401600000001,-7.156704,-21.687434400000004,-3.3738312000000006,0.0,0.0,0.0,0.0
6.98,49.59126480000001,-7.4822304,-23.856086400000002,-3.450336,0.0,0.0,0.0,0.0
7.0,50.9253744,-7.1024496,-27.705405600000002,-3.2205168000000004,0.0,0.0,0.0,0.0
7.02,52.282344,-9.0001344,-28.8441384,-3.2970216000000003,0.0,0.0,0.0,0.0
7.04,53.537815200000004,-8.4582,-31.8802512,-2.7602688,0.0,0.0,0.0,0.0
7.0600000000000005,54.91246320000001,-9.4338648,-35.024872800000004,-3.1437072,0.0,0.0,0.0,0.0
7.08,56.2099968,-10.0846128,-37.085320800000005,-4.2937176,0.0,0.0,0.0,0.0
7.1,57.48863280000001,-11.928043200000001,-39.3624816,-4.1404032,0.0,0.0,0.0,0.0
7.119999999999999,58.76879280000001,-10.247376,-42.7783752,-8.050987200000002,0.0,0.0,0.0,0.0
7.14,60.04346640000001,-10.355580000000002,-42.7783752,-3.68046,0.0,0.0,0.0,0.0
7.16,61.3032048,-16.2653472,-47.16993360000001,-8.6645496,0.0,0.0,0.0,0.0
7.18,62.60622480000001,-17.024604,-49.5556032,-8.6645496,0.0,0.0,0.0,0.0
7.199999999999999,63.78031440000001,-14.096695200000001,-48.688142400000004,-9.047683200000002,0.0,0.0,0.0,0.0
7.22,64.6767312,-15.6691584,-47.549409600000004,-6.2874144,0.0,0.0,0.0,0.0
7.24,65.496948,-14.5304256,-44.8927728,-4.523841600000001,0.0,0.0,0.0,0.0
7.26,66.2019504,-12.958267200000002,-39.9589752,-4.8304704,0.0,0.0,0.0,0.0
7.279999999999999,66.950844,-13.446252000000001,-38.1697992,-3.7572696000000003,0.0,0.0,0.0,0.0
7.3,67.6131744,-11.5485672,-37.0310664,-4.370527200000001,0.0,0.0,0.0,0.0
7.32,68.3425608,-9.488119200000002,-34.53719280000001,-4.370527200000001,0.0,0.0,0.0,0.0
7.34,69.072252,-8.7834216,-34.157412,-3.8337744,0.0,0.0,0.0,0.0
7.359999999999999,69.84095760000001,-9.3256608,-34.2659208,-5.903976000000001,0.0,0.0,0.0,0.0
7.38,70.60996800000001,-9.6508824,-32.0972688,-6.2874144,0.0,0.0,0.0,0.0
7.4,71.41799280000001,-8.3496912,-32.3139816,-5.060594400000001,0.0,0.0,0.0,0.0
7.42,72.1681056,-11.0605824,-30.362347200000002,-5.6741568000000004,0.0,0.0,0.0,0.0
7.4399999999999995,73.089516,-10.4098344,-29.820108,-4.907280000000001,0.0,0.0,0.0,0.0
7.46,73.91704800000001,-12.2532648,-29.16936,-4.2172128,0.0,0.0,0.0,0.0
7.48,74.7366552,-10.3013256,-30.036820800000005,-3.8337744,0.0,0.0,0.0,0.0
7.5,75.477624,-10.138867200000002,-28.1394408,-2.9135831999999997,0.0,0.0,0.0,0.0
7.52,76.3514856,-8.94588,-30.524805600000004,-2.4536400000000005,0.0,0.0,0.0,0.0
7.54,77.2207752,-8.241182400000001,-28.0851864,-2.223516,0.0,0.0,0.0,0.0
7.5600000000000005,78.1205448,-10.5183432,-28.8441384,-2.7602688,0.0,0.0,0.0,0.0
7.58,78.92674079999999,-8.837676,-28.4646624,-4.907280000000001,0.0,0.0,0.0,0.0
7.6,79.8033456,-5.7470040000000004,-27.4344384,-4.1404032,0.0,0.0,0.0,0.0
7.619999999999999,80.6016168,-11.6028216,-24.9405648,-3.9870888,0.0,0.0,0.0,0.0
7.64,81.5239416,-9.217152,-29.061156,-2.9903928,0.0,0.0,0.0,0.0
7.66,82.4627256,-8.837676,-25.753771200000003,-2.6069544000000002,0.0,0.0,0.0,0.0
7.68,83.4295512,-11.5485672,-25.970484,-3.2970216000000003,0.0,0.0,0.0,0.0
7.699999999999999,84.4439256,-6.4520064,-27.488692800000003,-3.2970216000000003,0.0,0.0,0.0,0.0
7.72,85.45007039999999,-9.813645600000001,-26.1875016,-2.223516,0.0,0.0,0.0,0.0
7.74,86.3958648,-9.2714064,-26.729740800000002,-5.137404,0.0,0.0,0.0,0.0
7.76,87.3050832,-3.578352,-26.6754864,-4.8304704,0.0,0.0,0.0,0.0
7.779999999999999,88.2786144,-8.1326736,-25.265786400000003,-3.910584,0.0,0.0,0.0,0.0
7.8,89.236296,-10.4640888,-25.970484,-4.370527200000001,0.0,0.0,0.0,0.0
7.82,90.2006832,-5.367528,-26.837944800000002,-3.6036504000000003,0.0,0.0,0.0,0.0
7.84,91.123008,-7.048500000000001,-25.3742952,-1.7635728,0.0,0.0,0.0,0.0
7.859999999999999,92.0441136,-11.277295200000001,-24.2898168,-1.6867632000000001,0.0,0.0,0.0,0.0
7.88,92.91675599999999,-9.217152,-25.265786400000003,-2.683764,0.0,0.0,0.0,0.0
7.8999999999999995,93.83268,-4.8252888,-27.705405600000002,-1.2268200000000002,0.0,0.0,0.0,0.0
7.92,94.7751216,-6.5605152,-25.3200408,-0.9201912000000001,0.0,0.0,0.0,0.0
7.9399999999999995,95.803212,-9.108643200000001,-23.964595199999998,-1.1500104,0.0,0.0,0.0,0.0
7.96,96.799908,-9.813645600000001,-24.669292800000004,-2.8370784000000002,0.0,0.0,0.0,0.0
7.9799999999999995,97.773744,-9.4338648,-23.422356,-3.5271456,0.0,0.0,0.0,0.0
8.0,98.7606864,-9.4338648,-22.771608,-3.450336,0.0,0.0,0.0,0.0
8.02,99.7247688,-8.94588,-22.825862400000002,-3.68046,0.0,0.0,0.0,0.0
8.04,100.6166136,-8.837676,-22.825862400000002,-4.1404032,0.0,0.0,0.0,0.0
8.059999999999999,101.5328424,-6.8314824000000005,-23.3138472,-1.6102584000000002,0.0,0.0,0.0,0.0
8.08,102.54599759999999,-7.807452,-23.2053384,-3.3738312000000006,0.0,0.0,0.0,0.0
8.1,103.4439384,-8.5121496,-23.6933232,-3.8337744,0.0,0.0,0.0,0.0
8.120000000000001,104.4034488,-6.4520064,-22.609149600000002,-3.910584,0.0,0.0,0.0,0.0
8.14,105.4153848,-8.295436800000001,-24.45258,-4.2937176,0.0,0.0,0.0,0.0
8.16,106.4928528,-3.6868608000000003,-24.181307999999998,-1.9936968000000002,0.0,0.0,0.0,0.0
8.18,107.5224672,-3.9035736000000005,-23.964595199999998,-0.9201912000000001,0.0,0.0,0.0,0.0
8.2,108.6020688,-8.4582,-23.5308648,-0.8433816000000001,0.0,0.0,0.0,0.0
8.219999999999999,109.63838879999999,-5.367528,-24.344071200000002,-0.8433816000000001,0.0,0.0,0.0,0.0
8.24,110.6737944,-4.0663368,-23.259592800000004,0.3834384,0.0,0.0,0.0,0.0
8.26,111.658908,-5.421782400000001,-22.2293688,-2.0702016,0.0,0.0,0.0,0.0
8.280000000000001,112.5013752,-6.777228,-23.801832,-0.7668768,0.0,0.0,0.0,0.0
8.3,113.48100240000001,-5.096560800000001,-23.2053384,0.15331440000000002,0.0,0.0,0.0,0.0
8.32,114.5435352,-5.3132736,-22.6630992,-1.4569440000000002,0.0,0.0,0.0,0.0
8.34,115.5384024,-7.753197600000001,-21.63318,-2.0702016,0.0,0.0,0.0,0.0
8.36,116.5503384,-4.7170848,-22.5006408,-0.8433816000000001,0.0,0.0,0.0,0.0
8.379999999999999,117.578124,-3.8496240000000004,-23.151084,-2.9903928,0.0,0.0,0.0,0.0
8.399999999999999,118.5675048,-9.379915200000001,-21.4161624,-2.7602688,0.0,0.0,0.0,0.0
8.42,119.63765760000001,-6.2892432000000005,-21.1451952,-5.9807856,0.0,0.0,0.0,0.0
8.44,120.6849504,-8.024164800000001,-21.7956384,-3.2970216000000003,0.0,0.0,0.0,0.0
8.46,121.7968608,-8.837676,-21.849892800000003,-3.7572696000000003,0.0,0.0,0.0,0.0
8.48,122.9240112,-10.681106400000001,-21.3076536,-1.1500104,0.0,0.0,0.0,0.0
8.5,124.0575624,-5.1508152,-22.175419200000004,-1.3801344,0.0,0.0,0.0,0.0
8.52,125.11948559999999,-2.4941784,-22.337877600000002,-1.3036296,0.0,0.0,0.0,0.0
8.54,126.19481999999999,-5.096560800000001,-22.2293688,-1.9168872,0.0,0.0,0.0,0.0
8.559999999999999,127.30825440000001,-4.554321600000001,-22.2293688,-0.8433816000000001,0.0,0.0,0.0,0.0
8.58,128.32445760000002,-3.5240976,-21.63318,-0.996696,0.0,0.0,0.0,0.0
8.6,129.337308,-3.8496240000000004,-22.609149600000002,-0.15331440000000002,0.0,0.0,0.0,0.0
8.620000000000001,130.37880959999998,-4.3376088,-19.6269864,-0.9201912000000001,0.0,0.0,0.0,0.0
8.64,131.49833999999998,-5.096560800000001,-21.5789256,-0.23012400000000002,0.0,0.0,0.0,0.0
8.66,132.67151520000002,-2.6566368,-22.0669104,-0.6900672,0.0,0.0,0.0,0.0
8.68,133.7267328,-3.9035736000000005,-21.0366864,-0.7668768,0.0,0.0,0.0,0.0
8.7,134.72038080000002,-4.608576,-21.958401600000002,-1.1500104,0.0,0.0,0.0,0.0
8.719999999999999,135.747252,-5.367528,-20.765719200000003,0.23012400000000002,0.0,0.0,0.0,0.0
8.74,136.9012248,-4.7170848,-21.4161624,-1.6102584000000002,0.0,0.0,0.0,0.0
8.76,138.0750096,-4.2833544,-20.1149712,-0.7668768,0.0,0.0,0.0,0.0
8.780000000000001,139.1235216,-6.2349888,-21.090940800000002,-1.1500104,0.0,0.0,0.0,0.0
8.8,140.14277280000002,-5.8555128,-20.1692256,-2.8370784000000002,0.0,0.0,0.0,0.0
8.82,141.09009120000002,-7.970215200000001,-19.464223200000003,-3.3738312000000006,0.0,0.0,0.0,0.0
8.84,142.2513792,-5.801258400000001,-19.3560192,-2.3003256,0.0,0.0,0.0,0.0
8.86,143.39651279999998,-3.9035736000000005,-19.3017648,-1.5334488,0.0,0.0,0.0,0.0
8.879999999999999,144.5632872,-4.120591200000001,-20.3859384,-2.0702016,0.0,0.0,0.0,0.0
8.899999999999999,145.7139072,-5.096560800000001,-20.3859384,-0.3834384,0.0,0.0,0.0,0.0
8.92,146.9321928,-4.7713392,-19.844004,-1.4569440000000002,0.0,0.0,0.0,0.0
8.94,148.1218272,-4.1748456,-19.789749600000004,-2.0702016,0.0,0.0,0.0,0.0
8.96,149.4227136,-6.397752,-20.494447200000003,-1.3801344,0.0,0.0,0.0,0.0
8.98,150.6812328,-4.7713392,-19.844004,-0.7668768,0.0,0.0,0.0,0.0
9.0,151.87635360000002,-5.1508152,-21.090940800000002,-0.7668768,0.0,0.0,0.0,0.0
9.02,153.1260336,-5.476036800000001,-19.247510400000003,-0.996696,0.0,0.0,0.0,0.0
9.04,154.263852,-3.7953696000000003,-19.0847472,-0.6135624,0.0,0.0,0.0,0.0
9.059999999999999,155.4821376,-3.578352,-20.602956,-0.9201912000000001,0.0,0.0,0.0,0.0
9.08,156.5562528,-3.9035736000000005,-18.542508,-0.8433816000000001,0.0,0.0,0.0,0.0
9.1,157.64012160000001,-4.933797600000001,-17.729301600000003,-0.9201912000000001,0.0,0.0,0.0,0.0
9.120000000000001,158.7559944,-4.8252888,-21.3076536,-1.7635728,0.0,0.0,0.0,0.0
9.14,159.8526648,-4.608576,-19.247510400000003,-0.5367528,0.0,0.0,0.0,0.0
9.16,160.89447120000003,-4.7170848,-19.464223200000003,-0.4599432,0.0,0.0,0.0,0.0
9.18,161.9399352,-5.964021600000001,-19.6269864,-1.5334488,0.0,0.0,0.0,0.0
9.2,163.0277664,-4.2833544,-18.705271200000002,-2.5304496,0.0,0.0,0.0,0.0
9.219999999999999,164.1009672,-3.578352,-20.0607168,-1.6867632000000001,0.0,0.0,0.0,0.0
9.24,165.20281920000002,-1.6806672000000002,-19.572732000000002,-1.3036296,0.0,0.0,0.0,0.0
9.26,166.341552,-5.7470040000000004,-18.3257952,-1.6102584000000002,0.0,0.0,0.0,0.0
9.280000000000001,167.5997664,-4.445812800000001,-18.217286400000003,-0.0768096,0.0,0.0,0.0,0.0
9.3,168.8214048,-3.957828,-16.753332,-0.9201912000000001,0.0,0.0,0.0,0.0
9.32,170.0726088,-5.205069600000001,-18.434304,-0.6135624,0.0,0.0,0.0,0.0
9.34,171.1851288,-2.6566368,-19.572732000000002,-1.0735056,0.0,0.0,0.0,0.0
9.36,172.50155999999998,-4.933797600000001,-17.837810400000002,0.5367528,0.0,0.0,0.0,0.0
9.379999999999999,173.7353904,-5.6930544,-18.163032,-0.23012400000000002,0.0,0.0,0.0,0.0
9.399999999999999,175.03383839999998,-3.8496240000000004,-18.163032,-0.0768096,0.0,0.0,0.0,0.0
9.42,176.2347504,-2.4399240000000004,-20.3319888,0.30662880000000003,0.0,0.0,0.0,0.0
9.44,177.5359416,-2.4399240000000004,-18.3800496,-0.15331440000000002,0.0,0.0,0.0,0.0
9.46,178.8484104,-3.9035736000000005,-17.6750472,-0.6900672,0.0,0.0,0.0,0.0
9.48,180.1956264,-4.0663368,-17.6210976,-0.5367528,0.0,0.0,0.0,0.0
9.5,181.42000800000002,-1.8434304000000001,-19.193256,-0.8433816000000001,0.0,0.0,0.0,0.0
9.52,182.6876712,-5.1508152,-17.9463192,0.0768096,0.0,0.0,0.0,0.0
9.54,183.87913440000003,-3.5240976,-17.512588800000003,0.5367528,0.0,0.0,0.0,0.0
9.559999999999999,185.0315832,-4.1748456,-17.1870624,-0.3834384,0.0,0.0,0.0,0.0
9.58,186.3251544,-4.988052,-17.2413168,0.6135624,0.0,0.0,0.0,0.0
9.6,187.55105999999998,-5.3132736,-17.024604,-0.15331440000000002,0.0,0.0,0.0,0.0
9.620000000000001,188.83122,-3.7411152,-19.6812408,-0.8433816000000001,0.0,0.0,0.0,0.0
9.64,190.0342656,-4.6628304,-17.1331128,-0.8433816000000001,0.0,0.0,0.0,0.0
9.66,191.37721439999999,-3.3073848000000003,-17.0788584,-1.3801344,0.0,0.0,0.0,0.0
9.68,192.61226399999998,-4.7713392,-18.217286400000003,0.15331440000000002,0.0,0.0,0.0,0.0
9.7,193.78848720000002,-0.7589520000000001,-18.434304,0.4599432,0.0,0.0,0.0,0.0
9.719999999999999,195.0604176,-0.8132064000000001,-15.777667200000002,0.7668768,0.0,0.0,0.0,0.0
9.74,196.2826656,-3.9035736000000005,-18.000573600000003,0.996696,0.0,0.0,0.0,0.0
9.76,197.5356984,-4.933797600000001,-18.163032,-0.15331440000000002,0.0,0.0,0.0,0.0
9.780000000000001,198.77623440000002,-3.3616392,-17.6750472,-1.1500104,0.0,0.0,0.0,0.0
9.8,199.9524576,-3.0361128,-18.217286400000003,-1.2268200000000002,0.0,0.0,0.0,0.0
9.82,201.164952,-3.8496240000000004,-17.2955712,-1.5334488,0.0,0.0,0.0,0.0
9.84,202.3478808,-4.2291,-16.9160952,-1.9168872,0.0,0.0,0.0,0.0
9.86,203.54178240000002,-2.2771608000000003,-18.542508,-0.5367528,0.0,0.0,0.0,0.0
9.879999999999999,204.74574239999998,-3.0361128,-19.0847472,2.3768304000000002,0.0,0.0,0.0,0.0
9.899999999999999,205.81924800000002,-4.5000672,-17.0788584,1.6867632000000001,0.0,0.0,0.0,0.0
9.92,206.82661199999998,-6.2349888,-15.343632000000001,0.7668768,0.0,0.0,0.0,0.0
9.94,207.8976792,3.5240976,-2.0061936,1.6102584000000002,0.0,0.0,0.0,0.0
9.96,209.1059064,5.0423064,7.3194672,5.137404,0.0,0.0,0.0,0.0
9.98,210.127596,5.205069600000001,12.036552,3.5271456,0.0,0.0,0.0,0.0
10.0,211.0182216,5.0423064,10.789310400000002,2.9903928,0.0,0.0,0.0,0.0
10.02,211.83264720000003,3.957828,10.0303584,2.6069544000000002,0.0,0.0,0.0,0.0
10.04,212.5870272,3.0361128,11.6028216,3.0672024,0.0,0.0,0.0,0.0
10.059999999999999,213.3993192,1.2469368,11.2230408,-0.3834384,0.0,0.0,0.0,0.0
10.08,214.1625384,4.5000672,9.379915200000001,0.3834384,0.0,0.0,0.0,0.0
10.1,214.78829280000002,2.7651456,10.5725976,0.15331440000000002,0.0,0.0,0.0,0.0
10.120000000000001,215.4369072,2.3314152,11.657076,4.1404032,0.0,0.0,0.0,0.0
10.14,216.11173440000002,6.1267848,9.1628976,3.1437072,0.0,0.0,0.0,0.0
10.16,216.7121904,2.3856696,9.7593912,4.6006512,0.0,0.0,0.0,0.0
10.18,217.27942320000002,3.7953696000000003,10.4098344,1.6867632000000001,0.0,0.0,0.0,0.0
10.2,217.936572,1.5182088,10.4098344,2.1470112,0.0,0.0,0.0,0.0
10.219999999999999,218.623896,0.8132064000000001,11.006328,0.4599432,0.0,0.0,0.0,0.0
10.24,219.327984,4.933797600000001,11.006328,1.0735056,0.0,0.0,0.0,0.0
10.26,220.11497760000003,2.6566368,10.681106400000001,0.8433816000000001,0.0,0.0,0.0,0.0
10.280000000000001,220.8541176,3.6326064,7.753197600000001,2.3768304000000002,0.0,0.0,0.0,0.0
10.3,221.5990488,5.259324,8.186928,3.5271456,0.0,0.0,0.0,0.0
10.32,222.3930528,3.8496240000000004,9.596628,3.0672024,0.0,0.0,0.0,0.0
10.34,223.1437752,3.6868608000000003,9.5423736,3.9870888,0.0,0.0,0.0,0.0
10.36,223.96216320000002,2.9279088,8.8919304,2.3768304000000002,0.0,0.0,0.0,0.0
10.379999999999999,224.76073920000002,2.4941784,9.5423736,3.0672024,0.0,0.0,0.0,0.0
10.399999999999999,225.5928432,3.7953696000000003,9.4338648,1.1500104,0.0,0.0,0.0,0.0
10.42,226.53924720000003,2.7651456,8.94588,2.1470112,0.0,0.0,0.0,0.0
10.44,227.4990624,4.7170848,8.0784192,1.1500104,0.0,0.0,0.0,0.0
10.46,228.33878640000003,3.3073848000000003,8.729167200000001,1.1500104,0.0,0.0,0.0,0.0
10.48,229.2394704,2.4399240000000004,8.6206584,-0.4599432,0.0,0.0,0.0,0.0
10.5,230.15295600000002,1.2469368,10.0303584,1.6102584000000002,0.0,0.0,0.0,0.0
10.52,231.0630888,0.9217152000000001,10.138867200000002,0.4599432,0.0,0.0,0.0,0.0
10.54,232.0067496,4.120591200000001,8.7834216,1.8400776,0.0,0.0,0.0,0.0
10.559999999999999,233.0555664,3.957828,8.837676,2.3003256,0.0,0.0,0.0,0.0
10.58,233.9352192,1.8434304000000001,8.241182400000001,2.1470112,0.0,0.0,0.0,0.0
10.6,234.8170056,2.9818584,8.5121496,1.3036296,0.0,0.0,0.0,0.0
10.620000000000001,235.59424560000002,2.7651456,9.488119200000002,1.9168872,0.0,0.0,0.0,0.0
10.64,236.529372,4.933797600000001,8.6206584,1.3801344,0.0,0.0,0.0,0.0
10.66,237.387384,2.9279088,8.3496912,1.6102584000000002,0.0,0.0,0.0,0.0
10.68,238.3496376,-0.16276320000000002,10.4640888,0.0768096,0.0,0.0,0.0,0.0
10.7,239.231424,5.096560800000001,6.0725304,1.4569440000000002,0.0,0.0,0.0,0.0
10.719999999999999,240.15283440000002,1.6806672000000002,7.8617064,2.223516,0.0,0.0,0.0,0.0
10.74,241.06632000000002,3.0361128,8.8919304,2.3003256,0.0,0.0,0.0,0.0
10.76,241.8776976,5.259324,8.295436800000001,1.9168872,0.0,0.0,0.0,0.0
10.780000000000001,242.7756384,2.4941784,6.2892432000000005,2.8370784000000002,0.0,0.0,0.0,0.0
10.8,243.6062184,-0.0542544,7.6446888,0.4599432,0.0,0.0,0.0,0.0
10.82,244.37187600000001,0.5964936000000001,9.488119200000002,1.0735056,0.0,0.0,0.0,0.0
10.84,245.2774368,2.3314152,9.7051368,-0.6900672,0.0,0.0,0.0,0.0
10.86,246.34819919999998,1.789176,7.970215200000001,-0.23012400000000002,0.0,0.0,0.0,0.0
10.879999999999999,247.087644,3.4698432,7.2652128,1.6102584000000002,0.0,0.0,0.0,0.0
10.899999999999999,247.8728088,3.5240976,6.777228,3.2205168000000004,0.0,0.0,0.0,0.0
10.92,248.7225912,3.578352,6.614769600000001,2.9135831999999997,0.0,0.0,0.0,0.0
10.94,249.5257392,3.0903671999999998,7.3194672,4.1404032,0.0,0.0,0.0,0.0
10.96,250.3334592,-0.7589520000000001,7.4822304,1.7635728,0.0,0.0,0.0,0.0
10.98,251.1570288,3.3073848000000003,6.885736800000001,1.6867632000000001,0.0,0.0,0.0,0.0
11.0,252.0031536,4.012082400000001,6.1807343999999995,-0.9201912000000001,0.0,0.0,0.0,0.0
11.02,252.7572288,3.957828,6.343497600000001,0.996696,0.0,0.0,0.0,0.0
11.04,253.5856752,4.8795432000000005,7.2652128,1.5334488,0.0,0.0,0.0,0.0
11.059999999999999,254.31262320000002,1.8976848000000002,7.3194672,2.7602688,0.0,0.0,0.0,0.0
11.08,254.9944608,2.0601432,6.614769600000001,3.7572696000000003,0.0,0.0,0.0,0.0
11.1,255.862836,2.3856696,6.614769600000001,3.3738312000000006,0.0,0.0,0.0,0.0
11.120000000000001,256.57850640000004,2.3314152,7.3194672,4.523841600000001,0.0,0.0,0.0,0.0
11.14,257.3786064,2.1143976,6.9942456,1.1500104,0.0,0.0,0.0,0.0
11.16,258.3527472,2.0601432,7.156704,0.23012400000000002,0.0,0.0,0.0,0.0
11.18,259.1199288,-0.16276320000000002,6.777228,0.9201912000000001,0.0,0.0,0.0,0.0
11.2,259.9535568,2.4399240000000004,7.210958400000001,1.5334488,0.0,0.0,0.0,0.0
11.219999999999999,260.8042536,4.7713392,7.3737216000000005,2.683764,0.0,0.0,0.0,0.0
11.24,261.7384656,3.4698432,6.2892432000000005,3.6036504000000003,0.0,0.0,0.0,0.0
11.26,262.5919056,1.7349216,6.1807343999999995,2.6069544000000002,0.0,0.0,0.0,0.0
11.280000000000001,263.5184976,0.5422392,7.3737216000000005,2.3768304000000002,0.0,0.0,0.0,0.0
11.3,264.38443440000003,-0.9217152000000001,7.210958400000001,1.3801344,0.0,0.0,0.0,0.0
11.32,265.299444,2.3856696,7.048500000000001,0.7668768,0.0,0.0,0.0,0.0
11.34,266.1129552,4.1748456,6.5605152,0.0768096,0.0,0.0,0.0,0.0
11.36,266.95450800000003,1.8976848000000002,6.2349888,1.3801344,0.0,0.0,0.0,0.0
11.379999999999999,267.7725912,3.6868608000000003,6.0725304,1.9936968000000002,0.0,0.0,0.0,0.0
11.399999999999999,268.59311280000003,1.789176,7.3194672,2.5304496,0.0,0.0,0.0,0.0
11.42,269.4529536,-1.0844784,6.397752,2.4536400000000005,0.0,0.0,0.0,0.0
11.44,270.3719256,0.2709672,6.2349888,1.8400776,0.0,0.0,0.0,0.0
11.46,271.17842640000003,3.4698432,6.2892432000000005,1.2268200000000002,0.0,0.0,0.0,0.0
11.48,271.99102320000003,4.445812800000001,5.3132736,0.9201912000000001,0.0,0.0,0.0,0.0
11.5,272.7816744,3.1446216000000002,6.7229735999999995,-0.30662880000000003,0.0,0.0,0.0,0.0
11.52,273.6171312,1.7349216,5.5302912,3.9870888,0.0,0.0,0.0,0.0
11.54,274.4531976,0.37947600000000004,5.367528,2.1470112,0.0,0.0,0.0,0.0
11.559999999999999,275.2904832,2.548128,5.801258400000001,4.4473368,0.0,0.0,0.0,0.0
11.58,276.2015304,2.3856696,4.8795432000000005,1.0735056,0.0,0.0,0.0,0.0
11.6,277.0397304,3.2531304000000003,5.7470040000000004,3.450336,0.0,0.0,0.0,0.0
11.620000000000001,277.803864,3.7411152,5.367528,0.0768096,0.0,0.0,0.0,0.0
11.64,278.5448328,-1.6806672000000002,6.885736800000001,0.0,0.0,0.0,0.0,0.0
11.66,279.373584,0.37947600000000004,6.777228,-0.7668768,0.0,0.0,0.0,0.0
11.68,280.07553839999997,1.3011912,7.5904344,2.7602688,0.0,0.0,0.0,0.0
11.7,280.752804,6.0725304,3.9035736000000005,2.0702016,0.0,0.0,0.0,0.0
11.719999999999999,281.53095840000003,3.6326064,4.608576,1.7635728,0.0,0.0,0.0,0.0
11.74,282.186888,2.6566368,5.367528,1.8400776,0.0,0.0,0.0,0.0
11.76,282.9019488,-0.5964936000000001,6.885736800000001,0.0,0.0,0.0,0.0,0.0
11.780000000000001,283.6279824,2.548128,6.668719200000001,2.223516,0.0,0.0,0.0,0.0
11.8,284.34426240000005,0.7589520000000001,5.205069600000001,1.2268200000000002,0.0,0.0,0.0,0.0
11.82,285.0224424,2.7108912000000003,5.205069600000001,-0.3834384,0.0,0.0,0.0,0.0
11.84,285.7734696,2.1686520000000002,6.0725304,0.15331440000000002,0.0,0.0,0.0,0.0
11.86,286.5510144,0.2709672,4.933797600000001,3.450336,0.0,0.0,0.0,0.0
11.879999999999999,287.4007968,0.8132064000000001,5.367528,2.5304496,0.0,0.0,0.0,0.0
11.9,288.12103920000004,1.789176,5.259324,1.3801344,0.0,0.0,0.0,0.0
11.92,288.8053152,0.9759696,5.205069600000001,0.0768096,0.0,0.0,0.0,0.0
11.94,289.5118416,1.1926824,4.6628304,-0.5367528,0.0,0.0,0.0,0.0
11.959999999999999,290.21318640000004,1.789176,4.8252888,1.8400776,0.0,0.0,0.0,0.0
11.98,290.9123976,2.6023824,5.096560800000001,2.683764,0.0,0.0,0.0,0.0
12.0,291.6466608,1.9519392,5.964021600000001,1.3036296,0.0,0.0,0.0,0.0
12.02,292.3096008,0.5422392,5.3132736,0.7668768,0.0,0.0,0.0,0.0
12.04,293.0527032,-0.0542544,4.5000672,-0.7668768,0.0,0.0,0.0,0.0
12.06,293.64736800000003,0.4337304,6.2892432000000005,1.3801344,0.0,0.0,0.0,0.0
12.08,294.4785576,2.2771608000000003,5.096560800000001,3.450336,0.0,0.0,0.0,0.0
12.1,295.15765200000004,2.3856696,5.3132736,2.8370784000000002,0.0,0.0,0.0,0.0
12.12,295.8041328,2.8736544000000004,4.3915584,1.4569440000000002,0.0,0.0,0.0,0.0
12.14,296.43110640000003,3.9035736000000005,4.6628304,-0.4599432,0.0,0.0,0.0,0.0
12.16,297.1062384,0.0542544,5.6930544,-0.8433816000000001,0.0,0.0,0.0,0.0
12.18,297.8118504,-0.2709672,5.1508152,0.6135624,0.0,0.0,0.0,0.0
12.2,298.46747519999997,-0.0542544,4.7170848,1.3801344,0.0,0.0,0.0,0.0
12.22,299.13193920000003,1.1387328,3.957828,2.9903928,0.0,0.0,0.0,0.0
12.24,299.706792,2.1686520000000002,5.205069600000001,2.9135831999999997,0.0,0.0,0.0,0.0
12.26,300.36546480000004,2.0601432,5.5302912,2.1470112,0.0,0.0,0.0,0.0
12.28,300.9601296,3.5240976,3.957828,-0.5367528,0.0,0.0,0.0,0.0
12.3,301.65050160000004,2.6023824,3.578352,-0.8433816000000001,0.0,0.0,0.0,0.0
12.32,302.395128,0.5964936000000001,4.933797600000001,-0.30662880000000003,0.0,0.0,0.0,0.0
12.34,303.03825600000005,-1.5724632,5.9097672,1.9168872,0.0,0.0,0.0,0.0
12.36,303.68290800000005,1.0844784,4.3376088,3.2205168000000004,0.0,0.0,0.0,0.0
12.379999999999999,304.2525792,3.198876,3.8496240000000004,2.4536400000000005,0.0,0.0,0.0,0.0
12.4,304.8728472,0.3252216,5.3132736,1.9936968000000002,0.0,0.0,0.0,0.0
12.42,305.5760208,2.8194000000000004,3.4698432,-0.9201912000000001,0.0,0.0,0.0,0.0
12.44,306.2206728,0.2170176,4.988052,0.0768096,0.0,0.0,0.0,0.0
12.459999999999999,306.8317968,1.4639544,4.608576,0.9201912000000001,0.0,0.0,0.0,0.0
12.48,307.372512,1.6264128000000002,3.6868608000000003,0.9201912000000001,0.0,0.0,0.0,0.0
12.5,307.9351728,2.2229064000000003,4.0663368,1.2268200000000002,0.0,0.0,0.0,0.0
12.52,308.5786056,1.3554456000000001,3.5240976,1.1500104,0.0,0.0,0.0,0.0
12.54,309.2641008,0.7589520000000001,3.2531304000000003,0.9201912000000001,0.0,0.0,0.0,0.0
12.56,309.89778,1.789176,3.6326064,-0.6135624,0.0,0.0,0.0,0.0
12.58,310.5768744,1.030224,4.3915584,1.6102584000000002,0.0,0.0,0.0,0.0
12.6,311.2306704,-0.37947600000000004,4.5000672,2.5304496,0.0,0.0,0.0,0.0
12.62,311.8518528,1.6264128000000002,3.2531304000000003,2.3768304000000002,0.0,0.0,0.0,0.0
12.64,312.4154280000001,1.6806672000000002,4.1748456,2.223516,0.0,0.0,0.0,0.0
12.66,313.0350864,1.1926824,4.120591200000001,0.996696,0.0,0.0,0.0,0.0
12.68,313.64072400000003,1.1926824,4.120591200000001,-0.5367528,0.0,0.0,0.0,0.0
12.7,314.21832000000006,0.0,3.3616392,-0.0768096,0.0,0.0,0.0,0.0
12.72,314.85078000000004,2.6566368,3.0903671999999998,0.5367528,0.0,0.0,0.0,0.0
12.74,315.4039920000001,0.7046976,3.957828,1.3036296,0.0,0.0,0.0,0.0
12.76,316.03980480000007,0.5422392,4.445812800000001,2.223516,0.0,0.0,0.0,0.0
12.78,316.68841920000006,0.5964936000000001,4.2833544,1.1500104,0.0,0.0,0.0,0.0
12.8,317.33307120000006,2.4941784,3.2531304000000003,-0.5367528,0.0,0.0,0.0,0.0
12.82,317.90487600000006,1.1926824,3.6868608000000003,-0.8433816000000001,0.0,0.0,0.0,0.0
12.84,318.51996240000005,2.1686520000000002,3.9035736000000005,0.30662880000000003,0.0,0.0,0.0,0.0
12.86,319.15790880000003,1.030224,2.7651456,0.8433816000000001,0.0,0.0,0.0,0.0
12.879999999999999,319.77634800000004,-1.3554456000000001,3.8496240000000004,1.7635728,0.0,0.0,0.0,0.0
12.9,320.3862528000001,1.1387328,4.0663368,2.1470112,0.0,0.0,0.0,0.0
12.92,320.9303208,-0.4337304,3.578352,2.0702016,0.0,0.0,0.0,0.0
12.94,321.4591488000001,0.16276320000000002,4.3915584,1.3801344,0.0,0.0,0.0,0.0
12.959999999999999,321.96206880000005,1.9519392,3.4698432,-1.3036296,0.0,0.0,0.0,0.0
12.98,322.50888000000003,0.2170176,3.7953696000000003,-0.6135624,0.0,0.0,0.0,0.0
13.0,323.05660560000007,0.8132064000000001,3.3073848000000003,-0.3834384,0.0,0.0,0.0,0.0
13.02,323.71588800000006,1.030224,3.7411152,-0.30662880000000003,0.0,0.0,0.0,0.0
13.04,324.26910000000004,0.4879848,3.5240976,0.9201912000000001,0.0,0.0,0.0,0.0
13.06,324.7845168,1.789176,3.8496240000000004,2.8370784000000002,0.0,0.0,0.0,0.0
13.08,325.2929232000001,0.5422392,3.1446216000000002,1.7635728,0.0,0.0,0.0,0.0
13.1,325.7851752000001,-0.37947600000000004,3.957828,1.4569440000000002,0.0,0.0,0.0,0.0
13.12,326.2216488000001,0.3252216,3.6868608000000003,-0.5367528,0.0,0.0,0.0,0.0
13.14,326.71542480000005,0.3252216,3.578352,-0.9201912000000001,0.0,0.0,0.0,0.0
13.16,327.1848168,0.5964936000000001,3.0903671999999998,-1.7635728,0.0,0.0,0.0,0.0
13.18,327.67158240000003,1.1926824,3.6868608000000003,-0.6900672,0.0,0.0,0.0,0.0
13.2,328.1580432,1.6264128000000002,3.2531304000000003,-0.4599432,0.0,0.0,0.0,0.0
13.22,328.69022400000006,2.9818584,2.6566368,1.8400776,0.0,0.0,0.0,0.0
13.24,329.1221256,2.7651456,2.7651456,2.5304496,0.0,0.0,0.0,0.0
13.26,329.565,2.2229064000000003,3.0903671999999998,1.9168872,0.0,0.0,0.0,0.0
13.28,330.01884720000004,1.030224,2.9818584,2.3003256,0.0,0.0,0.0,0.0
13.3,330.5988816,0.5422392,3.1446216000000002,0.9201912000000001,0.0,0.0,0.0,0.0
13.32,331.07101680000005,1.0844784,3.6868608000000003,0.8433816000000001,0.0,0.0,0.0,0.0
13.34,331.48676400000005,-0.7589520000000001,3.4698432,-0.6135624,0.0,0.0,0.0,0.0
13.36,331.985112,-0.0542544,3.3073848000000003,-0.6900672,0.0,0.0,0.0,0.0
13.379999999999999,332.37921840000007,0.37947600000000004,3.5240976,-0.30662880000000003,0.0,0.0,0.0,0.0
13.4,332.9418792000001,-0.1085088,3.4698432,0.30662880000000003,0.0,0.0,0.0,0.0
13.42,333.36616080000005,-0.2709672,3.6326064,1.3801344,0.0,0.0,0.0,0.0
13.44,333.8114736,0.5422392,3.578352,2.223516,0.0,0.0,0.0,0.0
13.459999999999999,334.1970456,1.5724632,2.7651456,1.9168872,0.0,0.0,0.0,0.0
13.48,334.7063664000001,0.650748,3.3616392,0.4599432,0.0,0.0,0.0,0.0
13.5,335.2025808,0.4879848,3.3073848000000003,-0.4599432,0.0,0.0,0.0,0.0
13.52,335.60674560000007,1.0844784,2.9279088,-0.5367528,0.0,0.0,0.0,0.0
13.54,336.0087768,1.5182088,3.1446216000000002,0.4599432,0.0,0.0,0.0,0.0
13.56,336.5497968000001,0.1085088,3.1446216000000002,0.6135624,0.0,0.0,0.0,0.0
13.58,336.93963600000006,0.37947600000000004,3.0903671999999998,1.4569440000000002,0.0,0.0,0.0,0.0
13.6,337.38799680000005,0.7046976,3.3073848000000003,1.6867632000000001,0.0,0.0,0.0,0.0
13.62,337.80222000000003,-0.2709672,3.3073848000000003,0.0768096,0.0,0.0,0.0,0.0
13.64,338.3408016000001,1.4639544,2.9818584,0.4599432,0.0,0.0,0.0,0.0
13.66,338.74222320000007,-0.0542544,3.8496240000000004,-0.23012400000000002,0.0,0.0,0.0,0.0
13.68,339.1695528000001,-0.37947600000000004,3.198876,0.23012400000000002,0.0,0.0,0.0,0.0
13.7,339.51885360000006,1.2469368,2.8736544000000004,0.8433816000000001,0.0,0.0,0.0,0.0
13.72,339.9352104000001,-0.4879848,3.3073848000000003,1.2268200000000002,0.0,0.0,0.0,0.0
13.74,340.33175520000003,0.2709672,2.7651456,1.2268200000000002,0.0,0.0,0.0,0.0
13.76,340.7575608,0.1085088,2.8194000000000004,0.4599432,0.0,0.0,0.0,0.0
13.78,341.1696504,0.3252216,3.1446216000000002,0.6900672,0.0,0.0,0.0,0.0
13.8,341.6369088,0.8674608,2.6023824,0.996696,0.0,0.0,0.0,0.0
13.82,341.982552,0.0,3.0361128,1.9936968000000002,0.0,0.0,0.0,0.0
13.84,342.284304,0.5422392,2.7108912000000003,1.5334488,0.0,0.0,0.0,0.0
13.86,342.6479304,1.7349216,3.0361128,0.4599432,0.0,0.0,0.0,0.0
13.879999999999999,342.9569976000001,0.650748,3.0361128,-0.15331440000000002,0.0,0.0,0.0,0.0
13.9,343.3629912,1.4097000000000002,2.7108912000000003,-0.6900672,0.0,0.0,0.0,0.0
13.92,343.7010144000001,-0.1085088,3.0361128,0.0768096,0.0,0.0,0.0,0.0
13.94,343.99057440000007,0.2709672,2.4399240000000004,0.23012400000000002,0.0,0.0,0.0,0.0
13.959999999999999,344.33103600000004,-0.4879848,3.198876,0.4599432,0.0,0.0,0.0,0.0
13.98,344.66662080000003,-0.5422392,2.8194000000000004,0.6900672,0.0,0.0,0.0,0.0
14.0,344.89430640000006,0.1085088,2.7108912000000003,0.7668768,0.0,0.0,0.0,0.0
14.02,345.2832312000001,-0.4337304,3.0361128,1.7635728,0.0,0.0,0.0,0.0
14.04,345.60083280000003,-0.4879848,2.9818584,1.5334488,0.0,0.0,0.0,0.0
14.06,345.96933600000006,0.2709672,2.6566368,1.2268200000000002,0.0,0.0,0.0,0.0
14.08,346.27535520000004,1.0844784,2.9279088,-0.15331440000000002,0.0,0.0,0.0,0.0
14.1,346.6219128,0.7046976,2.7651456,-0.15331440000000002,0.0,0.0,0.0,0.0
14.12,346.97791920000003,-0.37947600000000004,2.8736544000000004,-0.6900672,0.0,0.0,0.0,0.0
14.14,347.307408,0.8132064000000001,2.6566368,0.0768096,0.0,0.0,0.0,0.0
14.16,347.54515200000003,1.2469368,2.548128,0.23012400000000002,0.0,0.0,0.0,0.0
14.18,347.78381040000005,-0.1085088,2.6023824,0.6900672,0.0,0.0,0.0,0.0
14.2,348.07672320000006,0.2709672,2.6566368,0.6135624,0.0,0.0,0.0,0.0
14.22,348.37542720000005,-0.2170176,3.0361128,1.8400776,0.0,0.0,0.0,0.0
14.24,348.6832752000001,0.7589520000000001,2.3856696,0.3834384,0.0,0.0,0.0,0.0
14.26,349.0206888000001,1.2469368,2.548128,0.15331440000000002,0.0,0.0,0.0,0.0
14.28,349.3093344,0.9759696,2.8194000000000004,0.6900672,0.0,0.0,0.0,0.0
14.3,349.5153792000001,0.9217152000000001,2.4399240000000004,0.4599432,0.0,0.0,0.0,0.0
14.32,349.7708016000001,1.2469368,2.4399240000000004,0.0,0.0,0.0,0.0,0.0
14.34,350.09145120000005,0.7046976,2.6566368,0.0768096,0.0,0.0,0.0,0.0
14.36,350.38253520000006,0.7589520000000001,2.4941784,0.0,0.0,0.0,0.0,0.0
14.379999999999999,350.73610320000006,0.8132064000000001,2.4399240000000004,0.6135624,0.0,0.0,0.0,0.0
14.4,350.92660320000005,0.3252216,2.3856696,-0.15331440000000002,0.0,0.0,0.0,0.0
14.42,351.20519040000005,-0.37947600000000004,2.8736544000000004,0.9201912000000001,0.0,0.0,0.0,0.0
14.44,351.5355936,-0.16276320000000002,2.6566368,0.996696,0.0,0.0,0.0,0.0
14.459999999999999,351.8205816,-0.2170176,2.2771608000000003,1.0735056,0.0,0.0,0.0,0.0
14.48,352.03912320000006,-0.16276320000000002,2.7651456,0.996696,0.0,0.0,0.0,0.0
14.5,352.3338648,0.4879848,2.548128,0.6135624,0.0,0.0,0.0,0.0
14.52,352.50180960000006,-0.16276320000000002,2.4399240000000004,0.23012400000000002,0.0,0.0,0.0,0.0
14.54,352.78679760000006,0.7046976,2.3314152,0.6900672,0.0,0.0,0.0,0.0
14.56,352.97424960000006,-0.1085088,2.4941784,0.996696,0.0,0.0,0.0,0.0
14.58,353.1403656000001,0.0,2.8194000000000004,0.8433816000000001,0.0,0.0,0.0,0.0
14.6,353.3747568,0.5964936000000001,2.1143976,0.3834384,0.0,0.0,0.0,0.0
14.62,353.47076880000003,-0.4337304,2.6023824,0.8433816000000001,0.0,0.0,0.0,0.0
14.64,353.7383832000001,0.16276320000000002,2.4399240000000004,0.5367528,0.0,0.0,0.0,0.0
14.66,353.90175600000003,0.5964936000000001,2.3314152,0.5367528,0.0,0.0,0.0,0.0
14.68,354.20106960000004,0.2709672,2.6566368,0.6900672,0.0,0.0,0.0,0.0
14.7,354.39400800000004,0.0,2.3856696,0.5367528,0.0,0.0,0.0,0.0
14.72,354.6290088,0.9217152000000001,2.1143976,0.6135624,0.0,0.0,0.0,0.0
