time,baro_altitude,accl_x,accl_y,accl_z,gps_altitude,gyro_roll,gyro_pitch,gyro_yaw
0.0,0.0,-9.2714064,-0.7046976,-1.1500104,0.0,0.0,0.0,0.0
0.019999999999999574,-0.0810768,-9.217152,-0.7589520000000001,-1.1500104,0.0,0.0,0.0,0.0
0.03999999999999915,-0.1905,-9.3256608,-0.7589520000000001,-1.1500104,0.0,0.0,0.0,0.0
0.05999999999999961,-0.20817839999999999,-9.3256608,-0.7589520000000001,-1.1500104,0.0,0.0,0.0,0.0
0.07999999999999918,-0.1822704,-9.2714064,-0.7046976,-1.1500104,0.0,0.0,0.0,0.0
0.09999999999999964,-0.2642616,-9.1628976,-0.7046976,-1.0735056,0.0,0.0,0.0,0.0
0.11999999999999922,-0.08930640000000002,-9.4338648,-0.650748,-1.0735056,0.0,0.0,0.0,0.0
0.13999999999999968,-0.0326136,-9.3256608,-0.650748,-1.1500104,0.0,0.0,0.0,0.0
0.15999999999999925,-0.16367759999999998,-9.217152,-0.650748,-1.3036296,0.0,0.0,0.0,0.0
0.17999999999999972,-0.2746248,-9.3256608,-0.7589520000000001,-1.0735056,0.0,0.0,0.0,0.0
0.1999999999999993,-0.161544,-9.2714064,-0.7046976,-1.1500104,0.0,0.0,0.0,0.0
0.21999999999999975,-0.021945600000000003,-9.2714064,-0.7046976,-1.1500104,0.0,0.0,0.0,0.0
0.23999999999999932,0.0,-9.217152,-0.650748,-1.2268200000000002,0.0,0.0,0.0,0.0
0.2599999999999998,0.017068800000000002,-9.217152,-0.650748,-1.2268200000000002,0.0,0.0,0.0,0.0
0.27999999999999936,0.1274064,-9.3256608,-0.7589520000000001,-1.1500104,0.0,0.0,0.0,0.0
0.2999999999999998,0.0463296,-9.2714064,-0.7046976,-1.3801344,0.0,0.0,0.0,0.0
0.3199999999999994,0.08016240000000001,-9.3256608,-0.7589520000000001,-1.0735056,0.0,0.0,0.0,0.0
0.33999999999999986,0.003352800000000001,-9.217152,-0.7589520000000001,-1.1500104,0.0,0.0,0.0,0.0
0.35999999999999943,-0.019812000000000003,-9.2714064,-0.7046976,-1.2268200000000002,0.0,0.0,0.0,0.0
0.3799999999999999,-0.07559039999999999,-9.2714064,-0.7046976,-1.2268200000000002,0.0,0.0,0.0,0.0
0.39999999999999947,-0.0420624,-9.3256608,-0.650748,-1.0735056,0.0,0.0,0.0,0.0
0.41999999999999993,-0.0252984,-9.2714064,-0.7046976,-1.0735056,0.0,0.0,0.0,0.0
0.4399999999999995,-0.185928,-9.2714064,-0.7046976,-1.0735056,0.0,0.0,0.0,0.0
0.45999999999999996,-0.1255776,-9.2714064,-0.5964936000000001,-1.1500104,0.0,0.0,0.0,0.0
0.47999999999999954,-0.013411199999999998,-9.379915200000001,-0.7046976,-1.1500104,0.0,0.0,0.0,0.0
0.5,-0.012192000000000001,-9.2714064,-0.7046976,-1.0735056,0.0,0.0,0.0,0.0
0.5199999999999996,-0.005791199999999999,-9.3256608,-0.650748,-1.1500104,0.0,0.0,0.0,0.0
0.5399999999999996,0.020726400000000002,-9.3256608,-0.7589520000000001,-1.1500104,0.0,0.0,0.0,0.0
0.5599999999999996,0.060350400000000005,-9.379915200000001,-0.8132064000000001,-1.1500104,0.0,0.0,0.0,0.0
0.5799999999999996,-0.0597408,-9.3256608,-0.7589520000000001,-1.1500104,0.0,0.0,0.0,0.0
0.5999999999999996,0.0384048,-9.217152,-0.7589520000000001,-1.1500104,0.0,0.0,0.0,0.0
0.6199999999999997,0.1292352,-9.3256608,-0.7589520000000001,-1.2268200000000002,0.0,0.0,0.0,0.0
0.6399999999999997,0.0408432,-9.3256608,-0.7589520000000001,-1.0735056,0.0,0.0,0.0,0.0
0.6599999999999997,0.0347472,-9.4338648,-0.7589520000000001,-1.1500104,0.0,0.0,0.0,0.0
0.6799999999999997,0.0469392,-9.2714064,-0.7046976,-1.1500104,0.0,0.0,0.0,0.0
0.6999999999999997,-0.0204216,-9.217152,-0.650748,-1.0735056,0.0,0.0,0.0,0.0
0.7199999999999998,-0.057607200000000004,-9.379915200000001,-0.8132064000000001,-1.2268200000000002,0.0,0.0,0.0,0.0
0.7399999999999998,-0.012192000000000001,-9.3256608,-0.7589520000000001,-1.0735056,0.0,0.0,0.0,0.0
0.7599999999999998,-0.18288000000000001,-9.2714064,-0.8132064000000001,-1.0735056,0.0,0.0,0.0,0.0
0.7799999999999994,-0.23957279999999997,-9.2714064,-0.7046976,-1.1500104,0.0,0.0,0.0,0.0
0.7999999999999994,-0.005791199999999999,-9.2714064,-0.7046976,-0.996696,0.0,0.0,0.0,0.0
0.8199999999999994,-0.018288,-9.3256608,-0.650748,-1.0735056,0.0,0.0,0.0,0.0
0.8399999999999994,-0.23774399999999998,-9.217152,-0.7589520000000001,-1.1500104,0.0,0.0,0.0,0.0
0.8599999999999994,-0.330708,-9.217152,-0.7589520000000001,-1.0735056,0.0,0.0,0.0,0.0
0.8799999999999994,-0.2465832,-9.3256608,-0.650748,-1.0735056,0.0,0.0,0.0,0.0
0.8999999999999995,-0.10728960000000001,-9.2714064,-0.7046976,-1.2268200000000002,0.0,0.0,0.0,0.0
0.9199999999999995,0.021336000000000004,-9.2714064,-0.7046976,-1.1500104,0.0,0.0,0.0,0.0
0.9399999999999995,0.11765279999999999,-9.217152,-0.650748,-1.2268200000000002,0.0,0.0,0.0,0.0
0.9599999999999995,0.050596800000000004,-9.217152,-0.7589520000000001,-1.1500104,0.0,0.0,0.0,0.0
0.9799999999999995,0.023469600000000004,-9.2714064,-0.7046976,-1.1500104,0.0,0.0,0.0,0.0
0.9999999999999996,-0.16398239999999997,-9.3256608,-0.650748,-1.2268200000000002,0.0,0.0,0.0,0.0
1.0199999999999996,0.0448056,-9.2714064,-0.7046976,-1.1500104,0.0,0.0,0.0,0.0
1.0399999999999996,-0.0384048,-9.217152,-0.7589520000000001,-1.1500104,0.0,0.0,0.0,0.0
1.0599999999999996,0.0018288000000000017,-9.2714064,-0.7046976,-1.2268200000000002,0.0,0.0,0.0,0.0
1.0799999999999996,0.060350400000000005,-9.2714064,-0.7046976,-1.1500104,0.0,0.0,0.0,0.0
1.0999999999999996,0.030480000000000004,-9.3256608,-0.650748,-1.2268200000000002,0.0,0.0,0.0,0.0
1.1199999999999997,0.05242560000000001,-9.3256608,-0.7589520000000001,-1.0735056,0.0,0.0,0.0,0.0
1.1399999999999997,0.059740800000000004,-9.2714064,-0.8132064000000001,-1.0735056,0.0,0.0,0.0,0.0
1.1599999999999997,0.0036576000000000013,-9.3256608,-0.7589520000000001,-1.1500104,0.0,0.0,0.0,0.0
1.1799999999999997,-0.1578864,-9.2714064,-0.5964936000000001,-1.1500104,0.0,0.0,0.0,0.0
1.1999999999999997,0.027432,-9.3256608,-0.7589520000000001,-1.1500104,0.0,0.0,0.0,0.0
1.2199999999999998,-0.08473440000000002,-9.2714064,-0.8132064000000001,-1.1500104,0.0,0.0,0.0,0.0
1.2399999999999998,-0.047244,-9.3256608,-0.7589520000000001,-1.1500104,0.0,0.0,0.0,0.0
1.2599999999999998,0.0313944,-9.217152,-0.8674608,-1.2268200000000002,0.0,0.0,0.0,0.0
1.2799999999999994,0.0954024,-9.3256608,-0.7589520000000001,-1.1500104,0.0,0.0,0.0,0.0
1.2999999999999994,0.016154400000000003,-9.3256608,-0.7589520000000001,-1.1500104,0.0,0.0,0.0,0.0
1.3199999999999994,0.056388,-9.3256608,-0.7589520000000001,-1.1500104,0.0,0.0,0.0,0.0
1.3399999999999994,0.025298400000000002,-9.3256608,-0.650748,-1.2268200000000002,0.0,0.0,0.0,0.0
1.3599999999999994,0.1292352,-9.217152,-0.650748,-1.1500104,0.0,0.0,0.0,0.0
1.3799999999999994,0.022250400000000004,-9.3256608,-0.650748,-1.0735056,0.0,0.0,0.0,0.0
1.3999999999999995,-0.005486399999999999,-9.217152,-0.7589520000000001,-1.0735056,0.0,0.0,0.0,0.0
1.4199999999999995,0.010363200000000001,-9.2714064,-0.8132064000000001,-1.2268200000000002,0.0,0.0,0.0,0.0
1.4399999999999995,0.0493776,-9.3256608,-0.7589520000000001,-0.996696,0.0,0.0,0.0,0.0
1.4599999999999995,0.006096000000000002,-9.217152,-0.7589520000000001,-1.0735056,0.0,0.0,0.0,0.0
1.4799999999999995,-0.09174480000000002,-9.3256608,-0.650748,-1.1500104,0.0,0.0,0.0,0.0
1.4999999999999996,-0.03992879999999999,-9.379915200000001,-0.7046976,-1.1500104,0.0,0.0,0.0,0.0
1.5199999999999996,-0.1905,-9.2714064,-0.7046976,-1.0735056,0.0,0.0,0.0,0.0
1.5399999999999996,-0.1725168,-9.217152,-0.650748,-1.1500104,0.0,0.0,0.0,0.0
1.5599999999999996,-0.1319784,-9.2714064,-0.7046976,-1.0735056,0.0,0.0,0.0,0.0
1.5799999999999996,-0.12070080000000001,-9.3256608,-0.7589520000000001,-1.1500104,0.0,0.0,0.0,0.0
1.5999999999999996,-0.0932688,-9.3256608,-0.7589520000000001,-1.1500104,0.0,0.0,0.0,0.0
1.6199999999999997,-0.14752320000000002,-9.3256608,-0.7589520000000001,-1.0735056,0.0,0.0,0.0,0.0
1.6399999999999997,-0.0966216,-9.2714064,-0.7046976,-1.1500104,0.0,0.0,0.0,0.0
1.6599999999999997,-0.1886712,-9.217152,-0.650748,-1.1500104,0.0,0.0,0.0,0.0
1.6799999999999997,-0.0637032,-9.2714064,-0.7046976,-1.0735056,0.0,0.0,0.0,0.0
1.6999999999999997,-0.08199120000000001,-9.3256608,-0.7589520000000001,-1.1500104,0.0,0.0,0.0,0.0
1.7199999999999998,-0.0923544,-9.2714064,-0.7046976,-1.1500104,0.0,0.0,0.0,0.0
1.7399999999999998,0.04907280000000001,-9.2714064,-0.7046976,-1.1500104,0.0,0.0,0.0,0.0
1.7599999999999998,0.1191768,-9.3256608,-0.7589520000000001,-1.2268200000000002,0.0,0.0,0.0,0.0
1.7799999999999994,0.11247120000000001,-9.2714064,-0.7046976,-1.1500104,0.0,0.0,0.0,0.0
1.7999999999999994,0.05273040000000001,-9.379915200000001,-0.7046976,-1.1500104,0.0,0.0,0.0,0.0
1.8199999999999994,-0.0816864,-9.379915200000001,-0.7046976,-1.1500104,0.0,0.0,0.0,0.0
1.8399999999999994,-0.059131199999999995,-9.379915200000001,-0.7046976,-1.0735056,0.0,0.0,0.0,0.0
1.8599999999999994,-0.10515600000000001,-9.1628976,-0.7046976,-1.0735056,0.0,0.0,0.0,0.0
1.8799999999999994,-0.1466088,-9.2714064,-0.7046976,-1.2268200000000002,0.0,0.0,0.0,0.0
1.8999999999999995,-0.225552,-9.217152,-0.7589520000000001,-1.1500104,0.0,0.0,0.0,0.0
1.9199999999999995,-0.1530096,-9.217152,-0.7589520000000001,-1.0735056,0.0,0.0,0.0,0.0
1.9399999999999995,-0.09083040000000002,-9.3256608,-0.650748,-1.1500104,0.0,0.0,0.0,0.0
1.9599999999999995,0.025298400000000002,-9.3256608,-0.7589520000000001,-1.1500104,0.0,0.0,0.0,0.0
1.9799999999999995,-0.14904720000000002,-9.2714064,-0.7046976,-1.2268200000000002,0.0,0.0,0.0,0.0
1.9999999999999996,-0.08717280000000001,-9.217152,-0.7589520000000001,-1.1500104,0.0,0.0,0.0,0.0
2.0199999999999996,-0.019507200000000002,-9.3256608,-0.8674608,-1.1500104,0.0,0.0,0.0,0.0
2.0399999999999996,-0.05852160000000001,-9.379915200000001,-0.8132064000000001,-1.1500104,0.0,0.0,0.0,0.0
2.0599999999999996,-0.0280416,-9.217152,-0.7589520000000001,-1.1500104,0.0,0.0,0.0,0.0
2.0799999999999996,-0.042671999999999995,-9.3256608,-0.650748,-1.2268200000000002,0.0,0.0,0.0,0.0
2.0999999999999996,0.010668000000000002,-9.217152,-0.7589520000000001,-1.0735056,0.0,0.0,0.0,0.0
2.1199999999999997,0.08534399999999999,-9.3256608,-0.8674608,-1.1500104,0.0,0.0,0.0,0.0
2.1399999999999997,0.032004000000000005,-9.2714064,-0.7046976,-1.0735056,0.0,0.0,0.0,0.0
2.1599999999999997,0.1307592,-9.3256608,-0.650748,-1.1500104,0.0,0.0,0.0,0.0
2.1799999999999997,0.15179040000000002,-9.4338648,-0.7589520000000001,-1.2268200000000002,0.0,0.0,0.0,0.0
2.1999999999999997,0.19629120000000003,-9.3256608,-0.7589520000000001,-1.1500104,0.0,0.0,0.0,0.0
2.2199999999999998,0.11521440000000001,-9.2714064,-0.7046976,-1.1500104,0.0,0.0,0.0,0.0
2.2399999999999998,0.06339840000000001,-9.3256608,-0.7589520000000001,-1.1500104,0.0,0.0,0.0,0.0
2.26,-0.0713232,-9.2714064,-0.7046976,-1.1500104,0.0,0.0,0.0,0.0
2.2799999999999994,0.0448056,-9.3256608,-0.7589520000000001,-1.0735056,0.0,0.0,0.0,0.0
2.2999999999999994,0.09144000000000001,-9.3256608,-0.650748,-1.0735056,0.0,0.0,0.0,0.0
2.3199999999999994,0.0874776,-9.3256608,-0.7589520000000001,-1.0735056,0.0,0.0,0.0,0.0
2.3399999999999994,0.0432816,-9.2714064,-0.7046976,-1.0735056,0.0,0.0,0.0,0.0
2.3599999999999994,-0.0435864,-9.2714064,-0.8132064000000001,-1.0735056,0.0,0.0,0.0,0.0
2.3799999999999994,-0.1426464,-9.2714064,-0.8132064000000001,-1.1500104,0.0,0.0,0.0,0.0
2.3999999999999995,-0.12192000000000001,-9.3256608,-0.7589520000000001,-1.2268200000000002,0.0,0.0,0.0,0.0
2.4199999999999995,-0.16123919999999997,-9.379915200000001,-0.7046976,-1.2268200000000002,0.0,0.0,0.0,0.0
2.4399999999999995,-0.11033760000000002,-9.217152,-0.650748,-1.1500104,0.0,0.0,0.0,0.0
2.4599999999999995,-0.0265176,-9.2714064,-0.8132064000000001,-1.1500104,0.0,0.0,0.0,0.0
2.4799999999999995,0.0036576000000000013,-9.2714064,-0.7046976,-1.1500104,0.0,0.0,0.0,0.0
2.4999999999999996,0.07589520000000001,-9.3256608,-0.7589520000000001,-1.1500104,0.0,0.0,0.0,0.0
2.5199999999999996,-0.057912000000000005,-9.2714064,-0.7046976,-1.1500104,0.0,0.0,0.0,0.0
2.5399999999999996,-0.006095999999999999,-9.2714064,-0.7046976,-1.1500104,0.0,0.0,0.0,0.0
2.5599999999999996,-0.014630399999999998,-9.2714064,-0.7046976,-1.2268200000000002,0.0,0.0,0.0,0.0
2.5799999999999996,-0.049377599999999994,-9.2714064,-0.5964936000000001,-1.1500104,0.0,0.0,0.0,0.0
2.5999999999999996,-0.0286512,-9.3256608,-0.7589520000000001,-1.2268200000000002,0.0,0.0,0.0,0.0
2.6199999999999997,-0.2093976,-9.2714064,-0.7046976,-1.2268200000000002,0.0,0.0,0.0,0.0
2.6399999999999997,-0.2221992,-9.379915200000001,-0.7046976,-0.996696,0.0,0.0,0.0,0.0
2.6599999999999993,-0.15453360000000002,-9.2714064,-0.7046976,-1.0735056,0.0,0.0,0.0,0.0
2.6799999999999997,-0.1697736,-9.2714064,-0.8132064000000001,-1.0735056,0.0,0.0,0.0,0.0
2.6999999999999993,-0.065532,-9.3256608,-0.650748,-1.1500104,0.0,0.0,0.0,0.0
2.7199999999999998,0.17343120000000004,-9.379915200000001,-0.7046976,-1.1500104,0.0,0.0,0.0,0.0
2.7399999999999993,0.19537680000000002,-9.379915200000001,-0.7046976,-1.0735056,0.0,0.0,0.0,0.0
2.76,0.29657040000000007,-9.217152,-0.7589520000000001,-1.1500104,0.0,0.0,0.0,0.0
2.7799999999999994,0.17190720000000004,-9.217152,-0.7589520000000001,-1.2268200000000002,0.0,0.0,0.0,0.0
2.8,0.131064,-9.3256608,-0.7589520000000001,-1.1500104,0.0,0.0,0.0,0.0
2.8199999999999994,0.1167384,-9.2714064,-0.8132064000000001,-1.1500104,0.0,0.0,0.0,0.0
2.84,0.22006560000000003,-9.2714064,-0.7046976,-1.1500104,0.0,0.0,0.0,0.0
2.8599999999999994,0.1002792,-9.2714064,-0.7046976,-1.1500104,0.0,0.0,0.0,0.0
2.88,0.0246888,-9.217152,-0.650748,-1.3036296,0.0,0.0,0.0,0.0
2.8999999999999995,-0.1712976,-9.217152,-0.650748,-1.1500104,0.0,0.0,0.0,0.0
2.9199999999999995,-0.111252,-9.3256608,-0.7589520000000001,-1.1500104,0.0,0.0,0.0,0.0
2.9399999999999995,-0.15331440000000002,-9.379915200000001,-0.7046976,-1.2268200000000002,0.0,0.0,0.0,0.0
2.9599999999999995,-0.1825752,-9.379915200000001,-0.7046976,-1.1500104,0.0,0.0,0.0,0.0
2.9799999999999995,-0.10454640000000001,-9.2714064,-0.7046976,-1.2268200000000002,0.0,0.0,0.0,0.0
2.9999999999999996,-0.16520159999999998,-9.3256608,-0.7589520000000001,-1.1500104,0.0,0.0,0.0,0.0
3.0199999999999996,-0.12923520000000002,-9.2714064,-0.7046976,-1.1500104,0.0,0.0,0.0,0.0
3.0399999999999996,-0.149352,-9.2714064,-0.8132064000000001,-1.2268200000000002,0.0,0.0,0.0,0.0
3.0599999999999996,-0.132588,-9.3256608,-0.7589520000000001,-1.1500104,0.0,0.0,0.0,0.0
3.0799999999999996,-0.0466344,-9.3256608,-0.7589520000000001,-1.2268200000000002,0.0,0.0,0.0,0.0
3.0999999999999996,0.034137600000000004,-9.3256608,-0.7589520000000001,-1.1500104,0.0,0.0,0.0,0.0
3.1199999999999997,0.17099280000000003,-9.379915200000001,-0.8132064000000001,-1.1500104,0.0,0.0,0.0,0.0
3.1399999999999997,0.0057912000000000016,-9.3256608,-0.5422392,-1.2268200000000002,0.0,0.0,0.0,0.0
3.1599999999999993,0.05181600000000001,-9.2714064,-0.5964936000000001,-1.1500104,0.0,0.0,0.0,0.0
3.1799999999999997,-0.027432,-9.3256608,-0.650748,-1.1500104,0.0,0.0,0.0,0.0
3.1999999999999993,-0.005486399999999999,-9.2714064,-0.8132064000000001,-1.1500104,0.0,0.0,0.0,0.0
3.2199999999999998,0.039014400000000005,-9.1628976,-0.8132064000000001,-1.1500104,0.0,0.0,0.0,0.0
3.2399999999999993,-0.013106400000000002,-9.108643200000001,-0.7589520000000001,-1.1500104,0.0,0.0,0.0,0.0
3.26,0.09845040000000001,-9.2714064,-0.7046976,-1.0735056,0.0,0.0,0.0,0.0
3.2799999999999994,-0.0286512,-9.379915200000001,-0.8132064000000001,-1.0735056,0.0,0.0,0.0,0.0
3.3,-0.07040880000000001,-9.2714064,-0.7046976,-1.1500104,0.0,0.0,0.0,0.0
3.3199999999999994,-0.0009143999999999987,-9.2714064,-0.7046976,-1.0735056,0.0,0.0,0.0,0.0
3.34,0.004572000000000001,-9.3256608,-0.7589520000000001,-1.1500104,0.0,0.0,0.0,0.0
3.3599999999999994,-0.023164799999999996,-9.3256608,-0.7589520000000001,-1.2268200000000002,0.0,0.0,0.0,0.0
3.38,0.10424159999999999,-9.2714064,-0.7046976,-1.1500104,0.0,0.0,0.0,0.0
3.3999999999999995,0.1499616,-9.2714064,-0.8132064000000001,-1.1500104,0.0,0.0,0.0,0.0
3.4199999999999995,0.17526000000000003,-9.3256608,-0.650748,-1.0735056,0.0,0.0,0.0,0.0
3.4399999999999995,-0.007924800000000001,-9.217152,-0.650748,-1.1500104,0.0,0.0,0.0,0.0
3.4599999999999995,-0.1182624,-9.2714064,-0.5964936000000001,-1.2268200000000002,0.0,0.0,0.0,0.0
3.4799999999999995,-0.12923520000000002,-9.217152,-0.650748,-1.0735056,0.0,0.0,0.0,0.0
3.4999999999999996,-0.2167128,-9.3256608,-0.7589520000000001,-1.0735056,0.0,0.0,0.0,0.0
3.5199999999999996,-0.10942320000000001,-9.217152,-0.7589520000000001,-1.2268200000000002,0.0,0.0,0.0,0.0
3.5399999999999996,-0.112776,-9.3256608,-0.650748,-1.1500104,0.0,0.0,0.0,0.0
3.5599999999999996,-0.029260800000000003,-9.2714064,-0.8132064000000001,-1.2268200000000002,0.0,0.0,0.0,0.0
3.5799999999999996,0.0362712,-9.3256608,-0.7589520000000001,-1.2268200000000002,0.0,0.0,0.0,0.0
3.5999999999999996,-0.0603504,-9.2714064,-0.8132064000000001,-1.1500104,0.0,0.0,0.0,0.0
3.6199999999999997,-0.14478000000000002,-9.3256608,-0.650748,-1.2268200000000002,0.0,0.0,0.0,0.0
3.6399999999999997,-0.1877568,-9.2714064,-0.7046976,-1.2268200000000002,0.0,0.0,0.0,0.0
3.6599999999999997,-0.11704320000000001,-9.2714064,-0.7046976,-1.2268200000000002,0.0,0.0,0.0,0.0
3.6799999999999997,-0.1304544,-9.217152,-0.7589520000000001,-1.0735056,0.0,0.0,0.0,0.0
3.6999999999999997,-0.2615184,-9.3256608,-0.7589520000000001,-1.1500104,0.0,0.0,0.0,0.0
3.7199999999999998,-0.2322576,-9.2714064,-0.7046976,-1.0735056,0.0,0.0,0.0,0.0
3.7399999999999993,-0.2493264,-9.3256608,-0.7589520000000001,-1.1500104,0.0,0.0,0.0,0.0
3.76,-0.22768560000000002,-9.3256608,-0.7589520000000001,-1.1500104,0.0,0.0,0.0,0.0
3.7799999999999994,-0.0737616,-9.3256608,-0.7589520000000001,-1.1500104,0.0,0.0,0.0,0.0
3.8,-0.1712976,-9.379915200000001,-0.7046976,-1.1500104,0.0,0.0,0.0,0.0
3.8199999999999994,0.022860000000000005,-9.3256608,-0.7589520000000001,-1.1500104,0.0,0.0,0.0,0.0
3.8399999999999994,0.11643360000000001,-9.2714064,-0.8132064000000001,-1.1500104,0.0,0.0,0.0,0.0
3.8599999999999994,0.08382,-9.2714064,-0.7046976,-1.0735056,0.0,0.0,0.0,0.0
3.8799999999999994,0.050596800000000004,-9.3256608,-0.650748,-1.2268200000000002,0.0,0.0,0.0,0.0
3.8999999999999995,0.04236720000000001,-9.3256608,-0.650748,-1.1500104,0.0,0.0,0.0,0.0
3.9199999999999995,-0.064008,-9.3256608,-0.7589520000000001,-1.1500104,0.0,0.0,0.0,0.0
3.9399999999999995,0.0957072,-9.2714064,-0.8132064000000001,-1.0735056,0.0,0.0,0.0,0.0
3.9599999999999995,0.1475232,-9.217152,-0.7589520000000001,-1.1500104,0.0,0.0,0.0,0.0
3.9799999999999995,0.0402336,-9.2714064,-0.7046976,-0.996696,0.0,0.0,0.0,0.0
3.9999999999999996,0.060045600000000005,-9.3256608,-0.650748,-1.1500104,0.0,0.0,0.0,0.0
4.02,0.1514856,-9.2714064,-0.7046976,-0.996696,0.0,0.0,0.0,0.0
4.039999999999999,0.09692640000000001,-9.3256608,-0.7589520000000001,-1.1500104,0.0,0.0,0.0,0.0
4.06,0.09875519999999999,-9.2714064,-0.7046976,-1.1500104,0.0,0.0,0.0,0.0
4.079999999999999,0.0204216,-9.2714064,-0.7046976,-1.1500104,0.0,0.0,0.0,0.0
4.1,-0.1877568,-9.2714064,-0.8132064000000001,-1.1500104,0.0,0.0,0.0,0.0
4.119999999999999,-0.2596896,-9.3256608,-0.650748,-1.1500104,0.0,0.0,0.0,0.0
4.14,-0.092964,-9.2714064,-0.7046976,-1.1500104,0.0,0.0,0.0,0.0
4.159999999999999,-0.008839199999999998,-9.3256608,-0.7589520000000001,-1.1500104,0.0,0.0,0.0,0.0
4.18,0.0771144,-9.217152,-0.7589520000000001,-1.1500104,0.0,0.0,0.0,0.0
4.199999999999999,0.1085088,-9.3256608,-0.7589520000000001,-1.1500104,0.0,0.0,0.0,0.0
4.22,0.11978639999999999,-9.217152,-0.7589520000000001,-1.0735056,0.0,0.0,0.0,0.0
4.239999999999999,0.17404080000000002,-9.379915200000001,-0.7046976,-1.1500104,0.0,0.0,0.0,0.0
4.26,0.23195280000000001,-9.379915200000001,-0.8132064000000001,-1.1500104,0.0,0.0,0.0,0.0
4.279999999999999,0.18379440000000002,-9.379915200000001,-0.8132064000000001,-1.1500104,0.0,0.0,0.0,0.0
4.3,0.2657856,-9.379915200000001,-0.8132064000000001,-1.0735056,0.0,0.0,0.0,0.0
4.319999999999999,0.3203448,-9.217152,-0.7589520000000001,-1.1500104,0.0,0.0,0.0,0.0
4.34,0.3584448,-9.3256608,-0.650748,-1.1500104,0.0,0.0,0.0,0.0
4.359999999999999,0.22067520000000004,-9.3256608,-0.7589520000000001,-1.1500104,0.0,0.0,0.0,0.0
4.38,0.16824960000000003,-9.217152,-0.7589520000000001,-1.1500104,0.0,0.0,0.0,0.0
4.3999999999999995,0.20695920000000004,-9.379915200000001,-0.7046976,-1.1500104,0.0,0.0,0.0,0.0
4.42,0.09875519999999999,-9.2714064,-0.8132064000000001,-1.1500104,0.0,0.0,0.0,0.0
4.4399999999999995,0.17708880000000002,-9.3256608,-0.7589520000000001,-1.2268200000000002,0.0,0.0,0.0,0.0
4.46,0.057912000000000005,-9.217152,-0.650748,-1.1500104,0.0,0.0,0.0,0.0
4.4799999999999995,-0.048768000000000006,9.976104,14.855952000000002,-22.6963224,0.0,0.0,0.0,0.0
4.5,-0.013106400000000002,-12.686995200000002,-1.6264128000000002,0.15331440000000002,0.0,0.0,0.0,0.0
4.52,0.043586400000000004,-9.488119200000002,-1.8976848000000002,-1.1500104,0.0,0.0,0.0,0.0
4.539999999999999,0.0676656,-7.753197600000001,-2.6566368,-1.3036296,0.0,0.0,0.0,0.0
4.56,0.05882640000000001,-11.006328,0.16276320000000002,-0.7668768,0.0,0.0,0.0,0.0
4.579999999999999,-0.0478536,-8.295436800000001,1.1387328,-0.15331440000000002,0.0,0.0,0.0,0.0
4.6,0.21031200000000003,-12.524536800000002,0.5964936000000001,-0.23012400000000002,0.0,0.0,0.0,0.0
4.619999999999999,0.1353312,-32.9104752,-20.22348,-12.958267200000002,0.0,0.0,0.0,0.0
4.64,0.19263360000000002,-64.628268,-3.6868608000000003,-9.1244928,0.0,0.0,0.0,0.0
4.659999999999999,0.3005328,-88.9180848,-5.638800000000001,-12.421514400000001,0.0,0.0,0.0,0.0
4.68,0.21092160000000004,-121.069608,-12.958267200000002,-15.488716800000002,0.0,0.0,0.0,0.0
4.699999999999999,0.17708880000000002,-155.5522416,-3.198876,-10.121188800000002,0.0,0.0,0.0,0.0
4.72,0.21854160000000003,-167.371776,31.284062400000003,-9.891369599999999,0.0,0.0,0.0,0.0
4.739999999999999,0.6528816,-216.8188704,5.259324,-28.370174400000003,0.0,0.0,0.0,0.0
4.76,0.9985248,-222.0781944,0.0,-31.2837576,0.0,0.0,0.0,0.0
4.779999999999999,1.5633192,-222.0781944,0.0,-27.910231200000002,0.0,0.0,0.0,0.0
4.8,2.2003512,-165.962076,-4.608576,-21.622816800000003,0.0,0.0,0.0,0.0
4.819999999999999,2.9602176,-113.69588639999999,-6.1267848,-15.718536,0.0,0.0,0.0,0.0
4.84,3.6960048,-98.51471280000001,-6.1267848,-14.185087200000002,0.0,0.0,0.0,0.0
4.859999999999999,4.5591984000000005,-89.2975608,-6.1267848,-12.498324000000002,0.0,0.0,0.0,0.0
4.88,5.416296000000001,-83.821524,-6.1807343999999995,-11.9615712,0.0,0.0,0.0,0.0
4.8999999999999995,6.151473600000001,-81.5443632,-6.2892432000000005,-11.3480088,0.0,0.0,0.0,0.0
4.92,7.297216800000001,-78.7249632,-2.9279088,-9.814560000000002,0.0,0.0,0.0,0.0
4.9399999999999995,8.3051904,-77.8575024,-3.1446216000000002,-9.584436,0.0,0.0,0.0,0.0
4.96,9.350654400000002,-73.4656392,-2.6566368,-9.047683200000002,0.0,0.0,0.0,0.0
4.9799999999999995,10.211409600000001,-72.056244,-3.957828,-8.971178400000001,0.0,0.0,0.0,0.0
5.0,11.0435136,-71.7307176,-4.933797600000001,-9.6612456,0.0,0.0,0.0,0.0
5.02,12.206630400000002,-70.646544,-3.4158936000000004,-9.584436,0.0,0.0,0.0,0.0
5.039999999999999,13.089026400000002,-67.827144,-5.476036800000001,-7.9744824,0.0,0.0,0.0,0.0
5.06,13.904061600000002,-67.2306504,-4.012082400000001,-7.8976728000000005,0.0,0.0,0.0,0.0
5.08,15.014143200000001,-67.0678872,-3.4158936000000004,-8.8943688,0.0,0.0,0.0,0.0
5.1,16.1105088,-64.08602880000001,-3.9035736000000005,-8.2043016,0.0,0.0,0.0,0.0
5.119999999999999,17.0072304,-64.248792,-3.7411152,-6.9774816,0.0,0.0,0.0,0.0
5.14,17.6710848,-61.158120000000004,-4.012082400000001,-7.2076056,0.0,0.0,0.0,0.0
5.159999999999999,18.4955688,-60.832898400000005,-3.9035736000000005,-7.2076056,0.0,0.0,0.0,0.0
5.18,19.491045600000003,-58.7185008,-4.8252888,-7.437729600000001,0.0,0.0,0.0,0.0
5.199999999999999,20.494752,-58.0134984,-4.3376088,-8.741054400000001,0.0,0.0,0.0,0.0
5.22,21.457615200000003,-59.260740000000006,-4.5000672,-7.744358400000001,0.0,0.0,0.0,0.0
5.239999999999999,22.667976000000003,-58.5014832,-5.259324,-7.6675488,0.0,0.0,0.0,0.0
5.26,23.852733600000004,-58.5014832,-4.0663368,-8.2811112,0.0,0.0,0.0,0.0
5.279999999999999,25.0304808,-58.772755200000006,-3.3616392,-8.8943688,0.0,0.0,0.0,0.0
5.3,26.1908544,-61.320883200000004,-2.1143976,-8.1277968,0.0,0.0,0.0,0.0
5.319999999999999,27.6371304,-60.344913600000005,-1.6806672000000002,-7.2076056,0.0,0.0,0.0,0.0
5.34,29.0111688,-66.3631896,-2.8194000000000004,-8.58774,0.0,0.0,0.0,0.0
5.359999999999999,30.184648800000005,-62.02558080000001,-3.3616392,-8.357616,0.0,0.0,0.0,0.0
5.38,31.3572144,-56.06186400000001,-3.7953696000000003,-7.8208632,0.0,0.0,0.0,0.0
5.3999999999999995,32.585558400000004,-58.6642464,-1.5182088,-8.5109304,0.0,0.0,0.0,0.0
5.42,33.865718400000006,-54.380892,-2.4399240000000004,-10.121188800000002,0.0,0.0,0.0,0.0
5.4399999999999995,35.2644456,-55.953355200000004,-2.0601432,-4.7539656,0.0,0.0,0.0,0.0
5.459999999999999,36.7366296,-57.579768,-3.1446216000000002,-6.2874144,0.0,0.0,0.0,0.0
5.4799999999999995,38.2411224,-54.4351464,-5.8555128,-7.437729600000001,0.0,0.0,0.0,0.0
5.5,39.6752064,-50.423064000000004,-1.7349216,-9.4311216,0.0,0.0,0.0,0.0
5.52,41.072104800000005,-49.121872800000006,-2.1686520000000002,-6.1341,0.0,0.0,0.0,0.0
5.539999999999999,42.57659760000001,-50.31455520000001,-5.5302912,-7.8976728000000005,0.0,0.0,0.0,0.0
5.56,44.0658504,-48.7423968,-11.2230408,-6.2874144,0.0,0.0,0.0,0.0
5.58,45.5435208,-47.983140000000006,-4.5000672,-7.2076056,0.0,0.0,0.0,0.0
5.6,46.960536,-44.838518400000005,-1.8976848000000002,-7.437729600000001,0.0,0.0,0.0,0.0
5.619999999999999,48.6329736,-49.121872800000006,2.7108912000000003,-5.2139088000000005,0.0,0.0,0.0,0.0
5.64,50.1581928,-49.2300768,-3.3616392,-5.367223200000001,0.0,0.0,0.0,0.0
5.659999999999999,51.6504936,-47.3326968,-5.367528,-7.0542912,0.0,0.0,0.0,0.0
5.68,53.08122480000001,-46.6819488,-4.608576,-7.744358400000001,0.0,0.0,0.0,0.0
5.699999999999999,54.732326400000005,-47.8206816,-6.0725304,-11.194694400000001,0.0,0.0,0.0,0.0
5.72,56.32185840000001,-53.13395520000001,-1.9519392,-5.5205376,0.0,0.0,0.0,0.0
5.739999999999999,57.94918560000001,-48.5796336,2.0601432,-4.907280000000001,0.0,0.0,0.0,0.0
5.76,59.5341456,-45.814488000000004,-4.8252888,-8.4344256,0.0,0.0,0.0,0.0
5.779999999999999,60.9694488,-45.9229968,-5.476036800000001,-10.9645704,0.0,0.0,0.0,0.0
5.8,62.52850080000001,-47.603664,-3.1446216000000002,-12.114885600000001,0.0,0.0,0.0,0.0
5.819999999999999,64.0360416,-44.29627920000001,-0.0542544,-6.1341,0.0,0.0,0.0,0.0
5.84,65.96420640000001,-43.916803200000004,4.120591200000001,-10.5814368,0.0,0.0,0.0,0.0
5.859999999999999,67.93687200000001,-42.5071032,4.7713392,-10.5814368,0.0,0.0,0.0,0.0
5.88,69.6663072,-48.5253792,-4.608576,-3.910584,0.0,0.0,0.0,0.0
5.8999999999999995,71.4259176,-45.0012816,0.650748,-3.9870888,0.0,0.0,0.0,0.0
5.92,73.1257872,-45.5435208,5.638800000000001,-4.1404032,0.0,0.0,0.0,0.0
5.9399999999999995,75.0079272,-43.5915816,-2.9279088,-6.9774816,0.0,0.0,0.0,0.0
5.959999999999999,76.7492496,-38.549275200000004,-8.94588,0.9201912000000001,0.0,0.0,0.0,0.0
5.9799999999999995,78.50794559999999,-38.765988,-8.295436800000001,-9.1244928,0.0,0.0,0.0,0.0
6.0,80.12704319999999,-36.976812,-7.5904344,-6.6708528000000005,0.0,0.0,0.0,0.0
6.02,81.719928,-38.8744968,-0.7046976,-7.744358400000001,0.0,0.0,0.0,0.0
6.039999999999999,83.1851016,-40.2299424,0.9759696,-6.2109096,0.0,0.0,0.0,0.0
6.06,84.9946992,-41.043148800000004,2.3314152,-4.907280000000001,0.0,0.0,0.0,0.0
6.08,86.7640632,-39.525244799999996,-6.668719200000001,-7.437729600000001,0.0,0.0,0.0,0.0
6.1,88.60353119999999,-39.633448800000004,-5.6930544,-9.4311216,0.0,0.0,0.0,0.0
6.119999999999999,90.45702,-39.9589752,4.0663368,-7.591044000000001,0.0,0.0,0.0,0.0
6.14,92.3443416,-37.9527816,-4.445812800000001,-15.795345600000001,0.0,0.0,0.0,0.0
6.159999999999999,94.337124,-37.5190512,4.2291,-9.6612456,0.0,0.0,0.0,0.0
6.18,96.57313679999999,-42.7241208,6.397752,-8.1277968,0.0,0.0,0.0,0.0
6.199999999999999,98.5650048,-38.386512,-2.3856696,-10.1979984,0.0,0.0,0.0,0.0
6.22,100.4943888,-40.175688,-3.3073848000000003,-8.1277968,0.0,0.0,0.0,0.0
6.239999999999999,102.4667496,-40.7721816,-1.5182088,-9.1244928,0.0,0.0,0.0,0.0
6.26,104.4058872,-40.2299424,0.4337304,-5.2139088000000005,0.0,0.0,0.0,0.0
6.279999999999999,106.151172,-35.0791272,8.4039456,-8.8943688,0.0,0.0,0.0,0.0
6.3,108.0848232,-31.3922664,0.9217152000000001,-14.798649600000001,0.0,0.0,0.0,0.0
6.319999999999999,109.958124,-33.615477600000006,4.445812800000001,-14.338401600000001,0.0,0.0,0.0,0.0
6.34,111.9783384,-33.2899512,-2.4941784,-10.5046272,0.0,0.0,0.0,0.0
6.359999999999999,114.0991368,-25.265786400000003,-0.7589520000000001,-15.718536,0.0,0.0,0.0,0.0
6.38,116.2409664,-28.898392800000003,4.5000672,-13.8016488,0.0,0.0,0.0,0.0
6.3999999999999995,118.21027919999999,-32.043014400000004,-2.3314152,-9.737750400000001,0.0,0.0,0.0,0.0
6.42,120.0278016,-27.542947200000004,-0.8674608,-12.7281432,0.0,0.0,0.0,0.0
6.4399999999999995,121.9014072,-29.874362400000003,8.94588,-7.8208632,0.0,0.0,0.0,0.0
6.459999999999999,123.8070168,-31.825996800000002,-7.3194672,-9.2778072,0.0,0.0,0.0,0.0
6.4799999999999995,125.82814559999998,-32.3139816,-0.2170176,-11.7314472,0.0,0.0,0.0,0.0
6.5,127.9065768,-35.1333816,4.554321600000001,-12.804952800000002,0.0,0.0,0.0,0.0
6.52,129.855468,-32.4224904,0.9759696,-9.3546168,0.0,0.0,0.0,0.0
6.539999999999999,131.9607216,-28.735629600000003,7.4822304,-18.4791096,0.0,0.0,0.0,0.0
6.56,134.0415912,-30.091075200000002,2.4399240000000004,-15.488716800000002,0.0,0.0,0.0,0.0
6.58,136.04869920000002,-34.3201752,-5.1508152,-2.7602688,0.0,0.0,0.0,0.0
6.6,138.2895888,-27.1634712,0.37947600000000004,-12.958267200000002,0.0,0.0,0.0,0.0
6.619999999999999,140.599668,-20.9281776,0.4337304,-9.2778072,0.0,0.0,0.0,0.0
6.64,142.57538160000001,7.6989432,0.650748,0.996696,0.0,0.0,0.0,0.0
6.66,144.41424,24.018849600000003,-4.7170848,8.58774,0.0,0.0,0.0,0.0
6.68,145.7742576,28.735629600000003,-3.6868608000000003,2.4536400000000005,0.0,0.0,0.0,0.0
6.699999999999999,147.2385168,32.4224904,1.1926824,-2.3003256,0.0,0.0,0.0,0.0
6.72,148.75306799999998,27.054962400000004,1.4639544,3.2205168000000004,0.0,0.0,0.0,0.0
6.74,150.2551224,29.548835999999998,3.5240976,2.0702016,0.0,0.0,0.0,0.0
6.76,151.7876568,30.579060000000002,2.3856696,-1.6102584000000002,0.0,0.0,0.0,0.0
6.779999999999999,153.34305120000002,29.223614400000002,-1.1387328,1.9168872,0.0,0.0,0.0,0.0
6.799999999999999,154.97677919999998,28.5731712,3.957828,0.15331440000000002,0.0,0.0,0.0,0.0
6.819999999999999,156.7415712,27.271675200000004,3.7411152,1.1500104,0.0,0.0,0.0,0.0
6.84,158.49081840000002,26.133247200000003,0.2170176,3.2970216000000003,0.0,0.0,0.0,0.0
6.859999999999999,160.28487120000003,26.8921992,-0.3252216,-0.996696,0.0,0.0,0.0,0.0
6.879999999999999,162.07526640000003,24.723547200000002,1.8434304000000001,-0.0768096,0.0,0.0,0.0,0.0
6.8999999999999995,163.8287808,23.801832,0.2709672,0.9201912000000001,0.0,0.0,0.0,0.0
6.92,165.53108880000002,27.271675200000004,1.5724632,0.996696,0.0,0.0,0.0,0.0
6.9399999999999995,167.25503760000004,25.645262400000004,2.8736544000000004,1.6102584000000002,0.0,0.0,0.0,0.0
6.959999999999999,168.9165024,25.1030232,6.1267848,-0.6135624,0.0,0.0,0.0,0.0
6.9799999999999995,170.59869360000002,25.3200408,-0.5964936000000001,0.7668768,0.0,0.0,0.0,0.0
7.0,172.39366080000002,23.964595199999998,3.1446216000000002,-0.9201912000000001,0.0,0.0,0.0,0.0
7.02,174.18070320000004,24.9405648,4.8795432000000005,0.0768096,0.0,0.0,0.0,0.0
7.039999999999999,176.00066400000003,21.958401600000002,1.5724632,0.9201912000000001,0.0,0.0,0.0,0.0
7.06,177.89133840000002,24.181307999999998,0.5422392,-3.1437072,0.0,0.0,0.0,0.0
7.08,179.685696,21.253704000000003,1.5182088,-1.8400776,0.0,0.0,0.0,0.0
7.1,181.36514400000004,24.344071200000002,1.4639544,-0.4599432,0.0,0.0,0.0,0.0
7.119999999999999,183.14730960000003,20.3859384,2.3856696,2.8370784000000002,0.0,0.0,0.0,0.0
7.14,185.02609680000003,21.958401600000002,0.7046976,0.0,0.0,0.0,0.0,0.0
7.16,186.72931920000002,23.259592800000004,1.6806672000000002,-1.2268200000000002,0.0,0.0,0.0,0.0
7.18,188.3395776,20.602956,2.0601432,1.4569440000000002,0.0,0.0,0.0,0.0
7.199999999999999,189.90624960000002,24.344071200000002,2.2229064000000003,2.223516,0.0,0.0,0.0,0.0
7.22,191.51894640000003,20.277734400000003,4.8795432000000005,3.0672024,0.0,0.0,0.0,0.0
7.24,193.1566368,21.361908,2.4941784,1.5334488,0.0,0.0,0.0,0.0
7.26,194.7242232,20.494447200000003,0.2170176,0.8433816000000001,0.0,0.0,0.0,0.0
7.279999999999999,196.33295760000001,19.6812408,1.1387328,0.8433816000000001,0.0,0.0,0.0,0.0
7.299999999999999,197.8094088,19.0847472,2.7108912000000003,2.1470112,0.0,0.0,0.0,0.0
7.319999999999999,199.40016000000003,19.247510400000003,1.5724632,2.3003256,0.0,0.0,0.0,0.0
7.34,201.0024936,19.898258400000003,0.5964936000000001,2.1470112,0.0,0.0,0.0,0.0
7.359999999999999,202.5085104,20.8739232,2.3314152,0.0,0.0,0.0,0.0,0.0
7.379999999999999,204.02031840000004,18.163032,2.0061936,0.30662880000000003,0.0,0.0,0.0,0.0
7.3999999999999995,205.46933760000005,18.217286400000003,-0.7589520000000001,0.7668768,0.0,0.0,0.0,0.0
7.42,206.83545120000002,18.81378,1.3554456000000001,0.7668768,0.0,0.0,0.0,0.0
7.4399999999999995,208.38474960000002,18.054828,0.37947600000000004,1.9168872,0.0,0.0,0.0,0.0
7.459999999999999,209.85236160000002,18.8680344,1.9519392,0.30662880000000003,0.0,0.0,0.0,0.0
7.4799999999999995,211.262976,17.40408,1.2469368,0.23012400000000002,0.0,0.0,0.0,0.0
7.5,212.6946216,16.645128,-0.16276320000000002,0.6900672,0.0,0.0,0.0,0.0
7.52,214.146384,16.2653472,0.3252216,0.7668768,0.0,0.0,0.0,0.0
7.539999999999999,215.55120720000002,17.1331128,0.9759696,1.3801344,0.0,0.0,0.0,0.0
7.56,216.89080320000002,15.614904,2.7108912000000003,1.7635728,0.0,0.0,0.0,0.0
7.58,218.3264112,15.994380000000001,0.5964936000000001,0.0768096,0.0,0.0,0.0,0.0
7.6,219.75287520000003,15.7234128,1.9519392,-0.0768096,0.0,0.0,0.0,0.0
7.619999999999999,221.13880080000004,16.482364800000003,1.5182088,0.3834384,0.0,0.0,0.0,0.0
7.64,222.50796240000003,15.0726648,0.3252216,0.9201912000000001,0.0,0.0,0.0,0.0
7.66,224.00818800000002,14.421916800000002,0.650748,0.4599432,0.0,0.0,0.0,0.0
7.68,225.35845200000003,15.181173600000001,0.2170176,0.4599432,0.0,0.0,0.0,0.0
7.699999999999999,226.72121280000002,16.1571432,-0.4337304,0.8433816000000001,0.0,0.0,0.0,0.0
7.72,228.0220992,14.1509496,-2.0061936,0.7668768,0.0,0.0,0.0,0.0
7.74,229.3022592,14.8016976,-0.4879848,0.30662880000000003,0.0,0.0,0.0,0.0
7.76,230.66837280000004,14.205204,1.4097000000000002,0.9201912000000001,0.0,0.0,0.0,0.0
7.779999999999999,231.98602320000003,14.0424408,2.2229064000000003,-0.4599432,0.0,0.0,0.0,0.0
7.799999999999999,233.211624,13.5005064,1.2469368,-0.3834384,0.0,0.0,0.0,0.0
7.819999999999999,234.54299040000004,13.608710400000001,0.0542544,0.6135624,0.0,0.0,0.0,0.0
7.84,235.8460104,12.958267200000002,-0.4879848,1.3801344,0.0,0.0,0.0,0.0
7.859999999999999,237.14110560000003,13.5005064,-0.37947600000000004,0.6135624,0.0,0.0,0.0,0.0
7.879999999999999,238.43254320000003,13.174980000000001,1.2469368,-0.15331440000000002,0.0,0.0,0.0,0.0
7.8999999999999995,239.65296240000004,13.554456,-0.2170176,0.8433816000000001,0.0,0.0,0.0,0.0
7.92,240.9416568,13.608710400000001,1.3554456000000001,0.0768096,0.0,0.0,0.0,0.0
7.9399999999999995,242.18615520000003,13.012521600000001,0.8674608,-0.996696,0.0,0.0,0.0,0.0
7.959999999999999,243.40962240000005,12.795504,-0.4337304,0.3834384,0.0,0.0,0.0,0.0
7.9799999999999995,244.6681416,12.3075192,0.2709672,1.2268200000000002,0.0,0.0,0.0,0.0
8.0,245.8739304,11.385804,1.5182088,0.4599432,0.0,0.0,0.0,0.0
8.02,247.0903872,11.385804,0.5422392,-0.996696,0.0,0.0,0.0,0.0
8.04,248.2071744,11.277295200000001,-1.0844784,0.5367528,0.0,0.0,0.0,0.0
8.059999999999999,249.32243760000003,12.199010400000002,0.9217152000000001,-0.6900672,0.0,0.0,0.0,0.0
8.08,250.51115760000002,11.440058400000002,0.7046976,-0.5367528,0.0,0.0,0.0,0.0
8.1,251.7721152,11.8195344,0.4337304,-0.6900672,0.0,0.0,0.0,0.0
8.12,252.891036,11.006328,-0.16276320000000002,0.15331440000000002,0.0,0.0,0.0,0.0
8.14,254.0581152,10.789310400000002,0.2709672,0.0768096,0.0,0.0,0.0,0.0
8.16,255.1764264,10.843564800000001,0.5422392,-0.23012400000000002,0.0,0.0,0.0,0.0
8.18,256.29778560000005,10.681106400000001,-1.6806672000000002,0.6135624,0.0,0.0,0.0,0.0
8.2,257.4185352,11.006328,-0.0542544,-0.0768096,0.0,0.0,0.0,0.0
8.219999999999999,258.6276768,10.4640888,0.9217152000000001,0.30662880000000003,0.0,0.0,0.0,0.0
8.24,259.799328,10.193121600000001,0.1085088,0.0,0.0,0.0,0.0,0.0
8.26,261.0526656,9.867595200000002,1.1926824,-0.3834384,0.0,0.0,0.0,0.0
8.28,262.2276696,10.0303584,0.37947600000000004,-0.30662880000000003,0.0,0.0,0.0,0.0
8.299999999999999,263.41760880000004,10.0846128,-0.4337304,0.0,0.0,0.0,0.0,0.0
8.32,264.6087672,9.596628,0.2709672,-0.15331440000000002,0.0,0.0,0.0,0.0
8.34,265.76304480000005,9.217152,0.3252216,-0.6900672,0.0,0.0,0.0,0.0
8.36,266.96791920000004,9.813645600000001,0.37947600000000004,-1.1500104,0.0,0.0,0.0,0.0
8.379999999999999,268.0313664,9.0543888,0.16276320000000002,-0.15331440000000002,0.0,0.0,0.0,0.0
8.399999999999999,269.1624792,9.2714064,0.2709672,0.3834384,0.0,0.0,0.0,0.0
8.42,270.19758,8.6749128,0.2170176,-0.996696,0.0,0.0,0.0,0.0
8.44,271.1872656,8.8919304,0.0,-0.996696,0.0,0.0,0.0,0.0
8.459999999999999,272.130012,8.4039456,-0.0542544,0.0768096,0.0,0.0,0.0,0.0
8.48,273.1638936,9.488119200000002,1.030224,0.6135624,0.0,0.0,0.0,0.0
8.5,274.24166640000004,8.3496912,-0.7589520000000001,0.7668768,0.0,0.0,0.0,0.0
8.52,275.22830400000004,8.8919304,-0.4337304,0.15331440000000002,0.0,0.0,0.0,0.0
8.54,276.3109536,8.4039456,0.37947600000000004,-0.6900672,0.0,0.0,0.0,0.0
8.559999999999999,277.389336,8.241182400000001,0.9759696,-0.0768096,0.0,0.0,0.0,0.0
8.579999999999998,278.392128,7.915960800000001,0.5422392,0.30662880000000003,0.0,0.0,0.0,0.0
8.6,279.40985520000004,7.8617064,0.4879848,0.3834384,0.0,0.0,0.0,0.0
8.62,280.4291064,7.753197600000001,-0.37947600000000004,0.5367528,0.0,0.0,0.0,0.0
8.64,281.3858736,7.5364848,1.3554456000000001,-0.0768096,0.0,0.0,0.0,0.0
8.66,282.3679392,7.8617064,-0.2709672,-1.1500104,0.0,0.0,0.0,0.0
8.68,283.31830560000003,7.8617064,-0.16276320000000002,-0.8433816000000001,0.0,0.0,0.0,0.0
8.7,284.2872648,7.048500000000001,-1.1926824,0.6135624,0.0,0.0,0.0,0.0
8.719999999999999,285.28761840000004,7.2652128,0.3252216,0.3834384,0.0,0.0,0.0,0.0
8.739999999999998,286.1953128,7.048500000000001,0.650748,0.15331440000000002,0.0,0.0,0.0,0.0
8.76,287.12281920000004,6.506260800000001,0.1085088,-0.8433816000000001,0.0,0.0,0.0,0.0
8.78,288.14359440000004,6.8314824000000005,-1.1926824,-0.8433816000000001,0.0,0.0,0.0,0.0
8.8,289.04001120000004,6.2349888,-0.4879848,-0.23012400000000002,0.0,0.0,0.0,0.0
8.82,289.99220640000004,7.156704,-0.1085088,0.4599432,0.0,0.0,0.0,0.0
8.84,290.9227608,6.777228,1.030224,0.23012400000000002,0.0,0.0,0.0,0.0
8.86,291.7780296,6.7229735999999995,0.9759696,-0.0768096,0.0,0.0,0.0,0.0
8.879999999999999,292.6058664,7.1024496,0.0542544,-0.23012400000000002,0.0,0.0,0.0,0.0
8.899999999999999,293.4693648,6.7229735999999995,0.1085088,0.30662880000000003,0.0,0.0,0.0,0.0
8.92,294.41241600000006,6.2349888,0.8132064000000001,-0.15331440000000002,0.0,0.0,0.0,0.0
8.94,295.2716472,6.5605152,-0.37947600000000004,-0.30662880000000003,0.0,0.0,0.0,0.0
8.96,296.2817544,6.668719200000001,0.0542544,-0.5367528,0.0,0.0,0.0,0.0
8.98,297.24797040000004,6.1807343999999995,-0.1085088,-0.30662880000000003,0.0,0.0,0.0,0.0
9.0,298.14042480000006,6.018276,-0.8132064000000001,0.30662880000000003,0.0,0.0,0.0,0.0
9.02,299.0252592,6.343497600000001,-0.4879848,0.23012400000000002,0.0,0.0,0.0,0.0
9.04,299.91801840000005,6.397752,-0.2170176,0.0768096,0.0,0.0,0.0,0.0
9.059999999999999,300.81992160000004,6.1267848,0.5964936000000001,-0.23012400000000002,0.0,0.0,0.0,0.0
9.079999999999998,301.74224640000006,6.1267848,0.16276320000000002,0.15331440000000002,0.0,0.0,0.0,0.0
9.1,302.5618536,6.018276,0.2709672,0.15331440000000002,0.0,0.0,0.0,0.0
9.12,303.38024160000003,5.6930544,-0.7046976,0.3834384,0.0,0.0,0.0,0.0
9.14,304.1745504,5.964021600000001,0.4337304,-0.23012400000000002,0.0,0.0,0.0,0.0
9.16,305.0490216,5.801258400000001,-0.0542544,-0.6900672,0.0,0.0,0.0,0.0
9.18,305.869848,5.9097672,-0.0542544,-0.8433816000000001,0.0,0.0,0.0,0.0
9.2,306.73761360000003,5.5302912,0.7589520000000001,-0.3834384,0.0,0.0,0.0,0.0
9.219999999999999,307.5748992,5.6930544,-0.5964936000000001,-0.30662880000000003,0.0,0.0,0.0,0.0
9.239999999999998,308.4015168,5.205069600000001,0.1085088,0.23012400000000002,0.0,0.0,0.0,0.0
9.26,309.2077128,5.5302912,-0.4337304,-0.0768096,0.0,0.0,0.0,0.0
9.28,310.0529232,5.259324,-0.4879848,0.15331440000000002,0.0,0.0,0.0,0.0
9.3,310.94354880000003,5.5302912,-0.1085088,0.30662880000000003,0.0,0.0,0.0,0.0
9.32,311.76833760000005,4.933797600000001,-0.7046976,0.15331440000000002,0.0,0.0,0.0,0.0
9.34,312.52881360000003,4.988052,-0.4337304,-0.23012400000000002,0.0,0.0,0.0,0.0
9.36,313.2417408,4.988052,0.1085088,-0.30662880000000003,0.0,0.0,0.0,0.0
9.379999999999999,313.977528,4.7170848,-0.7046976,-0.23012400000000002,0.0,0.0,0.0,0.0
9.399999999999999,314.74592879999994,4.608576,-0.5964936000000001,0.0768096,0.0,0.0,0.0,0.0
9.42,315.5054904,4.988052,0.3252216,0.0768096,0.0,0.0,0.0,0.0
9.44,316.3071144,4.554321600000001,0.3252216,-0.15331440000000002,0.0,0.0,0.0,0.0
9.46,317.0639328,4.7713392,-0.8674608,0.15331440000000002,0.0,0.0,0.0,0.0
9.48,317.8158744,4.7170848,-0.4879848,-0.0768096,0.0,0.0,0.0,0.0
9.5,318.5199624,4.5000672,-0.9217152000000001,0.30662880000000003,0.0,0.0,0.0,0.0
9.52,319.185036,4.6628304,-0.5422392,-0.15331440000000002,0.0,0.0,0.0,0.0
9.54,319.75531679999995,4.1748456,-0.7046976,-0.15331440000000002,0.0,0.0,0.0,0.0
9.559999999999999,320.439288,4.1748456,-0.37947600000000004,-0.4599432,0.0,0.0,0.0,0.0
9.579999999999998,321.218052,4.445812800000001,0.1085088,-0.3834384,0.0,0.0,0.0,0.0
9.6,321.986148,4.554321600000001,0.2170176,0.23012400000000002,0.0,0.0,0.0,0.0
9.62,322.7335176,4.0663368,-0.37947600000000004,0.30662880000000003,0.0,0.0,0.0,0.0
9.64,323.50984320000003,4.1748456,-0.0542544,0.23012400000000002,0.0,0.0,0.0,0.0
9.66,324.2407536,3.957828,-0.0542544,-0.30662880000000003,0.0,0.0,0.0,0.0
9.68,324.861936,4.120591200000001,0.0,-0.0768096,0.0,0.0,0.0,0.0
9.7,325.500492,3.5240976,-0.16276320000000002,-0.15331440000000002,0.0,0.0,0.0,0.0
9.719999999999999,326.1018624,3.578352,0.1085088,-0.3834384,0.0,0.0,0.0,0.0
9.739999999999998,326.6764104,3.9035736000000005,-0.8674608,-0.30662880000000003,0.0,0.0,0.0,0.0
9.76,327.4170744,3.7411152,0.16276320000000002,0.0768096,0.0,0.0,0.0,0.0
9.78,328.0769664,3.7411152,0.37947600000000004,0.15331440000000002,0.0,0.0,0.0,0.0
9.8,328.84049039999996,4.0663368,-0.16276320000000002,-0.0768096,0.0,0.0,0.0,0.0
9.82,329.44277519999997,3.4158936000000004,-0.2709672,0.0,0.0,0.0,0.0,0.0
9.84,330.125832,3.3616392,0.2170176,0.0,0.0,0.0,0.0,0.0
9.86,330.78663839999996,3.3073848000000003,-0.0542544,-0.30662880000000003,0.0,0.0,0.0,0.0
9.879999999999999,331.37855999999994,3.4698432,-0.1085088,-0.7668768,0.0,0.0,0.0,0.0
9.899999999999999,332.06618879999996,3.3073848000000003,-0.5964936000000001,-0.23012400000000002,0.0,0.0,0.0,0.0
9.92,332.61330480000004,3.198876,-0.2709672,-0.5367528,0.0,0.0,0.0,0.0
9.94,333.1957776,3.2531304000000003,0.1085088,-0.30662880000000003,0.0,0.0,0.0,0.0
9.96,333.8776152,3.4698432,0.2170176,-0.0768096,0.0,0.0,0.0,0.0
9.98,334.5777408,3.1446216000000002,-0.2170176,-0.23012400000000002,0.0,0.0,0.0,0.0
10.0,335.05688640000005,3.4698432,0.0,0.23012400000000002,0.0,0.0,0.0,0.0
10.02,335.604612,3.0361128,0.3252216,0.0,0.0,0.0,0.0,0.0
10.04,336.1648344,3.0361128,-0.2170176,-0.30662880000000003,0.0,0.0,0.0,0.0
10.059999999999999,336.8469768,3.0361128,-0.4337304,0.0,0.0,0.0,0.0,0.0
10.079999999999998,337.39500719999995,2.9279088,-0.650748,-0.23012400000000002,0.0,0.0,0.0,0.0
10.1,337.9128624,3.0361128,-0.2170176,-0.23012400000000002,0.0,0.0,0.0,0.0
10.12,338.5099656,3.0361128,0.0,0.0768096,0.0,0.0,0.0,0.0
10.14,338.9628984,2.8736544000000004,-0.16276320000000002,0.0,0.0,0.0,0.0,0.0
10.16,339.4737432,2.9279088,-0.2170176,-0.0768096,0.0,0.0,0.0,0.0
10.18,340.0357944,2.7651456,-0.0542544,0.23012400000000002,0.0,0.0,0.0,0.0
10.2,340.6286304,2.7108912000000003,-0.3252216,0.0,0.0,0.0,0.0,0.0
10.219999999999999,341.1431328,2.6566368,-0.0542544,-0.15331440000000002,0.0,0.0,0.0,0.0
10.239999999999998,341.7673632,2.6566368,-0.0542544,-0.30662880000000003,0.0,0.0,0.0,0.0
10.26,342.3669048,2.8194000000000004,-0.2170176,-0.23012400000000002,0.0,0.0,0.0,0.0
10.28,342.92316480000005,2.2771608000000003,-0.3252216,0.15331440000000002,0.0,0.0,0.0,0.0
10.3,343.4772912,2.6023824,-0.3252216,-0.30662880000000003,0.0,0.0,0.0,0.0
10.32,344.029284,2.6023824,-0.5422392,-0.15331440000000002,0.0,0.0,0.0,0.0
10.34,344.5806672,2.548128,-0.4879848,-0.0768096,0.0,0.0,0.0,0.0
10.36,345.1226016,2.4399240000000004,-0.4879848,0.0,0.0,0.0,0.0,0.0
10.379999999999999,345.70172160000004,2.4399240000000004,-0.16276320000000002,0.0768096,0.0,0.0,0.0,0.0
10.399999999999999,346.20311760000004,2.4399240000000004,-0.16276320000000002,-0.15331440000000002,0.0,0.0,0.0,0.0
10.42,346.758768,2.4941784,-0.4337304,-0.3834384,0.0,0.0,0.0,0.0
10.44,347.2211496,2.1686520000000002,-0.2170176,0.0768096,0.0,0.0,0.0,0.0
10.46,347.67133920000003,2.1143976,-0.2709672,-0.3834384,0.0,0.0,0.0,0.0
10.48,348.2068728,2.3314152,-0.16276320000000002,-0.23012400000000002,0.0,0.0,0.0,0.0
10.5,348.8585352,2.4941784,-0.3252216,-0.23012400000000002,0.0,0.0,0.0,0.0
10.52,349.35535919999995,2.3314152,-0.4879848,-0.4599432,0.0,0.0,0.0,0.0
10.54,349.922592,2.1686520000000002,-0.2170176,0.0,0.0,0.0,0.0,0.0
10.559999999999999,350.4389232,2.2229064000000003,-0.16276320000000002,-0.30662880000000003,0.0,0.0,0.0,0.0
10.579999999999998,350.9183736,2.4399240000000004,-0.37947600000000004,-0.30662880000000003,0.0,0.0,0.0,0.0
10.6,351.3630768,2.1686520000000002,-0.5422392,-0.15331440000000002,0.0,0.0,0.0,0.0
10.62,351.9004392,2.2229064000000003,-0.0542544,0.0,0.0,0.0,0.0,0.0
10.64,352.396044,1.8976848000000002,-0.5964936000000001,0.0,0.0,0.0,0.0,0.0
10.66,352.8331272,2.2229064000000003,-0.2709672,0.0,0.0,0.0,0.0,0.0
10.68,353.2223568,2.1686520000000002,-0.5422392,-0.23012400000000002,0.0,0.0,0.0,0.0
10.7,353.7338112,2.0061936,-0.4879848,0.0,0.0,0.0,0.0,0.0
10.719999999999999,354.25837199999995,2.1143976,-0.37947600000000004,-0.0768096,0.0,0.0,0.0,0.0
10.739999999999998,354.70124639999995,1.9519392,-0.5422392,-0.0768096,0.0,0.0,0.0,0.0
10.76,355.16759039999994,2.2771608000000003,-0.5422392,-0.15331440000000002,0.0,0.0,0.0,0.0
10.78,355.54767599999997,2.0601432,-0.4337304,-0.3834384,0.0,0.0,0.0,0.0
10.8,355.97592,2.1143976,-0.16276320000000002,-0.30662880000000003,0.0,0.0,0.0,0.0
10.82,356.3038848,2.2771608000000003,-0.3252216,-0.4599432,0.0,0.0,0.0,0.0
10.84,356.72359439999997,2.1143976,-0.37947600000000004,-0.23012400000000002,0.0,0.0,0.0,0.0
10.86,357.1170912,2.0601432,-0.3252216,-0.6135624,0.0,0.0,0.0,0.0
10.879999999999999,357.4889472,2.3314152,-0.2709672,-0.15331440000000002,0.0,0.0,0.0,0.0
10.899999999999999,357.8327616,1.8976848000000002,-0.4879848,-0.0768096,0.0,0.0,0.0,0.0
10.92,358.2795984,1.6806672000000002,-0.4879848,0.23012400000000002,0.0,0.0,0.0,0.0
10.94,358.67797199999995,2.0061936,-0.37947600000000004,-0.0768096,0.0,0.0,0.0,0.0
10.96,358.9638744,1.7349216,-0.3252216,-0.15331440000000002,0.0,0.0,0.0,0.0
10.98,359.3192712,1.789176,-0.8132064000000001,-0.15331440000000002,0.0,0.0,0.0,0.0
11.0,359.58322799999996,1.7349216,-0.4337304,-0.23012400000000002,0.0,0.0,0.0,0.0
11.02,359.98007759999996,1.6806672000000002,-0.2709672,-0.30662880000000003,0.0,0.0,0.0,0.0
11.04,360.3537624,1.8434304000000001,-0.8674608,-0.30662880000000003,0.0,0.0,0.0,0.0
11.059999999999999,360.7378104,1.789176,-0.5964936000000001,-0.3834384,0.0,0.0,0.0,0.0
11.079999999999998,361.1014368,1.7349216,-0.650748,-0.30662880000000003,0.0,0.0,0.0,0.0
11.1,361.4586624,1.6264128000000002,-0.5422392,-0.3834384,0.0,0.0,0.0,0.0
11.12,361.84667279999996,1.6806672000000002,-0.7046976,-0.23012400000000002,0.0,0.0,0.0,0.0
11.14,362.16335999999995,1.5724632,-0.7046976,-0.30662880000000003,0.0,0.0,0.0,0.0
11.16,362.42183040000003,1.6264128000000002,-0.7589520000000001,-0.30662880000000003,0.0,0.0,0.0,0.0
11.18,362.76107279999997,1.7349216,-0.7589520000000001,-0.30662880000000003,0.0,0.0,0.0,0.0
11.2,363.0994008,1.5182088,-0.7589520000000001,-0.4599432,0.0,0.0,0.0,0.0
11.219999999999999,363.4639416,1.3554456000000001,-0.5964936000000001,-0.23012400000000002,0.0,0.0,0.0,0.0
11.239999999999998,363.8574384,1.3554456000000001,-0.7046976,-0.4599432,0.0,0.0,0.0,0.0
11.26,364.2759288,1.2469368,-0.4879848,-0.30662880000000003,0.0,0.0,0.0,0.0
11.28,364.699296,1.5182088,-0.5422392,-0.3834384,0.0,0.0,0.0,0.0
11.3,364.98855119999996,1.5182088,-0.2170176,-0.23012400000000002,0.0,0.0,0.0,0.0
11.32,365.3293176,1.3554456000000001,-0.4879848,-0.30662880000000003,0.0,0.0,0.0,0.0
11.34,365.7426264,1.3554456000000001,-0.37947600000000004,-0.3834384,0.0,0.0,0.0,0.0
11.36,366.12088320000004,1.2469368,-0.5964936000000001,-0.30662880000000003,0.0,0.0,0.0,0.0
11.379999999999999,366.4095288,1.3011912,-0.4337304,-0.15331440000000002,0.0,0.0,0.0,0.0
11.399999999999999,366.64422479999996,1.3011912,-0.4337304,-0.0768096,0.0,0.0,0.0,0.0
11.42,366.90513359999994,1.3011912,-0.650748,-0.3834384,0.0,0.0,0.0,0.0
11.44,367.26327360000005,1.1926824,-0.650748,-0.30662880000000003,0.0,0.0,0.0,0.0
11.46,367.4659656,1.1926824,-0.4337304,-0.4599432,0.0,0.0,0.0,0.0
11.48,367.28643839999995,-0.1085088,-0.4337304,-0.4599432,0.0,0.0,0.0,0.0
11.5,367.49796960000003,-151.9196352,-70.1585592,-24.3830856,0.0,0.0,0.0,0.0
11.52,367.69974719999993,14.421916800000002,13.229234400000001,-17.17548,0.0,0.0,0.0,0.0
11.54,367.8914664,-0.0542544,-222.02394,-157.03296000000003,0.0,0.0,0.0,0.0
11.559999999999999,368.0731272,27.8139144,44.7300096,68.2419768,0.0,0.0,0.0,0.0
11.579999999999998,368.4672336,78.18272400000001,0.0,0.6129528000000001,0.0,0.0,0.0,0.0
11.6,368.8177536,-118.5211752,-64.7367768,40.331745600000005,0.0,0.0,0.0,0.0
11.62,369.00977759999995,-177.89011920000002,-44.187770400000005,-25.303276800000003,0.0,0.0,0.0,0.0
11.64,369.16461599999997,-94.61083440000002,-29.115105600000003,-15.948660000000002,0.0,0.0,0.0,0.0
11.66,369.2859264,-5.096560800000001,7.4822304,-14.8751544,0.0,0.0,0.0,0.0
11.68,369.3959592,0.9217152000000001,-2.4399240000000004,1.1500104,0.0,0.0,0.0,0.0
11.7,369.5072112,4.988052,-2.0601432,-3.0672024,0.0,0.0,0.0,0.0
11.719999999999999,369.6077952,0.3252216,-0.4337304,-6.747662400000001,0.0,0.0,0.0,0.0
11.739999999999998,369.70167360000005,0.4337304,1.9519392,-1.6867632000000001,0.0,0.0,0.0,0.0
11.76,369.792504,101.8220976,-120.1478928,-157.03296000000003,0.0,0.0,0.0,0.0
11.78,369.886992,1.4097000000000002,-2.6023824,25.2264672,0.0,0.0,0.0,0.0
11.8,369.96227759999994,-18.9222888,-29.6573448,25.2264672,0.0,0.0,0.0,0.0
11.82,370.0521936,-48.7423968,78.9959304,-14.5685256,0.0,0.0,0.0,0.0
11.84,370.11955439999997,-7.210958400000001,-71.08027440000001,-32.6641968,0.0,0.0,0.0,0.0
11.86,370.1890488,-23.964595199999998,6.2892432000000005,5.367223200000001,0.0,0.0,0.0,0.0
11.879999999999999,370.2426936,-6.614769600000001,-23.6390688,19.935748800000002,0.0,0.0,0.0,0.0
11.899999999999999,370.30152,-22.825862400000002,-14.367967200000002,13.264896000000002,0.0,0.0,0.0,0.0
11.92,370.35425039999996,-56.98357920000001,-10.138867200000002,-35.4244656,0.0,0.0,0.0,0.0
11.94,370.411248,-17.8920648,-23.2053384,-4.2937176,0.0,0.0,0.0,0.0
11.96,370.4618448,1.2469368,-0.37947600000000004,-1.9168872,0.0,0.0,0.0,0.0
11.98,370.524024,3.578352,-0.7589520000000001,-7.130796,0.0,0.0,0.0,0.0
12.0,370.5987,81.9238392,17.9463192,61.417809600000005,0.0,0.0,0.0,0.0
12.02,370.6496016,-26.241756000000002,52.3750032,-45.0089016,0.0,0.0,0.0,0.0
12.04,370.702332,-34.157412,10.3013256,-56.203596000000005,0.0,0.0,0.0,0.0
12.059999999999999,370.75628159999997,25.3742952,-32.747712,18.4023,0.0,0.0,0.0,0.0
12.079999999999998,370.8016968,-19.464223200000003,6.9942456,59.5774272,0.0,0.0,0.0,0.0
12.1,370.84254,-6.614769600000001,37.9527816,-7.2841104,0.0,0.0,0.0,0.0
12.12,370.8876504,5.0423064,33.777936,-8.6645496,0.0,0.0,0.0,0.0
12.14,370.9193496,-7.2652128,28.735629600000003,-18.3254904,0.0,0.0,0.0,0.0
12.16,370.9525728,-2.7651456,19.6812408,-11.8847616,0.0,0.0,0.0,0.0
12.18,370.9891488,1.0844784,17.2413168,-9.737750400000001,0.0,0.0,0.0,0.0
12.2,371.03395439999997,-7.5904344,9.217152,-21.239378400000003,0.0,0.0,0.0,0.0
12.219999999999999,371.0626056,-0.8132064000000001,3.3073848000000003,-14.491716000000002,0.0,0.0,0.0,0.0
12.239999999999998,371.09643839999995,2.3314152,0.7046976,-4.7539656,0.0,0.0,0.0,0.0
12.26,371.1302712,2.2229064000000003,-1.4639544,-3.7572696000000003,0.0,0.0,0.0,0.0
12.28,371.1537408,1.3554456000000001,-4.1748456,-4.0638984,0.0,0.0,0.0,0.0
12.3,371.168676,1.5724632,-6.343497600000001,-3.910584,0.0,0.0,0.0,0.0
12.32,371.1741624,-3.1446216000000002,-6.7229735999999995,-1.3801344,0.0,0.0,0.0,0.0
12.34,371.1860496,-13.1207256,5.5302912,2.8370784000000002,0.0,0.0,0.0,0.0
12.36,371.2003752,-18.5967624,-2.0061936,-9.2013024,0.0,0.0,0.0,0.0
12.379999999999999,371.2122624,-6.7229735999999995,-10.735360799999999,-0.30662880000000003,0.0,0.0,0.0,0.0
12.399999999999999,371.2381704,-11.873788800000002,-1.030224,-2.4536400000000005,0.0,0.0,0.0,0.0
12.42,371.237256,-4.445812800000001,2.7108912000000003,-7.591044000000001,0.0,0.0,0.0,0.0
12.44,371.24914320000005,-4.3376088,2.2771608000000003,-7.8208632,0.0,0.0,0.0,0.0
12.46,371.25158159999995,-6.506260800000001,13.229234400000001,-16.6387272,0.0,0.0,0.0,0.0
12.48,371.2588968,-9.217152,12.4702824,-13.49502,0.0,0.0,0.0,0.0
12.5,371.2643832,-12.199010400000002,13.608710400000001,-5.367223200000001,0.0,0.0,0.0,0.0
12.52,371.279928,-22.609149600000002,-15.1269192,-45.545654400000004,0.0,0.0,0.0,0.0
12.54,371.23481760000004,-47.224188000000005,1.3554456000000001,-22.0059504,0.0,0.0,0.0,0.0
12.559999999999999,371.1988512,-16.753332,29.548835999999998,-26.683411200000002,0.0,0.0,0.0,0.0
12.58,371.29821599999997,-9.596628,29.548835999999998,-5.6741568000000004,0.0,0.0,0.0,0.0
12.6,371.3826456,-8.0784192,28.4646624,-15.871850400000001,0.0,0.0,0.0,0.0
12.62,371.3585664,27.651456,8.241182400000001,-16.7920416,0.0,0.0,0.0,0.0
12.639999999999999,371.2671264,10.4640888,21.849892800000003,-5.367223200000001,0.0,0.0,0.0,0.0
12.66,371.21256719999997,0.0,22.5548952,-2.7602688,0.0,0.0,0.0,0.0
12.68,371.0717496,0.16276320000000002,19.1390016,-6.5175384,0.0,0.0,0.0,0.0
12.7,371.0699208,8.1326736,13.988186400000002,-4.370527200000001,0.0,0.0,0.0,0.0
12.719999999999999,371.0370024,7.6989432,8.6749128,-4.4473368,0.0,0.0,0.0,0.0
12.74,371.0699208,-4.2833544,4.608576,7.8976728000000005,0.0,0.0,0.0,0.0
12.76,371.05254719999994,-18.705271200000002,4.7170848,-13.0350768,0.0,0.0,0.0,0.0
12.78,370.93519919999994,-13.3377432,-7.807452,-17.0986704,0.0,0.0,0.0,0.0
12.799999999999999,370.8376632,-8.6749128,-1.1926824,11.7314472,0.0,0.0,0.0,0.0
12.82,370.7837136,-17.40408,0.8132064000000001,-6.747662400000001,0.0,0.0,0.0,0.0
12.84,370.75292879999995,-11.7110256,-5.096560800000001,-8.5109304,0.0,0.0,0.0,0.0
12.86,370.72945919999995,-5.3132736,-1.1926824,3.1437072,0.0,0.0,0.0,0.0
12.879999999999999,370.6099776,-0.5964936000000001,1.030224,-0.0768096,0.0,0.0,0.0,0.0
12.9,370.5474936,-34.80816,15.7234128,-52.906574400000004,0.0,0.0,0.0,0.0
12.92,370.5606,3.0361128,2.4941784,-9.3546168,0.0,0.0,0.0,0.0
12.94,370.51823279999996,8.94588,5.801258400000001,1.8400776,0.0,0.0,0.0,0.0
12.959999999999999,370.4865336,5.367528,6.1267848,-1.6102584000000002,0.0,0.0,0.0,0.0
12.98,370.41917279999996,-3.578352,7.2652128,-4.2937176,0.0,0.0,0.0,0.0
13.0,370.44782399999997,0.37947600000000004,2.1143976,-4.677156,0.0,0.0,0.0,0.0
13.02,370.3393152,3.578352,0.1085088,-1.4569440000000002,0.0,0.0,0.0,0.0
13.04,370.3435824,3.4158936000000004,0.8132064000000001,-2.4536400000000005,0.0,0.0,0.0,0.0
13.059999999999999,370.26189600000004,-8.186928,11.873788800000002,-14.338401600000001,0.0,0.0,0.0,0.0
13.08,370.1058384,3.198876,7.970215200000001,-2.9135831999999997,0.0,0.0,0.0,0.0
13.1,370.0512792,-6.885736800000001,15.018410400000002,-18.785738400000003,0.0,0.0,0.0,0.0
13.12,369.9415512,8.295436800000001,-9.2714064,5.5205376,0.0,0.0,0.0,0.0
13.139999999999999,369.86718,2.4941784,-1.6264128000000002,-1.6102584000000002,0.0,0.0,0.0,0.0
13.16,369.8464536,0.9759696,-0.9759696,-3.3738312000000006,0.0,0.0,0.0,0.0
13.18,369.74343120000003,-0.5964936000000001,2.1143976,-1.7635728,0.0,0.0,0.0,0.0
13.2,369.63979919999997,-4.933797600000001,1.3554456000000001,-3.2205168000000004,0.0,0.0,0.0,0.0
13.219999999999999,369.502944,-7.156704,4.988052,3.3738312000000006,0.0,0.0,0.0,0.0
13.24,369.4880088,-1.4097000000000002,5.964021600000001,3.5271456,0.0,0.0,0.0,0.0
13.26,369.4849608,-11.2230408,-3.6326064,-9.814560000000002,0.0,0.0,0.0,0.0
13.28,369.4477752,-18.976543200000002,-1.3011912,-3.0672024,0.0,0.0,0.0,0.0
13.299999999999999,369.3767568,-3.7953696000000003,-23.2053384,-0.996696,0.0,0.0,0.0,0.0
13.32,369.3118344,-5.096560800000001,2.2771608000000003,-11.654637600000001,0.0,0.0,0.0,0.0
13.34,369.2786112,-11.1148368,3.5240976,-10.274503200000002,0.0,0.0,0.0,0.0
13.36,369.210336,-10.5183432,6.506260800000001,0.6135624,0.0,0.0,0.0,0.0
13.379999999999999,369.0210552,-6.9942456,3.198876,-1.9168872,0.0,0.0,0.0,0.0
13.4,368.9881368,-5.5845456,1.030224,2.9135831999999997,0.0,0.0,0.0,0.0
13.42,368.8265928,-2.8736544000000004,0.5964936000000001,0.4599432,0.0,0.0,0.0,0.0
13.44,368.78209200000003,-10.952073600000002,-0.3252216,-1.9168872,0.0,0.0,0.0,0.0
13.459999999999999,368.68608,-8.5121496,-5.9097672,-5.4440328000000004,0.0,0.0,0.0,0.0
13.48,368.6507232,-6.9942456,-9.2714064,-3.450336,0.0,0.0,0.0,0.0
13.5,368.67785039999995,-12.144756000000001,-3.0361128,3.68046,0.0,0.0,0.0,0.0
13.52,368.5559304,-9.813645600000001,1.8976848000000002,4.8304704,0.0,0.0,0.0,0.0
13.54,368.4477264,-10.5725976,2.3314152,3.6036504000000003,0.0,0.0,0.0,0.0
13.559999999999999,368.3892048,-8.8919304,-3.3616392,-0.5367528,0.0,0.0,0.0,0.0
13.58,368.3501904,-10.4098344,-8.4582,-3.5271456,0.0,0.0,0.0,0.0
13.6,368.0472192,-11.7110256,-7.156704,-0.9201912000000001,0.0,0.0,0.0,0.0
13.62,367.82349600000003,-12.6327408,-8.0784192,-6.364224,0.0,0.0,0.0,0.0
13.639999999999999,367.63330080000003,-11.7110256,-7.156704,-6.9774816,0.0,0.0,0.0,0.0
13.66,367.43883839999995,-13.229234400000001,-4.3376088,-0.6135624,0.0,0.0,0.0,0.0
13.68,367.346484,-10.5725976,-3.957828,-3.2970216000000003,0.0,0.0,0.0,0.0
13.7,367.23584159999996,-7.6446888,-4.608576,-2.3003256,0.0,0.0,0.0,0.0
13.719999999999999,367.143792,-7.6446888,-4.5000672,0.30662880000000003,0.0,0.0,0.0,0.0
13.74,367.13952479999995,-9.596628,-2.3314152,3.3738312000000006,0.0,0.0,0.0,0.0
13.76,367.24498559999995,-9.217152,-4.988052,-3.2970216000000003,0.0,0.0,0.0,0.0
13.78,367.2553488,-7.6989432,-3.6868608000000003,0.30662880000000003,0.0,0.0,0.0,0.0
13.799999999999999,367.20414239999997,-12.686995200000002,-2.8194000000000004,1.0735056,0.0,0.0,0.0,0.0
13.82,367.0566192,-10.626852000000001,-3.6868608000000003,1.5334488,0.0,0.0,0.0,0.0
13.84,367.0453416,-11.873788800000002,-6.4520064,-2.0702016,0.0,0.0,0.0,0.0
13.86,366.94353839999997,-12.524536800000002,-4.2833544,-2.5304496,0.0,0.0,0.0,0.0
13.879999999999999,366.8310672,-11.7110256,-1.9519392,-1.0735056,0.0,0.0,0.0,0.0
13.9,366.74358959999995,-9.7593912,-3.3616392,-2.4536400000000005,0.0,0.0,0.0,0.0
13.92,366.6692184,-10.843564800000001,-4.445812800000001,-1.8400776,0.0,0.0,0.0,0.0
13.94,366.6978696,-9.1628976,-3.0903671999999998,-1.3801344,0.0,0.0,0.0,0.0
13.959999999999999,366.6643416,-6.9942456,-3.3073848000000003,-0.8433816000000001,0.0,0.0,0.0,0.0
13.98,366.54790799999995,-7.4822304,-4.6628304,-0.23012400000000002,0.0,0.0,0.0,0.0
14.0,366.5290104,-6.397752,-3.7953696000000003,-0.3834384,0.0,0.0,0.0,0.0
14.02,366.4967016,-8.186928,-3.957828,-0.9201912000000001,0.0,0.0,0.0,0.0
14.04,366.40739520000005,-9.379915200000001,-6.5605152,-3.1437072,0.0,0.0,0.0,0.0
14.059999999999999,366.3388152,-6.9942456,-4.8252888,-2.6069544000000002,0.0,0.0,0.0,0.0
14.08,366.2089704,-9.488119200000002,-2.0061936,-1.3036296,0.0,0.0,0.0,0.0
14.1,366.17513759999997,-8.7834216,-1.9519392,-1.4569440000000002,0.0,0.0,0.0,0.0
14.12,366.16385999999994,-8.94588,-3.0903671999999998,-2.3003256,0.0,0.0,0.0,0.0
14.139999999999999,365.974884,-10.193121600000001,-2.6023824,-0.996696,0.0,0.0,0.0,0.0
14.16,365.8459536,-9.7051368,-2.7651456,-1.1500104,0.0,0.0,0.0,0.0
14.18,365.7932232,-8.94588,-2.548128,-0.8433816000000001,0.0,0.0,0.0,0.0
14.2,365.6630736,-10.4640888,-2.0061936,-0.996696,0.0,0.0,0.0,0.0
