time,baro_altitude,accl_x,accl_y,accl_z,gps_altitude,gyro_roll,gyro_pitch,gyro_yaw
0.0,0.0,-9.596628,5.259324,0.5367528,0.0,0.0,0.0,0.0
0.020000000000000462,0.0003048000000000003,-9.488119200000002,5.1508152,0.6135624,0.0,0.0,0.0,0.0
0.040000000000000036,-0.0009144000000000009,-9.488119200000002,5.1508152,0.6135624,0.0,0.0,0.0,0.0
0.06000000000000005,-0.021031200000000003,-9.488119200000002,5.1508152,0.6900672,0.0,0.0,0.0,0.0
0.08000000000000007,0.0432816,-9.596628,5.1508152,0.6135624,0.0,0.0,0.0,0.0
0.10000000000000009,0.04236720000000001,-9.5423736,5.205069600000001,0.6900672,0.0,0.0,0.0,0.0
0.1200000000000001,0.10515600000000001,-9.488119200000002,5.259324,0.5367528,0.0,0.0,0.0,0.0
0.14000000000000012,0.2511552,-9.5423736,5.096560800000001,0.6900672,0.0,0.0,0.0,0.0
0.16000000000000014,0.1975104,-9.5423736,5.096560800000001,0.6900672,0.0,0.0,0.0,0.0
0.18000000000000016,0.16550640000000003,-9.5423736,5.205069600000001,0.7668768,0.0,0.0,0.0,0.0
0.20000000000000018,0.10363200000000002,-9.488119200000002,5.1508152,0.6900672,0.0,0.0,0.0,0.0
0.2200000000000002,0.05151120000000001,-9.5423736,5.096560800000001,0.6900672,0.0,0.0,0.0,0.0
0.2400000000000002,0.15483840000000001,-9.488119200000002,5.1508152,0.6900672,0.0,0.0,0.0,0.0
0.26000000000000023,0.12100560000000002,-9.5423736,5.096560800000001,0.6135624,0.0,0.0,0.0,0.0
0.28000000000000025,0.12435840000000002,-9.6508824,5.096560800000001,0.6135624,0.0,0.0,0.0,0.0
0.2999999999999998,-0.004572000000000004,-9.596628,5.1508152,0.6900672,0.0,0.0,0.0,0.0
0.31999999999999984,0.12192000000000001,-9.488119200000002,5.1508152,0.6135624,0.0,0.0,0.0,0.0
0.33999999999999986,0.23804880000000003,-9.5423736,5.096560800000001,0.5367528,0.0,0.0,0.0,0.0
0.3599999999999999,-0.047853599999999996,-9.488119200000002,5.0423064,0.6900672,0.0,0.0,0.0,0.0
0.3799999999999999,0.15179040000000002,-9.596628,5.1508152,0.6900672,0.0,0.0,0.0,0.0
0.3999999999999999,0.08290560000000001,-9.488119200000002,5.1508152,0.6135624,0.0,0.0,0.0,0.0
0.41999999999999993,0.0923544,-9.488119200000002,5.259324,0.6135624,0.0,0.0,0.0,0.0
0.43999999999999995,-0.013715999999999996,-9.5423736,5.205069600000001,0.6900672,0.0,0.0,0.0,0.0
0.45999999999999996,0.0018288000000000017,-9.5423736,5.205069600000001,0.7668768,0.0,0.0,0.0,0.0
0.48,0.13045440000000003,-9.5423736,5.096560800000001,0.6135624,0.0,0.0,0.0,0.0
0.5,0.037185600000000006,-9.596628,5.1508152,0.6900672,0.0,0.0,0.0,0.0
0.52,0.077724,-9.488119200000002,5.1508152,0.6900672,0.0,0.0,0.0,0.0
0.54,0.030784800000000005,-9.4338648,5.096560800000001,0.6900672,0.0,0.0,0.0,0.0
0.56,-0.0216408,-9.5423736,5.096560800000001,0.6900672,0.0,0.0,0.0,0.0
0.5800000000000001,0.01889760000000001,-9.4338648,5.205069600000001,0.6900672,0.0,0.0,0.0,0.0
0.6000000000000001,-0.1109472,-9.5423736,5.096560800000001,0.6135624,0.0,0.0,0.0,0.0
0.6200000000000001,-0.14478,-9.4338648,5.096560800000001,0.6900672,0.0,0.0,0.0,0.0
0.6400000000000001,-0.08534400000000002,-9.488119200000002,5.259324,0.6900672,0.0,0.0,0.0,0.0
0.6600000000000001,0.0966216,-9.596628,5.1508152,0.6900672,0.0,0.0,0.0,0.0
0.6800000000000002,0.1094232,-9.5423736,5.096560800000001,0.6135624,0.0,0.0,0.0,0.0
0.7000000000000002,0.23134320000000003,-9.488119200000002,5.1508152,0.7668768,0.0,0.0,0.0,0.0
0.7200000000000002,0.2584704,-9.5423736,5.096560800000001,0.6135624,0.0,0.0,0.0,0.0
0.7400000000000002,0.2907792,-9.596628,5.1508152,0.6900672,0.0,0.0,0.0,0.0
0.7600000000000002,0.08351520000000001,-9.5423736,5.205069600000001,0.6900672,0.0,0.0,0.0,0.0
0.7800000000000002,-0.033223199999999994,-9.5423736,5.205069600000001,0.6135624,0.0,0.0,0.0,0.0
0.7999999999999998,0.12070080000000001,-9.5423736,5.096560800000001,0.6900672,0.0,0.0,0.0,0.0
0.8199999999999998,0.12679680000000002,-9.5423736,5.205069600000001,0.6900672,0.0,0.0,0.0,0.0
0.8399999999999999,0.13228320000000002,-9.5423736,5.205069600000001,0.6135624,0.0,0.0,0.0,0.0
0.8599999999999999,0.1673352,-9.5423736,5.205069600000001,0.6900672,0.0,0.0,0.0,0.0
0.8799999999999999,0.1118616,-9.488119200000002,5.259324,0.6900672,0.0,0.0,0.0,0.0
0.8999999999999999,0.01706880000000001,-9.379915200000001,5.1508152,0.6900672,0.0,0.0,0.0,0.0
0.9199999999999999,0.17251680000000003,-9.5423736,5.205069600000001,0.6135624,0.0,0.0,0.0,0.0
0.94,0.015544800000000006,-9.5423736,5.096560800000001,0.6135624,0.0,0.0,0.0,0.0
0.96,0.1536192,-9.5423736,5.205069600000001,0.6135624,0.0,0.0,0.0,0.0
0.98,0.10149840000000002,-9.596628,5.1508152,0.6900672,0.0,0.0,0.0,0.0
1.0,-0.006095999999999989,-9.5423736,5.205069600000001,0.6135624,0.0,0.0,0.0,0.0
1.02,0.0719328,-9.5423736,5.205069600000001,0.6135624,0.0,0.0,0.0,0.0
1.04,-0.026517599999999992,-9.5423736,5.096560800000001,0.6135624,0.0,0.0,0.0,0.0
1.06,-0.0704088,-9.5423736,5.205069600000001,0.6900672,0.0,0.0,0.0,0.0
1.08,-0.06979919999999999,-9.5423736,5.096560800000001,0.6900672,0.0,0.0,0.0,0.0
1.1,-0.014020799999999996,-9.5423736,5.205069600000001,0.6900672,0.0,0.0,0.0,0.0
1.12,-0.06705599999999999,-9.488119200000002,5.1508152,0.6135624,0.0,0.0,0.0,0.0
1.1400000000000001,-0.08839200000000001,-9.5423736,5.205069600000001,0.6900672,0.0,0.0,0.0,0.0
1.1600000000000001,-0.1365504,-9.5423736,5.096560800000001,0.6900672,0.0,0.0,0.0,0.0
1.1800000000000002,-0.0573024,-9.5423736,5.096560800000001,0.6900672,0.0,0.0,0.0,0.0
1.2000000000000002,-0.1716024,-9.4338648,5.096560800000001,0.6135624,0.0,0.0,0.0,0.0
1.2200000000000002,-0.1770888,-9.5423736,5.096560800000001,0.6135624,0.0,0.0,0.0,0.0
1.2400000000000002,-0.37338000000000005,-9.596628,5.1508152,0.6135624,0.0,0.0,0.0,0.0
1.2600000000000002,-0.1633728,-9.488119200000002,5.259324,0.5367528,0.0,0.0,0.0,0.0
1.2800000000000002,-0.074676,-9.488119200000002,5.1508152,0.6135624,0.0,0.0,0.0,0.0
1.2999999999999998,-0.0374904,-9.5423736,5.205069600000001,0.6135624,0.0,0.0,0.0,0.0
1.3199999999999998,0.0408432,-9.5423736,5.205069600000001,0.6135624,0.0,0.0,0.0,0.0
1.3399999999999999,0.1027176,-9.488119200000002,5.1508152,0.6135624,0.0,0.0,0.0,0.0
1.3599999999999999,0.0816864,-9.488119200000002,5.1508152,0.6135624,0.0,0.0,0.0,0.0
1.38,-0.12070080000000001,-9.5423736,5.205069600000001,0.6135624,0.0,0.0,0.0,0.0
1.4,-0.08442960000000001,-9.488119200000002,5.1508152,0.5367528,0.0,0.0,0.0,0.0
1.42,-0.1871472,-9.488119200000002,5.1508152,0.6135624,0.0,0.0,0.0,0.0
1.44,-0.103632,-9.488119200000002,5.1508152,0.6900672,0.0,0.0,0.0,0.0
1.46,0.0295656,-9.5423736,5.205069600000001,0.6135624,0.0,0.0,0.0,0.0
1.48,0.1475232,-9.488119200000002,5.259324,0.6900672,0.0,0.0,0.0,0.0
1.5,0.2066544,-9.488119200000002,5.259324,0.5367528,0.0,0.0,0.0,0.0
1.52,0.31150560000000005,-9.5423736,5.205069600000001,0.6900672,0.0,0.0,0.0,0.0
1.54,0.12771120000000002,-9.488119200000002,5.1508152,0.6900672,0.0,0.0,0.0,0.0
1.56,0.18836640000000002,-9.4338648,5.205069600000001,0.6900672,0.0,0.0,0.0,0.0
1.58,0.1167384,-9.488119200000002,5.1508152,0.6135624,0.0,0.0,0.0,0.0
1.6,0.1728216,-9.4338648,5.205069600000001,0.6135624,0.0,0.0,0.0,0.0
1.62,0.36179760000000005,-9.5423736,5.205069600000001,0.6135624,0.0,0.0,0.0,0.0
1.6400000000000001,0.34046160000000003,-9.596628,5.259324,0.6135624,0.0,0.0,0.0,0.0
1.6600000000000001,0.40111680000000005,-9.596628,5.1508152,0.6900672,0.0,0.0,0.0,0.0
1.6800000000000002,0.3112008,-9.5423736,5.096560800000001,0.6900672,0.0,0.0,0.0,0.0
1.7000000000000002,0.13716,-9.596628,5.1508152,0.6135624,0.0,0.0,0.0,0.0
1.7200000000000002,0.030480000000000004,-9.5423736,5.205069600000001,0.6135624,0.0,0.0,0.0,0.0
1.7400000000000002,0.1456944,-9.4338648,5.096560800000001,0.6135624,0.0,0.0,0.0,0.0
1.7600000000000002,0.025298400000000006,-9.488119200000002,5.1508152,0.6135624,0.0,0.0,0.0,0.0
1.7800000000000002,-0.0353568,-9.596628,5.1508152,0.6900672,0.0,0.0,0.0,0.0
1.7999999999999998,-0.028651199999999995,-9.596628,5.1508152,0.7668768,0.0,0.0,0.0,0.0
1.8199999999999998,-0.06644639999999999,-9.5423736,5.205069600000001,0.6135624,0.0,0.0,0.0,0.0
1.8399999999999999,0.006705600000000006,-9.488119200000002,5.1508152,0.7668768,0.0,0.0,0.0,0.0
1.8599999999999999,0.0987552,-9.5423736,5.205069600000001,0.6135624,0.0,0.0,0.0,0.0
1.88,0.077724,-9.596628,5.1508152,0.6135624,0.0,0.0,0.0,0.0
1.9,-0.08564880000000001,-9.488119200000002,5.1508152,0.6900672,0.0,0.0,0.0,0.0
1.92,-0.013715999999999996,-9.488119200000002,5.1508152,0.6900672,0.0,0.0,0.0,0.0
1.94,0.04450080000000001,-9.5423736,5.205069600000001,0.6900672,0.0,0.0,0.0,0.0
1.96,0.044196000000000006,-9.5423736,5.096560800000001,0.6135624,0.0,0.0,0.0,0.0
1.98,0.20848319999999998,-9.488119200000002,5.1508152,0.6900672,0.0,0.0,0.0,0.0
2.0,0.1411224,-9.5423736,5.205069600000001,0.6900672,0.0,0.0,0.0,0.0
2.02,0.11765280000000002,-9.5423736,5.205069600000001,0.7668768,0.0,0.0,0.0,0.0
2.04,0.1133856,-9.596628,5.259324,0.6900672,0.0,0.0,0.0,0.0
2.06,-0.052425599999999996,-9.4338648,5.096560800000001,0.6135624,0.0,0.0,0.0,0.0
2.08,0.02865120000000001,-9.488119200000002,5.1508152,0.6900672,0.0,0.0,0.0,0.0
2.1,0.12649200000000002,-9.596628,5.1508152,0.6135624,0.0,0.0,0.0,0.0
2.12,0.10546080000000002,-9.488119200000002,5.1508152,0.6900672,0.0,0.0,0.0,0.0
2.14,0.10332720000000001,-9.488119200000002,5.1508152,0.6135624,0.0,0.0,0.0,0.0
2.16,0.2145792,-9.488119200000002,5.1508152,0.6135624,0.0,0.0,0.0,0.0
2.1799999999999997,0.268224,-9.488119200000002,5.1508152,0.6900672,0.0,0.0,0.0,0.0
2.2,0.3048,-9.5423736,5.205069600000001,0.6900672,0.0,0.0,0.0,0.0
2.2199999999999998,0.2990088,-9.596628,5.1508152,0.6900672,0.0,0.0,0.0,0.0
2.24,0.1901952,-9.488119200000002,5.1508152,0.6135624,0.0,0.0,0.0,0.0
2.26,0.19903440000000003,-9.5423736,5.096560800000001,0.6900672,0.0,0.0,0.0,0.0
2.2800000000000002,0.1563624,-9.488119200000002,5.1508152,0.6900672,0.0,0.0,0.0,0.0
2.3,-0.0734568,-9.5423736,5.205069600000001,0.6900672,0.0,0.0,0.0,0.0
2.3200000000000003,-0.1566672,-9.5423736,5.205069600000001,0.6900672,0.0,0.0,0.0,0.0
2.34,-0.1664208,-9.488119200000002,5.1508152,0.6135624,0.0,0.0,0.0,0.0
2.3600000000000003,-0.0356616,-9.488119200000002,5.259324,0.7668768,0.0,0.0,0.0,0.0
2.38,0.007010400000000007,-9.0543888,5.0423064,0.8433816000000001,0.0,0.0,0.0,0.0
2.4000000000000004,0.1411224,-9.7593912,4.988052,0.6900672,0.0,0.0,0.0,0.0
2.42,0.05212080000000001,-9.596628,5.259324,0.5367528,0.0,0.0,0.0,0.0
2.44,-0.0003048000000000003,-9.596628,5.259324,0.6135624,0.0,0.0,0.0,0.0
2.46,-0.026517599999999992,-9.5423736,5.205069600000001,0.6900672,0.0,0.0,0.0,0.0
2.48,-0.1109472,-9.5423736,5.205069600000001,0.6135624,0.0,0.0,0.0,0.0
2.5,0.022860000000000005,-9.596628,5.1508152,0.6135624,0.0,0.0,0.0,0.0
2.52,-0.09906,-9.7051368,5.1508152,0.6135624,0.0,0.0,0.0,0.0
2.54,-0.029870399999999995,-9.488119200000002,5.1508152,0.6900672,0.0,0.0,0.0,0.0
2.56,-0.0710184,-9.5423736,5.205069600000001,0.5367528,0.0,0.0,0.0,0.0
2.58,0.011582400000000003,-9.488119200000002,5.1508152,0.6900672,0.0,0.0,0.0,0.0
2.6,0.029870400000000002,-9.488119200000002,5.1508152,0.6900672,0.0,0.0,0.0,0.0
2.62,-0.022250400000000004,-9.5423736,5.096560800000001,0.6135624,0.0,0.0,0.0,0.0
2.64,-0.0316992,-9.488119200000002,5.1508152,0.6135624,0.0,0.0,0.0,0.0
2.66,0.07498080000000001,-9.596628,5.1508152,0.6135624,0.0,0.0,0.0,0.0
2.6799999999999997,0.1441704,-9.596628,5.259324,0.6135624,0.0,0.0,0.0,0.0
2.7,0.1139952,-9.488119200000002,5.1508152,0.7668768,0.0,0.0,0.0,0.0
2.7199999999999998,0.26487120000000003,-9.5423736,5.205069600000001,0.6900672,0.0,0.0,0.0,0.0
2.74,0.2654808,-9.5423736,5.205069600000001,0.6900672,0.0,0.0,0.0,0.0
2.76,0.2602992,-9.5423736,5.205069600000001,0.6135624,0.0,0.0,0.0,0.0
2.7800000000000002,0.21915120000000005,-9.5423736,5.205069600000001,0.5367528,0.0,0.0,0.0,0.0
2.8,0.2798064,-9.488119200000002,5.1508152,0.6900672,0.0,0.0,0.0,0.0
2.8200000000000003,0.2737104,-9.596628,5.1508152,0.6900672,0.0,0.0,0.0,0.0
2.84,0.1987296,-9.5423736,5.205069600000001,0.6135624,0.0,0.0,0.0,0.0
2.8600000000000003,0.15483840000000001,-9.5423736,5.096560800000001,0.6135624,0.0,0.0,0.0,0.0
2.88,0.08686800000000001,-9.596628,5.1508152,0.6900672,0.0,0.0,0.0,0.0
2.9000000000000004,-0.032004,-9.5423736,5.096560800000001,0.6135624,0.0,0.0,0.0,0.0
2.92,-0.02499359999999999,-9.488119200000002,5.1508152,0.6900672,0.0,0.0,0.0,0.0
2.94,-0.08138160000000001,-9.488119200000002,5.1508152,0.6135624,0.0,0.0,0.0,0.0
2.96,-0.0554736,-9.5423736,5.205069600000001,0.5367528,0.0,0.0,0.0,0.0
2.98,-0.1118616,-9.488119200000002,5.1508152,0.6900672,0.0,0.0,0.0,0.0
3.0,-0.1514856,-9.5423736,5.096560800000001,0.5367528,0.0,0.0,0.0,0.0
3.02,-0.0795528,-9.6508824,5.096560800000001,0.6900672,0.0,0.0,0.0,0.0
3.04,0.015849600000000005,-9.488119200000002,5.0423064,0.6135624,0.0,0.0,0.0,0.0
3.06,-0.006095999999999989,-9.5423736,5.205069600000001,0.6135624,0.0,0.0,0.0,0.0
3.08,0.011582400000000003,-9.488119200000002,5.1508152,0.6135624,0.0,0.0,0.0,0.0
3.1,0.0765048,-9.5423736,5.096560800000001,0.6900672,0.0,0.0,0.0,0.0
3.12,0.043586400000000004,-9.5423736,5.205069600000001,0.6900672,0.0,0.0,0.0,0.0
3.14,0.16428720000000002,-9.5423736,5.096560800000001,0.6135624,0.0,0.0,0.0,0.0
3.16,0.1100328,-9.488119200000002,5.1508152,0.5367528,0.0,0.0,0.0,0.0
3.18,0.11430000000000001,-9.5423736,5.205069600000001,0.6135624,0.0,0.0,0.0,0.0
3.2,0.13167360000000003,-9.488119200000002,5.1508152,0.6135624,0.0,0.0,0.0,0.0
3.22,0.0950976,-9.5423736,5.205069600000001,0.6135624,0.0,0.0,0.0,0.0
3.24,0.21000720000000003,-9.488119200000002,5.1508152,0.6135624,0.0,0.0,0.0,0.0
3.26,0.2663952,-9.596628,5.1508152,0.6900672,0.0,0.0,0.0,0.0
3.2800000000000002,0.1764792,-9.5423736,5.205069600000001,0.6900672,0.0,0.0,0.0,0.0
3.3,0.1819656,-9.488119200000002,5.1508152,0.7668768,0.0,0.0,0.0,0.0
3.3200000000000003,0.3496056,-9.5423736,5.205069600000001,0.6900672,0.0,0.0,0.0,0.0
3.34,0.4117848,-9.5423736,5.096560800000001,0.6900672,0.0,0.0,0.0,0.0
3.36,0.3410712,-9.5423736,5.205069600000001,0.6135624,0.0,0.0,0.0,0.0
3.38,0.16398240000000003,-9.5423736,5.205069600000001,0.6135624,0.0,0.0,0.0,0.0
3.4,-0.009753599999999992,-9.5423736,5.205069600000001,0.6900672,0.0,0.0,0.0,0.0
3.42,0.050901600000000005,-9.6508824,5.205069600000001,0.6135624,0.0,0.0,0.0,0.0
3.44,0.1182624,-9.4338648,5.205069600000001,0.6900672,0.0,0.0,0.0,0.0
3.46,0.059436,-9.4338648,5.205069600000001,0.6900672,0.0,0.0,0.0,0.0
3.48,0.1472184,-9.4338648,5.205069600000001,0.6135624,0.0,0.0,0.0,0.0
3.5,0.07040880000000001,-9.596628,5.259324,0.5367528,0.0,0.0,0.0,0.0
3.52,0.07528560000000001,-9.596628,5.1508152,0.6135624,0.0,0.0,0.0,0.0
3.54,0.1472184,-9.5423736,5.205069600000001,0.6900672,0.0,0.0,0.0,0.0
3.56,0.3529584,-9.596628,5.259324,0.6900672,0.0,0.0,0.0,0.0
3.58,0.2996184,-9.488119200000002,5.1508152,0.6900672,0.0,0.0,0.0,0.0
3.6,0.30388560000000003,-9.488119200000002,5.1508152,0.6135624,0.0,0.0,0.0,0.0
3.62,0.20452080000000003,-9.5423736,5.205069600000001,0.6900672,0.0,0.0,0.0,0.0
3.64,-0.05334,-9.5423736,5.3132736,0.6135624,0.0,0.0,0.0,0.0
3.66,-0.09265919999999998,-9.5423736,5.205069600000001,0.5367528,0.0,0.0,0.0,0.0
3.68,-0.24810720000000003,-9.813645600000001,5.1508152,0.5367528,0.0,0.0,0.0,0.0
3.7,-0.2968752,-9.4338648,5.205069600000001,0.6900672,0.0,0.0,0.0,0.0
3.72,-0.3602736,-9.5423736,5.205069600000001,0.6135624,0.0,0.0,0.0,0.0
3.74,-0.33406080000000005,-9.596628,5.259324,0.6135624,0.0,0.0,0.0,0.0
3.76,-0.38557199999999997,-9.488119200000002,5.0423064,0.6900672,0.0,0.0,0.0,0.0
3.7800000000000002,-0.35143440000000004,-9.4338648,5.205069600000001,0.7668768,0.0,0.0,0.0,0.0
3.8,-0.3816096,-9.596628,5.1508152,0.6900672,0.0,0.0,0.0,0.0
3.82,-0.2663952,-9.596628,5.259324,0.6135624,0.0,0.0,0.0,0.0
3.84,-0.1542288,-9.4338648,5.096560800000001,0.4599432,0.0,0.0,0.0,0.0
3.86,-0.1292352,-9.5423736,5.205069600000001,0.6900672,0.0,0.0,0.0,0.0
3.88,0.021945600000000003,-9.488119200000002,5.259324,0.7668768,0.0,0.0,0.0,0.0
3.9,0.055168800000000004,-9.488119200000002,5.1508152,0.6900672,0.0,0.0,0.0,0.0
3.92,0.1758696,-9.6508824,5.205069600000001,0.5367528,0.0,0.0,0.0,0.0
3.94,0.280416,-9.6508824,5.3132736,0.4599432,0.0,0.0,0.0,0.0
3.96,0.3221736,-9.4338648,5.3132736,0.7668768,0.0,0.0,0.0,0.0
3.98,0.3267456,-9.488119200000002,5.1508152,0.8433816000000001,0.0,0.0,0.0,0.0
4.0,0.3541776,-9.813645600000001,5.1508152,0.5367528,0.0,0.0,0.0,0.0
4.0200000000000005,0.3660648,-9.7051368,5.1508152,0.4599432,0.0,0.0,0.0,0.0
4.04,0.2822448,-9.596628,5.1508152,0.5367528,0.0,0.0,0.0,0.0
4.06,0.24231600000000003,-8.0784192,4.8252888,1.4569440000000002,0.0,0.0,0.0,0.0
4.08,0.2874264,-9.1628976,4.8252888,1.0735056,0.0,0.0,0.0,0.0
4.1,0.13898880000000002,-16.645128,6.9942456,0.8433816000000001,0.0,0.0,0.0,0.0
4.12,0.2310384,-23.747577600000003,12.4702824,1.6102584000000002,0.0,0.0,0.0,0.0
4.14,0.2542032,-42.0733728,21.361908,1.6102584000000002,0.0,0.0,0.0,0.0
4.16,0.5818632,-30.362347200000002,14.964156000000001,7.6675488,0.0,0.0,0.0,0.0
4.18,0.8506968,-37.248084,15.994380000000001,3.2205168000000004,0.0,0.0,0.0,0.0
4.2,0.9217152000000001,-37.410542400000004,16.2653472,4.2937176,0.0,0.0,0.0,0.0
4.22,0.8321040000000001,-36.4888272,14.909901600000001,5.060594400000001,0.0,0.0,0.0,0.0
4.24,0.45476160000000004,-40.7179272,15.343632000000001,0.6900672,0.0,0.0,0.0,0.0
4.26,0.1987296,-35.458908,15.8316168,5.9807856,0.0,0.0,0.0,0.0
4.28,-0.31302959999999996,-36.976812,18.1087776,5.903976000000001,0.0,0.0,0.0,0.0
4.3,-0.6562344,-38.332257600000005,17.6210976,2.683764,0.0,0.0,0.0,0.0
4.32,-0.9226296,-38.765988,17.512588800000003,4.4473368,0.0,0.0,0.0,0.0
4.34,-1.1725656000000002,-40.013229599999995,18.1087776,4.523841600000001,0.0,0.0,0.0,0.0
4.36,-1.2746736,-37.0310664,19.3560192,7.2841104,0.0,0.0,0.0,0.0
4.38,-1.3048488,-38.549275200000004,19.464223200000003,3.2205168000000004,0.0,0.0,0.0,0.0
4.4,-1.3786104,-37.1395752,18.3800496,3.450336,0.0,0.0,0.0,0.0
4.42,-1.4246352000000002,-39.4709904,19.952208,3.3738312000000006,0.0,0.0,0.0,0.0
4.44,-1.6459200000000003,-41.6396424,19.3017648,1.2268200000000002,0.0,0.0,0.0,0.0
4.46,-1.7084040000000003,-37.4647968,17.0788584,5.137404,0.0,0.0,0.0,0.0
4.48,-1.5160752000000002,-36.6515904,16.6993824,3.6036504000000003,0.0,0.0,0.0,0.0
4.5,-1.5547848,-41.043148800000004,20.1149712,3.3738312000000006,0.0,0.0,0.0,0.0
4.52,-1.5169896000000003,-38.983005600000006,18.5967624,5.5205376,0.0,0.0,0.0,0.0
4.54,-1.2600432000000001,-36.6515904,17.024604,6.0572904,0.0,0.0,0.0,0.0
4.5600000000000005,-1.0162032,-39.8504664,19.3560192,2.1470112,0.0,0.0,0.0,0.0
4.58,-0.5431536,-42.5613576,19.3560192,4.370527200000001,0.0,0.0,0.0,0.0
4.6,-0.178308,-42.2903904,19.4102736,4.7539656,0.0,0.0,0.0,0.0
4.62,0.024993600000000008,-43.645836,20.5487016,6.8241672,0.0,0.0,0.0,0.0
4.64,0.1941576,-44.025312,20.8199736,5.6741568000000004,0.0,0.0,0.0,0.0
4.66,0.6742176,-44.838518400000005,20.765719200000003,4.907280000000001,0.0,0.0,0.0,0.0
4.68,0.9866376000000001,-45.2179944,20.602956,4.523841600000001,0.0,0.0,0.0,0.0
4.7,1.487424,-45.4892664,20.765719200000003,5.060594400000001,0.0,0.0,0.0,0.0
4.72,1.99644,-45.435012,20.711464799999998,4.677156,0.0,0.0,0.0,0.0
4.74,2.6548080000000005,-44.5675512,19.952208,4.523841600000001,0.0,0.0,0.0,0.0
4.76,3.3086040000000003,-44.4590424,20.277734400000003,5.6741568000000004,0.0,0.0,0.0,0.0
4.78,3.9816024000000003,-45.0012816,20.3859384,5.4440328000000004,0.0,0.0,0.0,0.0
4.8,4.7094648,-45.7059792,20.765719200000003,5.2907184,0.0,0.0,0.0,0.0
4.82,5.358688800000001,-45.7059792,20.6572104,5.4440328000000004,0.0,0.0,0.0,0.0
4.84,5.9234832,-46.193964,20.9281776,3.6036504000000003,0.0,0.0,0.0,0.0
4.86,6.5647823999999995,-46.1397096,20.6572104,4.4473368,0.0,0.0,0.0,0.0
4.88,7.182002400000001,-46.7904576,20.6572104,4.523841600000001,0.0,0.0,0.0,0.0
4.9,8.05434,-46.51918560000001,20.8199736,4.1404032,0.0,0.0,0.0,0.0
4.92,8.516416800000002,-45.814488000000004,20.1149712,4.4473368,0.0,0.0,0.0,0.0
4.94,9.0958416,-45.597470400000006,20.6572104,4.8304704,0.0,0.0,0.0,0.0
4.96,9.736836,-46.51918560000001,20.8199736,4.523841600000001,0.0,0.0,0.0,0.0
4.98,10.590276,-45.109485600000006,20.494447200000003,5.5205376,0.0,0.0,0.0,0.0
5.0,11.3626392,-46.6819488,21.4161624,5.2139088000000005,0.0,0.0,0.0,0.0
5.02,12.2304048,-45.9229968,20.765719200000003,4.984089600000001,0.0,0.0,0.0,0.0
5.04,12.940588799999999,-46.7904576,21.199449600000005,3.910584,0.0,0.0,0.0,0.0
5.0600000000000005,13.7193528,-46.0312008,20.6572104,4.2937176,0.0,0.0,0.0,0.0
5.08,14.5371312,-46.193964,20.494447200000003,3.3738312000000006,0.0,0.0,0.0,0.0
5.1,15.3811224,-46.51918560000001,20.8199736,4.2172128,0.0,0.0,0.0,0.0
5.12,16.3095432,-45.9772512,20.8199736,4.1404032,0.0,0.0,0.0,0.0
5.140000000000001,17.2193712,-46.0312008,20.982432000000003,4.4473368,0.0,0.0,0.0,0.0
5.16,18.1764432,-45.8687424,21.253704000000003,5.2139088000000005,0.0,0.0,0.0,0.0
5.18,19.151193600000003,-46.573440000000005,21.849892800000003,3.910584,0.0,0.0,0.0,0.0
5.2,20.215860000000003,-46.302472800000004,21.470416800000002,4.1404032,0.0,0.0,0.0,0.0
5.22,21.3506304,-45.9229968,21.090940800000002,3.68046,0.0,0.0,0.0,0.0
5.24,22.532949600000002,-45.9229968,21.4161624,3.7572696000000003,0.0,0.0,0.0,0.0
5.26,23.743920000000003,-45.76023360000001,21.1451952,4.2172128,0.0,0.0,0.0,0.0
5.28,24.7768872,-46.6819488,21.5246712,2.9135831999999997,0.0,0.0,0.0,0.0
5.3,25.681228800000003,-46.4109816,21.904147200000004,3.7572696000000003,0.0,0.0,0.0,0.0
5.32,26.6611608,-44.9470272,21.090940800000002,4.1404032,0.0,0.0,0.0,0.0
5.34,27.687117600000004,-45.5435208,21.470416800000002,3.8337744,0.0,0.0,0.0,0.0
5.36,28.782873600000002,-47.224188000000005,22.609149600000002,3.2205168000000004,0.0,0.0,0.0,0.0
5.38,29.7326304,-44.404788,20.765719200000003,3.7572696000000003,0.0,0.0,0.0,0.0
5.4,30.848503200000003,-45.76023360000001,22.2293688,3.910584,0.0,0.0,0.0,0.0
5.42,32.0113152,-44.350533600000006,21.687434400000004,4.523841600000001,0.0,0.0,0.0,0.0
5.4399999999999995,33.3082392,-46.1397096,22.175419200000004,3.7572696000000003,0.0,0.0,0.0,0.0
5.46,34.4594688,-45.4892664,21.741384,3.6036504000000003,0.0,0.0,0.0,0.0
5.48,35.575951200000006,-43.5373272,21.090940800000002,4.523841600000001,0.0,0.0,0.0,0.0
5.5,36.695176800000006,-45.27224880000001,22.0669104,3.68046,0.0,0.0,0.0,0.0
5.52,37.9960632,-44.7300096,21.741384,4.2937176,0.0,0.0,0.0,0.0
5.54,39.127785599999996,-44.8927728,21.687434400000004,2.9135831999999997,0.0,0.0,0.0,0.0
5.5600000000000005,40.3512528,-43.80829440000001,21.7956384,4.1404032,0.0,0.0,0.0,0.0
5.58,41.5165032,-42.8323248,21.0366864,4.984089600000001,0.0,0.0,0.0,0.0
5.6,42.7637448,-42.615612,20.9281776,4.677156,0.0,0.0,0.0,0.0
5.62,44.0426856,-42.0191184,20.3319888,3.9870888,0.0,0.0,0.0,0.0
5.640000000000001,45.4097136,-42.1276272,20.22348,4.2937176,0.0,0.0,0.0,0.0
5.66,46.7950296,-41.91060960000001,19.6812408,4.2937176,0.0,0.0,0.0,0.0
5.68,48.1727256,-42.940833600000005,19.844004,3.450336,0.0,0.0,0.0,0.0
5.7,49.473916800000005,-41.3144208,19.4102736,3.1437072,0.0,0.0,0.0,0.0
5.72,50.846126399999996,-40.7721816,20.1692256,4.0638984,0.0,0.0,0.0,0.0
5.74,52.0223496,-39.1997184,18.9222888,4.677156,0.0,0.0,0.0,0.0
5.76,53.4229056,-39.9589752,19.572732000000002,4.523841600000001,0.0,0.0,0.0,0.0
5.78,54.6542976,-38.983005600000006,18.9222888,4.523841600000001,0.0,0.0,0.0,0.0
5.8,55.9173888,-38.8744968,19.0304928,3.6036504000000003,0.0,0.0,0.0,0.0
5.82,57.171640800000006,-38.983005600000006,19.1390016,3.9870888,0.0,0.0,0.0,0.0
5.84,58.469784,-36.326368800000004,18.7595256,4.523841600000001,0.0,0.0,0.0,0.0
5.86,59.6883744,-37.248084,18.705271200000002,3.8337744,0.0,0.0,0.0,0.0
5.88,61.2059736,-37.356288,17.729301600000003,3.6036504000000003,0.0,0.0,0.0,0.0
5.9,62.530634400000004,-37.302338400000004,17.3498256,4.4473368,0.0,0.0,0.0,0.0
5.92,63.8482848,-36.5430816,17.458334400000002,4.1404032,0.0,0.0,0.0,0.0
5.9399999999999995,65.2918176,-35.187636,17.1870624,4.4473368,0.0,0.0,0.0,0.0
5.96,66.734436,-35.512857600000004,17.512588800000003,3.5271456,0.0,0.0,0.0,0.0
5.98,68.17431119999999,-34.80816,17.3498256,2.9903928,0.0,0.0,0.0,0.0
6.0,69.4773312,-34.2116664,16.8618408,2.683764,0.0,0.0,0.0,0.0
6.02,70.9354944,-35.2418904,17.5668432,1.8400776,0.0,0.0,0.0,0.0
6.04,72.3180672,-33.8864448,16.970349600000002,2.223516,0.0,0.0,0.0,0.0
6.0600000000000005,73.918572,-33.181747200000004,16.6993824,2.4536400000000005,0.0,0.0,0.0,0.0
6.08,75.1944648,-32.368235999999996,16.319601600000002,2.223516,0.0,0.0,0.0,0.0
6.1,76.7077968,-33.8864448,16.970349600000002,1.9168872,0.0,0.0,0.0,0.0
6.12,78.19247760000002,-31.3922664,16.5366192,2.5304496,0.0,0.0,0.0,0.0
6.140000000000001,79.83504480000002,-31.988760000000003,14.855952000000002,1.5334488,0.0,0.0,0.0,0.0
6.16,81.3992784,-30.524805600000004,14.58468,2.0702016,0.0,0.0,0.0,0.0
6.18,83.06379120000001,-30.2538384,15.9401256,2.9135831999999997,0.0,0.0,0.0,0.0
6.2,84.60425040000001,-29.603090400000003,14.964156000000001,2.683764,0.0,0.0,0.0,0.0
6.220000000000001,86.16055920000001,-29.386377600000003,14.096695200000001,3.68046,0.0,0.0,0.0,0.0
6.24,87.74308080000002,-30.2538384,13.662964800000001,2.5304496,0.0,0.0,0.0,0.0
6.26,89.4274056,-29.548835999999998,13.283488800000002,2.9135831999999997,0.0,0.0,0.0,0.0
6.28,91.0074888,-30.1453296,14.096695200000001,2.683764,0.0,0.0,0.0,0.0
6.3,92.66682000000002,-27.000708,12.795504,4.2172128,0.0,0.0,0.0,0.0
6.32,94.3221888,-27.271675200000004,13.9342368,2.9903928,0.0,0.0,0.0,0.0
6.34,96.00377040000001,-26.0247384,12.5787912,3.1437072,0.0,0.0,0.0,0.0
6.359999999999999,97.62134400000001,-25.4282448,12.416028,3.1437072,0.0,0.0,0.0,0.0
6.38,99.2209344,-26.566977600000005,12.361773600000001,2.8370784000000002,0.0,0.0,0.0,0.0
6.4,100.96987680000001,-23.368101600000003,11.5485672,3.7572696000000003,0.0,0.0,0.0,0.0
6.42,102.53776800000001,-25.0487688,11.6028216,1.7635728,0.0,0.0,0.0,0.0
6.4399999999999995,104.14375920000002,-24.072799200000002,11.385804,1.9168872,0.0,0.0,0.0,0.0
6.46,106.01218320000001,-25.265786400000003,12.361773600000001,1.8400776,0.0,0.0,0.0,0.0
6.48,107.60567760000002,-23.422356,11.277295200000001,1.6867632000000001,0.0,0.0,0.0,0.0
6.5,109.22904240000001,-23.964595199999998,11.4943128,1.3036296,0.0,0.0,0.0,0.0
6.52,111.0739968,-22.609149600000002,11.440058400000002,1.4569440000000002,0.0,0.0,0.0,0.0
6.54,112.96040400000001,-21.63318,11.1148368,1.6102584000000002,0.0,0.0,0.0,0.0
6.5600000000000005,114.79194720000001,-21.687434400000004,11.1690912,1.4569440000000002,0.0,0.0,0.0,0.0
6.58,116.378736,-21.253704000000003,11.277295200000001,1.2268200000000002,0.0,0.0,0.0,0.0
6.6,118.00210080000001,-20.8739232,11.440058400000002,1.3036296,0.0,0.0,0.0,0.0
6.62,119.57486880000002,-20.6572104,11.5485672,1.7635728,0.0,0.0,0.0,0.0
6.640000000000001,121.14276000000002,-19.789749600000004,11.5485672,1.9936968000000002,0.0,0.0,0.0,0.0
6.66,122.7926424,-18.434304,10.952073600000002,1.9168872,0.0,0.0,0.0,0.0
6.68,124.3861368,-18.81378,11.873788800000002,1.7635728,0.0,0.0,0.0,0.0
6.7,125.98847040000001,-19.193256,11.6028216,2.1470112,0.0,0.0,0.0,0.0
6.720000000000001,127.5149088,-18.5967624,10.5725976,1.3036296,0.0,0.0,0.0,0.0
6.74,129.09864960000002,-17.512588800000003,9.9218496,2.1470112,0.0,0.0,0.0,0.0
6.76,130.6488624,-18.9222888,10.355580000000002,0.9201912000000001,0.0,0.0,0.0,0.0
6.78,132.2082192,-17.2955712,9.596628,1.8400776,0.0,0.0,0.0,0.0
6.8,133.68101280000002,-18.163032,9.596628,1.0735056,0.0,0.0,0.0,0.0
6.82,135.0931512,-18.81378,9.379915200000001,0.8433816000000001,0.0,0.0,0.0,0.0
6.84,136.5272352,-17.6210976,9.2714064,1.3036296,0.0,0.0,0.0,0.0
6.859999999999999,137.9244384,-17.0788584,8.295436800000001,1.2268200000000002,0.0,0.0,0.0,0.0
6.88,139.32712800000002,-19.0847472,8.4582,-0.15331440000000002,0.0,0.0,0.0,0.0
6.9,140.7727944,-22.2293688,8.8919304,0.4599432,0.0,0.0,0.0,0.0
6.92,142.34038080000002,-19.898258400000003,8.0784192,1.2268200000000002,0.0,0.0,0.0,0.0
6.9399999999999995,143.87169600000001,-19.0847472,7.915960800000001,0.996696,0.0,0.0,0.0,0.0
6.96,145.3344312,-16.8618408,7.6446888,0.8433816000000001,0.0,0.0,0.0,0.0
6.98,146.9312784,-14.5304256,6.8314824000000005,0.6135624,0.0,0.0,0.0,0.0
7.0,148.5131904,-11.657076,5.5845456,0.996696,0.0,0.0,0.0,0.0
7.02,150.0923592,-11.006328,5.476036800000001,0.0768096,0.0,0.0,0.0,0.0
7.04,151.598376,-9.4338648,4.7713392,0.0,0.0,0.0,0.0,0.0
7.0600000000000005,153.05410080000001,-7.2652128,4.120591200000001,0.15331440000000002,0.0,0.0,0.0,0.0
7.08,154.5601176,-5.964021600000001,3.578352,0.15331440000000002,0.0,0.0,0.0,0.0
7.1,156.0649152,-4.3376088,2.3856696,0.0768096,0.0,0.0,0.0,0.0
7.12,157.6276248,-3.0361128,1.7349216,-0.7668768,0.0,0.0,0.0,0.0
7.140000000000001,159.0482976,-2.6566368,1.8976848000000002,-0.30662880000000003,0.0,0.0,0.0,0.0
7.16,160.4317848,-1.4097000000000002,2.2771608000000003,0.8433816000000001,0.0,0.0,0.0,0.0
7.18,161.7485208,-3.6868608000000003,3.4698432,0.15331440000000002,0.0,0.0,0.0,0.0
7.2,163.01161199999999,-3.578352,1.8434304000000001,-2.683764,0.0,0.0,0.0,0.0
7.220000000000001,164.1472968,-2.8194000000000004,0.9759696,-0.6135624,0.0,0.0,0.0,0.0
7.24,165.24823439999997,-11.8195344,8.4582,-1.1500104,0.0,0.0,0.0,0.0
7.26,166.30009919999998,-7.6989432,5.205069600000001,-0.6135624,0.0,0.0,0.0,0.0
7.28,167.3614128,0.3252216,19.952208,-4.0638984,0.0,0.0,0.0,0.0
7.3,168.4349184,9.4338648,9.3256608,31.667196,0.0,0.0,0.0,0.0
7.32,169.42765200000002,16.2113976,-2.548128,-33.50757840000001,0.0,0.0,0.0,0.0
7.34,170.4398928,-5.6930544,6.9942456,-24.459590400000003,0.0,0.0,0.0,0.0
7.359999999999999,171.38904,-4.5000672,5.367528,10.888065600000001,0.0,0.0,0.0,0.0
7.38,172.41987360000002,-4.6628304,0.2170176,-17.942356800000002,0.0,0.0,0.0,0.0
7.4,173.4400392,-2.0601432,5.7470040000000004,-3.0672024,0.0,0.0,0.0,0.0
7.42,174.4181424,-4.554321600000001,4.7713392,-6.594043200000001,0.0,0.0,0.0,0.0
7.4399999999999995,175.45903439999998,-1.1387328,-0.4879848,-7.36092,0.0,0.0,0.0,0.0
7.46,176.6288568,-3.4158936000000004,-0.2709672,-7.130796,0.0,0.0,0.0,0.0
7.48,177.8145288,-4.554321600000001,2.7108912000000003,-7.0542912,0.0,0.0,0.0,0.0
7.5,179.08554479999998,-11.006328,-1.030224,-7.744358400000001,0.0,0.0,0.0,0.0
7.52,180.42818880000002,-1.8434304000000001,8.024164800000001,7.6675488,0.0,0.0,0.0,0.0
7.54,182.73156239999997,2.8194000000000004,1.6264128000000002,-3.8337744,0.0,0.0,0.0,0.0
7.5600000000000005,186.2318856,1.7349216,-3.2531304000000003,-3.6036504000000003,0.0,0.0,0.0,0.0
7.58,189.0546384,-2.2229064000000003,-0.16276320000000002,-5.137404,0.0,0.0,0.0,0.0
7.6,191.5668,-1.5724632,-0.2709672,-5.2907184,0.0,0.0,0.0,0.0
7.62,193.73850000000002,-2.0601432,-0.3252216,-5.137404,0.0,0.0,0.0,0.0
7.640000000000001,195.657216,-2.4399240000000004,0.0542544,-5.2139088000000005,0.0,0.0,0.0,0.0
7.66,197.447916,-2.1143976,0.16276320000000002,-4.677156,0.0,0.0,0.0,0.0
7.68,198.741792,-2.1143976,0.37947600000000004,-4.907280000000001,0.0,0.0,0.0,0.0
7.7,199.86254160000001,-1.5724632,0.7046976,-4.7539656,0.0,0.0,0.0,0.0
7.720000000000001,200.6952552,-1.1387328,0.5964936000000001,-4.7539656,0.0,0.0,0.0,0.0
7.74,201.38471280000002,-2.4941784,0.8674608,-4.7539656,0.0,0.0,0.0,0.0
7.76,202.00711439999998,-2.4399240000000004,0.37947600000000004,-5.367223200000001,0.0,0.0,0.0,0.0
7.78,202.5956832,-2.7651456,1.1387328,-4.984089600000001,0.0,0.0,0.0,0.0
7.8,203.094336,-2.548128,0.8132064000000001,-5.060594400000001,0.0,0.0,0.0,0.0
7.82,203.646024,-2.8194000000000004,0.4337304,-5.060594400000001,0.0,0.0,0.0,0.0
7.84,204.241908,-2.4399240000000004,1.1387328,-5.2907184,0.0,0.0,0.0,0.0
7.859999999999999,204.8015208,-2.6023824,1.6264128000000002,-5.060594400000001,0.0,0.0,0.0,0.0
7.88,205.398624,-2.0601432,1.5182088,-5.367223200000001,0.0,0.0,0.0,0.0
7.9,206.0134056,-1.6264128000000002,1.4097000000000002,-4.907280000000001,0.0,0.0,0.0,0.0
7.92,206.5672272,-1.5724632,0.9217152000000001,-4.677156,0.0,0.0,0.0,0.0
7.9399999999999995,207.206088,-2.4399240000000004,1.2469368,-4.8304704,0.0,0.0,0.0,0.0
7.96,207.9043848,-2.2771608000000003,0.8674608,-5.060594400000001,0.0,0.0,0.0,0.0
7.98,208.5612288,-3.0361128,1.5182088,-5.137404,0.0,0.0,0.0,0.0
8.0,209.2348368,-2.6023824,0.9759696,-4.8304704,0.0,0.0,0.0,0.0
8.02,210.0001896,-2.8736544000000004,1.1387328,-5.060594400000001,0.0,0.0,0.0,0.0
8.04,210.8350368,-2.4941784,0.8674608,-5.2907184,0.0,0.0,0.0,0.0
8.059999999999999,211.732368,-1.9519392,0.9759696,-4.677156,0.0,0.0,0.0,0.0
8.08,212.585808,-1.8976848000000002,1.2469368,-4.7539656,0.0,0.0,0.0,0.0
8.1,213.4276656,-2.4941784,1.4097000000000002,-4.523841600000001,0.0,0.0,0.0,0.0
8.120000000000001,214.2719616,-2.8194000000000004,1.1926824,-4.6006512,0.0,0.0,0.0,0.0
8.14,215.23878720000002,-2.9818584,1.4639544,-4.2172128,0.0,0.0,0.0,0.0
8.16,216.1903728,-3.1446216000000002,1.4097000000000002,-4.4473368,0.0,0.0,0.0,0.0
8.18,217.2586968,-3.2531304000000003,1.0844784,-4.523841600000001,0.0,0.0,0.0,0.0
8.2,218.3035512,-3.957828,1.1387328,-4.7539656,0.0,0.0,0.0,0.0
8.219999999999999,219.33865200000002,-3.4158936000000004,1.030224,-4.2937176,0.0,0.0,0.0,0.0
8.24,220.2902376,-2.4399240000000004,0.5964936000000001,-4.6006512,0.0,0.0,0.0,0.0
8.26,221.242128,-2.6023824,0.4337304,-4.0638984,0.0,0.0,0.0,0.0
8.280000000000001,222.14372640000002,-2.7651456,0.4879848,-4.4473368,0.0,0.0,0.0,0.0
8.3,223.10902800000002,-2.2229064000000003,0.7046976,-4.1404032,0.0,0.0,0.0,0.0
8.32,224.0438496,-1.8976848000000002,0.37947600000000004,-4.2172128,0.0,0.0,0.0,0.0
8.34,225.03627840000001,-2.4399240000000004,0.4879848,-4.2172128,0.0,0.0,0.0,0.0
8.36,226.003104,-2.3314152,0.7046976,-4.1404032,0.0,0.0,0.0,0.0
8.379999999999999,226.9583472,-1.5182088,1.3011912,-3.9870888,0.0,0.0,0.0,0.0
8.4,227.95077600000002,-1.0844784,1.3011912,-4.1404032,0.0,0.0,0.0,0.0
8.42,228.852984,-0.2170176,0.8674608,-4.0638984,0.0,0.0,0.0,0.0
8.440000000000001,229.7740896,-0.2709672,0.2709672,-3.8337744,0.0,0.0,0.0,0.0
8.46,230.74670640000002,-0.37947600000000004,0.9217152000000001,-3.6036504000000003,0.0,0.0,0.0,0.0
8.48,231.6181296,-0.4337304,0.8674608,-3.7572696000000003,0.0,0.0,0.0,0.0
8.5,232.4874192,-0.4337304,0.8674608,-3.7572696000000003,0.0,0.0,0.0,0.0
8.52,233.4027336,-1.0844784,0.7589520000000001,-3.8337744,0.0,0.0,0.0,0.0
8.54,234.28512959999998,-1.4639544,0.8132064000000001,-3.7572696000000003,0.0,0.0,0.0,0.0
8.559999999999999,235.1641728,-0.7589520000000001,0.8674608,-3.9870888,0.0,0.0,0.0,0.0
8.58,236.0529696,-1.030224,0.9217152000000001,-3.7572696000000003,0.0,0.0,0.0,0.0
8.6,236.92347840000002,-1.5724632,0.8132064000000001,-3.7572696000000003,0.0,0.0,0.0,0.0
8.620000000000001,237.768384,-0.7046976,1.030224,-3.68046,0.0,0.0,0.0,0.0
8.64,238.62852959999998,-1.6806672000000002,1.1387328,-3.3738312000000006,0.0,0.0,0.0,0.0
8.66,239.5261656,-1.9519392,0.7589520000000001,-3.5271456,0.0,0.0,0.0,0.0
8.68,240.40795200000002,-2.6566368,0.9217152000000001,-3.68046,0.0,0.0,0.0,0.0
8.7,241.3601472,-2.3314152,0.9217152000000001,-3.68046,0.0,0.0,0.0,0.0
8.719999999999999,242.3120376,-2.9279088,1.0844784,-3.68046,0.0,0.0,0.0,0.0
8.74,243.167916,-2.8194000000000004,0.9759696,-3.6036504000000003,0.0,0.0,0.0,0.0
8.76,244.0737816,-2.6023824,0.8674608,-3.5271456,0.0,0.0,0.0,0.0
8.780000000000001,245.0814504,-2.8194000000000004,0.4337304,-3.450336,0.0,0.0,0.0,0.0
8.8,245.9732952,-2.2771608000000003,0.3252216,-3.2205168000000004,0.0,0.0,0.0,0.0
8.82,247.08947279999998,-2.3856696,0.3252216,-3.1437072,0.0,0.0,0.0,0.0
8.84,247.98710880000002,-2.6566368,0.5964936000000001,-3.2970216000000003,0.0,0.0,0.0,0.0
8.86,248.98593839999998,-2.3314152,0.0542544,-3.1437072,0.0,0.0,0.0,0.0
8.879999999999999,249.8180424,-1.9519392,0.0,-3.3738312000000006,0.0,0.0,0.0,0.0
8.9,250.7013528,-1.9519392,0.3252216,-3.2970216000000003,0.0,0.0,0.0,0.0
8.92,251.5304088,-2.548128,0.37947600000000004,-3.1437072,0.0,0.0,0.0,0.0
8.940000000000001,252.354588,-2.0601432,0.5422392,-3.2205168000000004,0.0,0.0,0.0,0.0
8.96,253.2778272,-1.6806672000000002,0.16276320000000002,-3.2205168000000004,0.0,0.0,0.0,0.0
8.98,254.12334239999998,-1.6806672000000002,0.37947600000000004,-3.0672024,0.0,0.0,0.0,0.0
9.0,254.99537519999998,-1.3011912,0.9759696,-2.9903928,0.0,0.0,0.0,0.0
9.02,255.9280632,-0.5964936000000001,0.8132064000000001,-2.9903928,0.0,0.0,0.0,0.0
9.04,256.8759912,-0.8674608,1.0844784,-2.9903928,0.0,0.0,0.0,0.0
9.059999999999999,257.8860984,-0.7046976,1.030224,-2.9135831999999997,0.0,0.0,0.0,0.0
9.08,258.8510952,-1.0844784,1.4097000000000002,-2.8370784000000002,0.0,0.0,0.0,0.0
9.1,259.71764160000004,-1.2469368,1.2469368,-2.8370784000000002,0.0,0.0,0.0,0.0
9.120000000000001,260.67898080000003,-0.8132064000000001,1.1387328,-2.9135831999999997,0.0,0.0,0.0,0.0
9.14,261.5293728,-0.8132064000000001,1.2469368,-2.7602688,0.0,0.0,0.0,0.0
9.16,262.51326720000003,-1.030224,1.2469368,-2.683764,0.0,0.0,0.0,0.0
9.18,263.4441264,-0.5964936000000001,1.2469368,-2.7602688,0.0,0.0,0.0,0.0
9.2,264.401808,-0.9217152000000001,1.5724632,-2.7602688,0.0,0.0,0.0,0.0
9.219999999999999,265.3445544,-0.8674608,1.6264128000000002,-2.5304496,0.0,0.0,0.0,0.0
9.24,266.2623072,-0.9217152000000001,1.1387328,-2.3768304000000002,0.0,0.0,0.0,0.0
9.26,267.01485840000004,-0.9217152000000001,0.8132064000000001,-2.3768304000000002,0.0,0.0,0.0,0.0
9.280000000000001,267.7716768,-0.8674608,0.650748,-2.6069544000000002,0.0,0.0,0.0,0.0
9.3,268.56964320000003,-0.9759696,0.5422392,-2.6069544000000002,0.0,0.0,0.0,0.0
9.32,269.4044904,-1.1926824,0.7589520000000001,-2.4536400000000005,0.0,0.0,0.0,0.0
9.34,270.1878264,-1.3554456000000001,0.37947600000000004,-2.5304496,0.0,0.0,0.0,0.0
9.36,270.9998136,-1.6264128000000002,0.2170176,-2.6069544000000002,0.0,0.0,0.0,0.0
9.379999999999999,271.741392,-1.4639544,0.37947600000000004,-2.683764,0.0,0.0,0.0,0.0
9.4,272.4598056,-1.4639544,0.37947600000000004,-2.4536400000000005,0.0,0.0,0.0,0.0
9.42,273.2696592,-1.7349216,0.9759696,-2.5304496,0.0,0.0,0.0,0.0
9.440000000000001,274.0255632,-1.5182088,0.7589520000000001,-2.5304496,0.0,0.0,0.0,0.0
9.46,274.78482,-1.9519392,0.650748,-2.4536400000000005,0.0,0.0,0.0,0.0
9.48,275.5236552,-1.8434304000000001,0.8674608,-2.3003256,0.0,0.0,0.0,0.0
9.5,276.307296,-2.2771608000000003,0.9759696,-2.3003256,0.0,0.0,0.0,0.0
9.52,277.10404320000004,-1.8434304000000001,0.7589520000000001,-2.3003256,0.0,0.0,0.0,0.0
9.54,277.8187992,-1.6264128000000002,1.1926824,-2.3768304000000002,0.0,0.0,0.0,0.0
9.559999999999999,278.6691912,-1.8976848000000002,1.030224,-2.4536400000000005,0.0,0.0,0.0,0.0
9.58,279.52537440000003,-2.2771608000000003,0.650748,-2.223516,0.0,0.0,0.0,0.0
9.6,280.3391904,-1.7349216,0.9759696,-2.4536400000000005,0.0,0.0,0.0,0.0
9.620000000000001,281.22524400000003,-2.0061936,0.5964936000000001,-2.1470112,0.0,0.0,0.0,0.0
9.64,282.0168096,-2.3856696,0.7589520000000001,-2.223516,0.0,0.0,0.0,0.0
9.66,282.82148159999997,-2.6566368,0.7046976,-2.223516,0.0,0.0,0.0,0.0
9.68,283.5773856,-2.3314152,0.5964936000000001,-2.223516,0.0,0.0,0.0,0.0
9.7,284.4509424,-2.0061936,0.4879848,-2.223516,0.0,0.0,0.0,0.0
9.719999999999999,285.3391296,-1.3011912,1.3011912,-1.9936968000000002,0.0,0.0,0.0,0.0
9.74,286.2267072,-0.8132064000000001,1.6806672000000002,-1.9168872,0.0,0.0,0.0,0.0
9.76,287.1258672,-0.8132064000000001,1.2469368,-1.9936968000000002,0.0,0.0,0.0,0.0
9.780000000000001,287.923224,-0.5964936000000001,1.3554456000000001,-1.6867632000000001,0.0,0.0,0.0,0.0
9.8,288.7791024,-0.4337304,1.6264128000000002,-1.8400776,0.0,0.0,0.0,0.0
9.82,289.5411024,-0.4879848,1.3554456000000001,-1.8400776,0.0,0.0,0.0,0.0
9.84,290.3076744,-0.4879848,1.4639544,-1.7635728,0.0,0.0,0.0,0.0
9.86,290.9919504,-0.37947600000000004,1.1387328,-1.8400776,0.0,0.0,0.0,0.0
9.879999999999999,291.970968,-0.3252216,0.9759696,-1.8400776,0.0,0.0,0.0,0.0
9.9,292.8865872,-0.3252216,0.9759696,-1.8400776,0.0,0.0,0.0,0.0
9.92,293.784528,-0.3252216,0.9759696,-1.7635728,0.0,0.0,0.0,0.0
9.940000000000001,294.6266904,-0.37947600000000004,1.030224,-1.7635728,0.0,0.0,0.0,0.0
9.96,295.4344104,-0.4879848,0.8132064000000001,-1.6867632000000001,0.0,0.0,0.0,0.0
9.98,296.1662352,-0.4879848,0.8132064000000001,-1.6102584000000002,0.0,0.0,0.0,0.0
10.0,296.8907448,-0.5422392,0.7589520000000001,-1.7635728,0.0,0.0,0.0,0.0
10.02,297.6487824,-0.5422392,0.7589520000000001,-1.6102584000000002,0.0,0.0,0.0,0.0
10.04,298.47204719999996,-0.650748,0.650748,-1.6102584000000002,0.0,0.0,0.0,0.0
10.059999999999999,299.1575424,-0.7046976,0.4879848,-1.7635728,0.0,0.0,0.0,0.0
10.08,299.7878688,-0.8132064000000001,0.4879848,-1.6102584000000002,0.0,0.0,0.0,0.0
10.1,300.46757279999997,-0.8674608,0.650748,-1.6867632000000001,0.0,0.0,0.0,0.0
10.120000000000001,301.1664792,-0.9217152000000001,0.37947600000000004,-1.8400776,0.0,0.0,0.0,0.0
10.14,301.9467672,-1.0844784,0.4337304,-1.6102584000000002,0.0,0.0,0.0,0.0
10.16,302.67402,-0.9217152000000001,0.4879848,-1.7635728,0.0,0.0,0.0,0.0
10.18,303.4524792,-1.030224,0.2709672,-1.4569440000000002,0.0,0.0,0.0,0.0
10.2,304.2175272,-1.0844784,0.2170176,-1.5334488,0.0,0.0,0.0,0.0
10.219999999999999,305.054508,-0.9759696,0.3252216,-1.5334488,0.0,0.0,0.0,0.0
10.24,305.76012000000003,-1.1926824,0.5422392,-1.6867632000000001,0.0,0.0,0.0,0.0
10.26,306.496212,-1.1926824,0.3252216,-1.6867632000000001,0.0,0.0,0.0,0.0
10.280000000000001,307.2115776,-1.2469368,0.2709672,-1.6102584000000002,0.0,0.0,0.0,0.0
10.3,307.90987440000004,-1.3554456000000001,0.4879848,-1.6102584000000002,0.0,0.0,0.0,0.0
10.32,308.812692,-1.3554456000000001,0.2709672,-1.6102584000000002,0.0,0.0,0.0,0.0
10.34,309.6466248,-1.1387328,0.2709672,-1.4569440000000002,0.0,0.0,0.0,0.0
10.36,310.4104536,-1.1387328,0.37947600000000004,-1.4569440000000002,0.0,0.0,0.0,0.0
10.379999999999999,311.112408,-1.1926824,0.2170176,-1.3801344,0.0,0.0,0.0,0.0
10.4,311.857644,-1.5182088,0.3252216,-1.5334488,0.0,0.0,0.0,0.0
10.42,312.54588240000004,-1.2469368,0.16276320000000002,-1.3801344,0.0,0.0,0.0,0.0
10.440000000000001,313.11372480000006,-1.4097000000000002,0.1085088,-1.5334488,0.0,0.0,0.0,0.0
10.46,313.75837680000006,-1.4097000000000002,0.3252216,-1.3801344,0.0,0.0,0.0,0.0
10.48,314.42436480000003,-1.2469368,0.5964936000000001,-1.3801344,0.0,0.0,0.0,0.0
10.5,315.0254304,-1.2469368,0.5964936000000001,-1.3036296,0.0,0.0,0.0,0.0
10.52,315.7383576000001,-1.1387328,0.5964936000000001,-1.5334488,0.0,0.0,0.0,0.0
10.54,316.4418360000001,-1.0844784,0.7589520000000001,-1.3801344,0.0,0.0,0.0,0.0
10.559999999999999,317.0892312000001,-1.030224,0.9217152000000001,-1.4569440000000002,0.0,0.0,0.0,0.0
10.58,317.7351024000001,-0.9759696,0.8674608,-1.2268200000000002,0.0,0.0,0.0,0.0
10.6,318.4419336,-0.9759696,0.8674608,-1.1500104,0.0,0.0,0.0,0.0
10.620000000000001,319.1905224,-0.9217152000000001,0.9217152000000001,-1.0735056,0.0,0.0,0.0,0.0
10.64,319.7903688,-0.8674608,0.9759696,-1.3036296,0.0,0.0,0.0,0.0
10.66,320.3764992,-0.9759696,0.8674608,-1.0735056,0.0,0.0,0.0,0.0
10.68,320.98640400000005,-0.9217152000000001,1.1387328,-1.1500104,0.0,0.0,0.0,0.0
10.7,321.6298368000001,-0.7589520000000001,1.0844784,-1.2268200000000002,0.0,0.0,0.0,0.0
10.719999999999999,322.25437200000005,-0.8132064000000001,1.030224,-1.2268200000000002,0.0,0.0,0.0,0.0
10.74,322.7905152000001,-0.8132064000000001,0.9217152000000001,-1.0735056,0.0,0.0,0.0,0.0
10.76,323.3022744,-1.3554456000000001,0.7046976,-1.1500104,0.0,0.0,0.0,0.0
10.780000000000001,323.85396240000006,-1.3554456000000001,0.8132064000000001,-1.0735056,0.0,0.0,0.0,0.0
10.8,324.4160136,-1.3011912,0.9759696,-1.1500104,0.0,0.0,0.0,0.0
10.82,325.14570480000003,-1.3011912,0.8674608,-1.2268200000000002,0.0,0.0,0.0,0.0
10.84,325.81443600000006,-1.0844784,0.650748,-1.0735056,0.0,0.0,0.0,0.0
10.86,326.55022320000006,-0.8132064000000001,0.9217152000000001,-1.0735056,0.0,0.0,0.0,0.0
10.879999999999999,327.1732344,-0.8674608,0.7589520000000001,-1.1500104,0.0,0.0,0.0,0.0
10.9,327.821544,-0.650748,0.7589520000000001,-0.9201912000000001,0.0,0.0,0.0,0.0
10.92,328.44150720000005,-0.5964936000000001,0.7046976,-1.0735056,0.0,0.0,0.0,0.0
10.940000000000001,329.02672320000005,-0.7589520000000001,0.5422392,-0.996696,0.0,0.0,0.0,0.0
10.96,329.73995520000005,-0.7589520000000001,0.650748,-0.996696,0.0,0.0,0.0,0.0
10.98,330.2715264,-0.8674608,0.650748,-0.8433816000000001,0.0,0.0,0.0,0.0
11.0,330.88905120000004,-0.8674608,0.4337304,-0.8433816000000001,0.0,0.0,0.0,0.0
11.02,331.54467600000004,-0.650748,0.4337304,-0.7668768,0.0,0.0,0.0,0.0
11.04,332.18567040000005,-0.650748,0.5422392,-0.8433816000000001,0.0,0.0,0.0,0.0
11.059999999999999,332.72973840000003,-0.650748,0.4337304,-0.8433816000000001,0.0,0.0,0.0,0.0
11.08,333.33354720000005,-0.650748,0.4337304,-0.9201912000000001,0.0,0.0,0.0,0.0
11.1,333.9184584000001,-0.5422392,0.4337304,-0.8433816000000001,0.0,0.0,0.0,0.0
11.120000000000001,334.49849280000007,-0.7046976,0.37947600000000004,-0.8433816000000001,0.0,0.0,0.0,0.0
11.14,335.03798880000005,-0.650748,0.3252216,-0.7668768,0.0,0.0,0.0,0.0
11.16,335.57016960000004,-0.8132064000000001,0.2709672,-0.7668768,0.0,0.0,0.0,0.0
11.18,336.0596784,-0.9217152000000001,0.16276320000000002,-0.7668768,0.0,0.0,0.0,0.0
11.2,336.5869824,-1.030224,0.16276320000000002,-0.8433816000000001,0.0,0.0,0.0,0.0
11.219999999999999,337.27918320000003,-0.8132064000000001,0.16276320000000002,-0.8433816000000001,0.0,0.0,0.0,0.0
11.24,337.9680312000001,-0.8674608,0.3252216,-0.8433816000000001,0.0,0.0,0.0,0.0
11.26,338.56787760000003,-0.8132064000000001,0.37947600000000004,-0.8433816000000001,0.0,0.0,0.0,0.0
11.280000000000001,339.138768,-0.8132064000000001,0.37947600000000004,-0.6900672,0.0,0.0,0.0,0.0
11.3,339.6496128,-0.8132064000000001,0.37947600000000004,-0.6900672,0.0,0.0,0.0,0.0
11.32,340.1833176,-0.650748,0.5422392,-0.8433816000000001,0.0,0.0,0.0,0.0
11.34,340.6286304,-0.650748,0.5422392,-0.7668768,0.0,0.0,0.0,0.0
11.36,341.0327952,-0.5964936000000001,0.2709672,-0.6900672,0.0,0.0,0.0,0.0
11.379999999999999,341.5268760000001,-0.8132064000000001,0.2709672,-0.6900672,0.0,0.0,0.0,0.0
11.4,342.05082720000007,-0.7046976,0.37947600000000004,-0.6900672,0.0,0.0,0.0,0.0
11.42,342.56441520000004,-0.7589520000000001,0.3252216,-0.6900672,0.0,0.0,0.0,0.0
11.440000000000001,343.08013680000005,-0.7589520000000001,0.3252216,-0.6900672,0.0,0.0,0.0,0.0
11.46,343.6135368000001,-0.8132064000000001,0.2709672,-0.6900672,0.0,0.0,0.0,0.0
11.48,344.196924,-0.9217152000000001,0.16276320000000002,-0.6135624,0.0,0.0,0.0,0.0
11.5,344.7263616000001,-0.9759696,0.2170176,-0.6900672,0.0,0.0,0.0,0.0
11.52,345.2478744,-0.9759696,0.2170176,-0.6135624,0.0,0.0,0.0,0.0
11.54,345.75902400000007,-0.9217152000000001,0.16276320000000002,-0.6135624,0.0,0.0,0.0,0.0
11.559999999999999,346.20189840000006,-0.8674608,0.2170176,-0.6900672,0.0,0.0,0.0,0.0
11.58,346.6371528,-0.7046976,0.2709672,-0.6135624,0.0,0.0,0.0,0.0
11.6,347.10197280000006,-0.7589520000000001,0.2170176,-0.6135624,0.0,0.0,0.0,0.0
11.620000000000001,347.72498400000006,-0.8132064000000001,0.16276320000000002,-0.5367528,0.0,0.0,0.0,0.0
11.64,348.18492720000006,-0.7589520000000001,0.2170176,-0.5367528,0.0,0.0,0.0,0.0
11.66,348.7573416000001,-0.650748,0.2170176,-0.6135624,0.0,0.0,0.0,0.0
11.68,349.3279272000001,-0.7046976,0.2709672,-0.6135624,0.0,0.0,0.0,0.0
11.7,349.7762880000001,-0.650748,0.3252216,-0.6135624,0.0,0.0,0.0,0.0
11.719999999999999,350.32767120000005,-0.7589520000000001,0.3252216,-0.5367528,0.0,0.0,0.0,0.0
11.74,350.8424784,-0.7046976,0.37947600000000004,-0.4599432,0.0,0.0,0.0,0.0
11.76,351.2673696,-0.7046976,0.37947600000000004,-0.5367528,0.0,0.0,0.0,0.0
11.780000000000001,351.70049040000004,-0.7046976,0.2709672,-0.4599432,0.0,0.0,0.0,0.0
11.8,352.2028008000001,-0.7046976,0.37947600000000004,-0.4599432,0.0,0.0,0.0,0.0
11.82,352.64110320000003,-0.7046976,0.4879848,-0.5367528,0.0,0.0,0.0,0.0
11.84,353.03825760000007,-0.650748,0.4337304,-0.4599432,0.0,0.0,0.0,0.0
11.86,353.5737912,-0.650748,0.4337304,-0.4599432,0.0,0.0,0.0,0.0
11.879999999999999,353.9587536000001,-0.7046976,0.37947600000000004,-0.3834384,0.0,0.0,0.0,0.0
11.9,354.45984480000004,-0.7046976,0.37947600000000004,-0.4599432,0.0,0.0,0.0,0.0
11.92,354.88839360000003,-0.5964936000000001,0.37947600000000004,-0.3834384,0.0,0.0,0.0,0.0
11.940000000000001,355.2681744,-0.650748,0.3252216,-0.23012400000000002,0.0,0.0,0.0,0.0
11.96,355.66807200000005,-0.7046976,0.37947600000000004,-0.3834384,0.0,0.0,0.0,0.0
11.98,356.2185408000001,-0.5964936000000001,0.37947600000000004,-0.3834384,0.0,0.0,0.0,0.0
12.0,356.63184960000007,-0.5964936000000001,0.2709672,-0.3834384,0.0,0.0,0.0,0.0
12.02,357.03814800000004,-0.5964936000000001,0.2709672,-0.3834384,0.0,0.0,0.0,0.0
12.04,357.4865088,-0.650748,0.2170176,-0.30662880000000003,0.0,0.0,0.0,0.0
12.059999999999999,357.813864,-0.7046976,0.37947600000000004,-0.30662880000000003,0.0,0.0,0.0,0.0
12.079999999999998,358.1838912,-0.650748,0.2170176,-0.30662880000000003,0.0,0.0,0.0,0.0
12.100000000000001,358.64048160000004,-0.5964936000000001,0.2709672,-0.30662880000000003,0.0,0.0,0.0,0.0
12.120000000000001,358.9525968000001,-0.650748,0.2170176,-0.3834384,0.0,0.0,0.0,0.0
12.14,359.3253672000001,-0.650748,0.2170176,-0.30662880000000003,0.0,0.0,0.0,0.0
12.16,359.7130728,-0.650748,0.3252216,-0.3834384,0.0,0.0,0.0,0.0
12.18,360.09041520000005,-0.5964936000000001,0.2709672,-0.30662880000000003,0.0,0.0,0.0,0.0
12.2,360.4354488000001,-0.5422392,0.1085088,-0.30662880000000003,0.0,0.0,0.0,0.0
12.219999999999999,360.83900400000005,-0.5964936000000001,0.16276320000000002,-0.30662880000000003,0.0,0.0,0.0,0.0
12.239999999999998,361.30321440000006,-0.5964936000000001,0.16276320000000002,-0.30662880000000003,0.0,0.0,0.0,0.0
12.260000000000002,361.61441520000005,-0.5964936000000001,0.16276320000000002,-0.30662880000000003,0.0,0.0,0.0,0.0
12.280000000000001,361.9771272000001,-0.7046976,0.2709672,-0.30662880000000003,0.0,0.0,0.0,0.0
12.3,362.42244000000005,-0.5964936000000001,0.37947600000000004,-0.30662880000000003,0.0,0.0,0.0,0.0
12.32,362.7062088,-0.5422392,0.2170176,-0.23012400000000002,0.0,0.0,0.0,0.0
12.34,362.94913440000005,-0.5422392,0.3252216,-0.3834384,0.0,0.0,0.0,0.0
12.36,363.2694792000001,-0.7046976,0.16276320000000002,-0.30662880000000003,0.0,0.0,0.0,0.0
12.379999999999999,363.7150968000001,-0.7046976,0.16276320000000002,-0.30662880000000003,0.0,0.0,0.0,0.0
12.399999999999999,364.0046568,-0.7589520000000001,0.2170176,-0.23012400000000002,0.0,0.0,0.0,0.0
12.420000000000002,364.2536784,-0.650748,0.2170176,-0.23012400000000002,0.0,0.0,0.0,0.0
12.440000000000001,364.58133840000005,-0.7589520000000001,0.2170176,-0.23012400000000002,0.0,0.0,0.0,0.0
12.46,364.96477680000004,-0.7589520000000001,0.2170176,-0.30662880000000003,0.0,0.0,0.0,0.0
12.48,365.28481680000004,-0.650748,0.2170176,-0.23012400000000002,0.0,0.0,0.0,0.0
12.5,365.60150400000003,-0.7046976,0.16276320000000002,-0.30662880000000003,0.0,0.0,0.0,0.0
12.52,366.0715056000001,-0.7046976,0.0542544,-0.15331440000000002,0.0,0.0,0.0,0.0
12.54,366.42080640000006,-0.8132064000000001,0.16276320000000002,-0.30662880000000003,0.0,0.0,0.0,0.0
12.559999999999999,366.6640368000001,-0.7046976,0.16276320000000002,-0.23012400000000002,0.0,0.0,0.0,0.0
12.579999999999998,366.951768,-0.7046976,0.16276320000000002,-0.15331440000000002,0.0,0.0,0.0,0.0
12.600000000000001,367.3141752000001,-0.7046976,0.0542544,-0.15331440000000002,0.0,0.0,0.0,0.0
12.620000000000001,367.71590160000005,-0.7046976,0.16276320000000002,-0.23012400000000002,0.0,0.0,0.0,0.0
12.64,367.95699840000003,-0.7046976,0.0542544,-0.23012400000000002,0.0,0.0,0.0,0.0
12.66,368.29136400000004,-0.650748,0.1085088,-0.15331440000000002,0.0,0.0,0.0,0.0
12.68,368.59707840000004,-0.5964936000000001,0.0542544,-0.23012400000000002,0.0,0.0,0.0,0.0
12.7,368.9030976000001,-0.7046976,0.0542544,-0.23012400000000002,0.0,0.0,0.0,0.0
12.719999999999999,369.28165920000004,-0.7589520000000001,0.2170176,-0.23012400000000002,0.0,0.0,0.0,0.0
12.739999999999998,369.6257784,-0.650748,0.1085088,-0.23012400000000002,0.0,0.0,0.0,0.0
12.760000000000002,369.915948,-0.7046976,-0.0542544,-0.0768096,0.0,0.0,0.0,0.0
12.780000000000001,370.12290720000004,-0.7046976,0.0542544,-0.0768096,0.0,0.0,0.0,0.0
12.8,370.4670264,-0.650748,0.0,-0.0768096,0.0,0.0,0.0,0.0
12.82,370.770912,-0.650748,0.1085088,-0.15331440000000002,0.0,0.0,0.0,0.0
12.84,371.0522424,-0.650748,0.1085088,-0.23012400000000002,0.0,0.0,0.0,0.0
12.86,371.3253432,-0.7046976,0.16276320000000002,-0.0768096,0.0,0.0,0.0,0.0
12.879999999999999,371.6057592,-0.7589520000000001,0.0,-0.15331440000000002,0.0,0.0,0.0,0.0
12.899999999999999,371.93006640000004,-0.7589520000000001,0.1085088,-0.0768096,0.0,0.0,0.0,0.0
12.920000000000002,372.14373120000005,-0.7589520000000001,0.0,-0.0768096,0.0,0.0,0.0,0.0
12.940000000000001,372.3866568,-0.650748,0.1085088,-0.15331440000000002,0.0,0.0,0.0,0.0
12.96,372.69267600000006,-0.650748,0.0,-0.15331440000000002,0.0,0.0,0.0,0.0
12.98,373.09806000000003,-0.7589520000000001,0.1085088,-0.23012400000000002,0.0,0.0,0.0,0.0
13.0,373.31172480000004,-0.7046976,0.0542544,-0.15331440000000002,0.0,0.0,0.0,0.0
13.02,373.5805584000001,-0.7589520000000001,0.1085088,-0.15331440000000002,0.0,0.0,0.0,0.0
13.04,373.77380160000007,-0.7589520000000001,0.1085088,-0.15331440000000002,0.0,0.0,0.0,0.0
13.059999999999999,373.97679840000006,-0.8132064000000001,0.0542544,-0.15331440000000002,0.0,0.0,0.0,0.0
13.079999999999998,374.1279792000001,-0.8674608,0.0,0.0768096,0.0,0.0,0.0,0.0
13.100000000000001,374.3590176,-0.9217152000000001,0.0542544,-0.15331440000000002,0.0,0.0,0.0,0.0
13.120000000000001,374.5970664000001,-0.9217152000000001,0.0542544,-0.0768096,0.0,0.0,0.0,0.0
13.14,374.768364,-0.9759696,0.0,0.0,0.0,0.0,0.0,0.0
13.16,375.0536568,-0.8132064000000001,0.0542544,-0.0768096,0.0,0.0,0.0,0.0
13.18,375.23166000000003,-0.9759696,0.0,0.0,0.0,0.0,0.0,0.0
13.2,375.42703680000005,-0.9759696,0.0,0.0,0.0,0.0,0.0,0.0
13.219999999999999,375.68520240000004,-0.9217152000000001,0.0542544,-0.0768096,0.0,0.0,0.0,0.0
13.239999999999998,375.88057920000006,-0.8674608,0.1085088,0.0,0.0,0.0,0.0,0.0
13.260000000000002,376.02962640000004,-0.9217152000000001,0.0542544,-0.15331440000000002,0.0,0.0,0.0,0.0
13.280000000000001,376.2408528,-0.9217152000000001,0.0542544,-0.0768096,0.0,0.0,0.0,0.0
13.3,376.50298080000005,-0.9217152000000001,0.0542544,-0.15331440000000002,0.0,0.0,0.0,0.0
13.32,376.7352384,-0.8674608,0.1085088,-0.15331440000000002,0.0,0.0,0.0,0.0
13.34,377.03942880000005,-0.8132064000000001,0.0542544,-0.0768096,0.0,0.0,0.0,0.0
13.36,377.32197840000003,-0.8674608,0.1085088,-0.0768096,0.0,0.0,0.0,0.0
13.379999999999999,377.6081856,-0.8674608,0.1085088,-0.0768096,0.0,0.0,0.0,0.0
13.399999999999999,377.89713600000005,-0.9759696,0.0,-0.15331440000000002,0.0,0.0,0.0,0.0
13.420000000000002,378.12726000000004,-0.9759696,0.1085088,-0.0768096,0.0,0.0,0.0,0.0
13.440000000000001,378.4034088,-0.9217152000000001,-0.0542544,-0.0768096,0.0,0.0,0.0,0.0
13.46,378.63231360000003,-0.9217152000000001,0.0542544,-0.0768096,0.0,0.0,0.0,0.0
13.48,378.78715200000005,-0.8674608,0.0,0.0,0.0,0.0,0.0,0.0
13.5,378.91394880000007,-0.8132064000000001,-0.0542544,-0.0768096,0.0,0.0,0.0,0.0
13.52,379.00599840000007,-0.8132064000000001,0.16276320000000002,-0.0768096,0.0,0.0,0.0,0.0
13.54,379.16693280000004,-0.7589520000000001,0.0,-0.0768096,0.0,0.0,0.0,0.0
13.559999999999999,379.411992,-0.7589520000000001,0.0,-0.0768096,0.0,0.0,0.0,0.0
13.579999999999998,379.52202480000005,-0.7589520000000001,0.0,-0.15331440000000002,0.0,0.0,0.0,0.0
13.600000000000001,379.67686320000007,-0.7589520000000001,0.0,-0.15331440000000002,0.0,0.0,0.0,0.0
13.620000000000001,379.7600736,-0.8132064000000001,0.0542544,-0.15331440000000002,0.0,0.0,0.0,0.0
13.64,379.91735040000003,-0.8674608,0.0,-0.0768096,0.0,0.0,0.0,0.0
13.66,380.1026688,-0.8132064000000001,-0.0542544,-0.0768096,0.0,0.0,0.0,0.0
13.68,380.22733200000005,-0.7589520000000001,0.0,-0.0768096,0.0,0.0,0.0,0.0
13.7,380.3602248,-0.8132064000000001,-0.0542544,-0.0768096,0.0,0.0,0.0,0.0
13.719999999999999,380.47696320000006,-0.8674608,-0.1085088,-0.0768096,0.0,0.0,0.0,0.0
13.739999999999998,380.59339680000005,-0.9217152000000001,-0.0542544,-0.15331440000000002,0.0,0.0,0.0,0.0
13.760000000000002,380.75859840000004,-0.8132064000000001,-0.0542544,-0.0768096,0.0,0.0,0.0,0.0
13.780000000000001,380.83266480000003,-0.7589520000000001,-0.1085088,0.0,0.0,0.0,0.0,0.0
13.8,381.035052,-0.8132064000000001,-0.16276320000000002,-0.0768096,0.0,0.0,0.0,0.0
13.82,381.15422880000006,-0.8674608,-0.2170176,0.0,0.0,0.0,0.0,0.0
13.84,381.3230880000001,-0.7589520000000001,-0.2170176,0.0,0.0,0.0,0.0,0.0
13.86,381.3639312000001,-0.8674608,-0.3252216,0.0,0.0,0.0,0.0,0.0
13.879999999999999,381.50078640000004,-0.8674608,-0.4337304,0.0768096,0.0,0.0,0.0,0.0
13.899999999999999,381.61661040000007,-0.8132064000000001,-0.2709672,-0.0768096,0.0,0.0,0.0,0.0
13.920000000000002,381.77236320000003,-0.8674608,-0.4337304,0.0,0.0,0.0,0.0,0.0
13.940000000000001,381.8897112,-0.8132064000000001,-0.37947600000000004,0.0,0.0,0.0,0.0,0.0
13.96,381.90129360000003,-0.9759696,-0.4337304,0.0,0.0,0.0,0.0,0.0
13.98,382.06619040000004,-0.9217152000000001,-0.4879848,0.0,0.0,0.0,0.0,0.0
14.0,382.1926824,-0.9217152000000001,-0.4879848,0.0,0.0,0.0,0.0,0.0
14.02,382.2493752000001,-0.9759696,-0.5422392,0.0,0.0,0.0,0.0,0.0
14.04,382.3082016000001,-0.9217152000000001,-0.5964936000000001,0.0,0.0,0.0,0.0,0.0
14.059999999999999,382.4316456000001,-1.030224,-0.5964936000000001,-0.0768096,0.0,0.0,0.0,0.0
14.079999999999998,382.5154656,-2.548128,0.7046976,18.4791096,0.0,0.0,0.0,0.0
14.100000000000001,382.59593280000007,-186.6735408,35.4046536,-14.108277600000001,0.0,0.0,0.0,0.0
14.120000000000001,382.673352,-53.8929072,52.808733600000004,-27.833421599999998,0.0,0.0,0.0,0.0
14.14,382.7474184000001,-53.62194000000001,41.2601664,-15.565221600000001,0.0,0.0,0.0,0.0
14.16,382.81843680000003,36.4888272,18.488558400000002,15.871850400000001,0.0,0.0,0.0,0.0
14.18,383.0927568,8.3496912,10.3013256,2.7602688,0.0,0.0,0.0,0.0
14.2,383.38963200000006,-4.1748456,7.753197600000001,-5.2139088000000005,0.0,0.0,0.0,0.0
14.219999999999999,383.6798016000001,2.4941784,-1.8434304000000001,-1.9168872,0.0,0.0,0.0,0.0
14.239999999999998,383.939796,0.2170176,-1.1926824,-2.9135831999999997,0.0,0.0,0.0,0.0
14.260000000000002,384.19948560000006,-8.4039456,6.018276,-7.9744824,0.0,0.0,0.0,0.0
14.280000000000001,384.42229440000006,-56.7665616,44.9470272,-37.1880384,0.0,0.0,0.0,0.0
14.3,384.6341304,2.3856696,10.0846128,-4.907280000000001,0.0,0.0,0.0,0.0
14.32,384.80847600000004,-7.210958400000001,7.970215200000001,-15.795345600000001,0.0,0.0,0.0,0.0
14.34,384.97276320000003,-21.4161624,4.2833544,-9.3546168,0.0,0.0,0.0,0.0
14.36,385.1199816,-6.2349888,6.9942456,-3.3738312000000006,0.0,0.0,0.0,0.0
14.379999999999999,385.2751248,-0.37947600000000004,0.9217152000000001,-7.0542912,0.0,0.0,0.0,0.0
14.399999999999999,385.42722000000003,-6.4520064,2.7651456,-4.2172128,0.0,0.0,0.0,0.0
14.420000000000002,385.57108560000006,-16.970349600000002,4.5000672,-0.23012400000000002,0.0,0.0,0.0,0.0
14.440000000000001,385.67410800000005,-12.686995200000002,8.3496912,-3.8337744,0.0,0.0,0.0,0.0
14.46,385.7737776,-14.747443200000001,7.2652128,-3.8337744,0.0,0.0,0.0,0.0
14.48,385.8838104000001,-56.7665616,24.9945144,-7.591044000000001,0.0,0.0,0.0,0.0
14.5,385.95696240000007,-108.2737992,48.3083616,-17.5589184,0.0,0.0,0.0,0.0
14.52,386.00390160000006,-84.7974936,7.3737216000000005,-32.8175112,0.0,0.0,0.0,0.0
14.54,386.02828560000006,-18.217286400000003,22.2293688,-42.938700000000004,0.0,0.0,0.0,0.0
14.559999999999999,386.04474480000005,14.909901600000001,-1.030224,-57.1237872,0.0,0.0,0.0,0.0
14.579999999999998,386.05998480000005,3.3073848000000003,1.8976848000000002,0.0,0.0,0.0,0.0,0.0
14.600000000000001,386.06790960000006,2.3856696,3.0361128,0.15331440000000002,0.0,0.0,0.0,0.0
14.620000000000001,386.08436880000005,0.9759696,3.2531304000000003,-4.8304704,0.0,0.0,0.0,0.0
14.64,386.10418080000005,-1.3011912,6.9399912,-8.5109304,0.0,0.0,0.0,0.0
14.66,386.1492912,-2.0601432,8.1326736,-5.903976000000001,0.0,0.0,0.0,0.0
14.68,386.17702800000006,-2.8736544000000004,4.1748456,0.0768096,0.0,0.0,0.0,0.0
14.7,386.16849360000003,-5.8555128,3.9035736000000005,1.3036296,0.0,0.0,0.0,0.0
14.719999999999999,386.0605944,-6.777228,3.5240976,0.6900672,0.0,0.0,0.0,0.0
14.739999999999998,385.88716320000003,-6.506260800000001,5.096560800000001,-1.0735056,0.0,0.0,0.0,0.0
14.760000000000002,385.77347280000004,-4.5000672,7.427976000000001,-5.5205376,0.0,0.0,0.0,0.0
14.780000000000001,385.78383600000006,-3.8496240000000004,6.885736800000001,-9.891369599999999,0.0,0.0,0.0,0.0
14.8,385.8222408000001,-4.5000672,2.0061936,-9.5079312,0.0,0.0,0.0,0.0
