time,baro_altitude,accl_x,accl_y,accl_z,gps_altitude,gyro_roll,gyro_pitch,gyro_yaw
0.0,0.0,-9.976104,-1.9519392,1.7635728,0.0,0.0,0.0,0.0
0.020000000000000462,0.08442960000000001,-9.976104,-1.8434304000000001,1.6867632000000001,0.0,0.0,0.0,0.0
0.040000000000000036,0.0762,-9.9218496,-2.0061936,1.7635728,0.0,0.0,0.0,0.0
0.0600000000000005,-0.019812000000000003,-9.9218496,-1.789176,1.6102584000000002,0.0,0.0,0.0,0.0
0.08000000000000007,-0.0124968,-9.867595200000002,-1.8434304000000001,1.6867632000000001,0.0,0.0,0.0,0.0
0.10000000000000053,-0.185928,-9.976104,-1.8434304000000001,1.6867632000000001,0.0,0.0,0.0,0.0
0.1200000000000001,-0.2218944,-9.867595200000002,-1.8434304000000001,1.6867632000000001,0.0,0.0,0.0,0.0
0.14000000000000057,-0.11247120000000001,-9.9218496,-1.8976848000000002,1.6867632000000001,0.0,0.0,0.0,0.0
0.16000000000000014,-0.028956000000000003,-9.9218496,-1.8976848000000002,1.6867632000000001,0.0,0.0,0.0,0.0
0.1800000000000006,-0.06096000000000001,-9.976104,-1.9519392,1.7635728,0.0,0.0,0.0,0.0
0.20000000000000018,-0.039014400000000005,-9.9218496,-1.8976848000000002,1.7635728,0.0,0.0,0.0,0.0
0.22000000000000064,-0.2410968,-9.9218496,-1.8976848000000002,1.6867632000000001,0.0,0.0,0.0,0.0
0.2400000000000002,-0.1621536,-10.0303584,-1.8976848000000002,1.6867632000000001,0.0,0.0,0.0,0.0
0.2600000000000007,-0.2490216,-9.867595200000002,-1.8434304000000001,1.7635728,0.0,0.0,0.0,0.0
0.28000000000000025,0.0679704,-9.976104,-1.8434304000000001,1.7635728,0.0,0.0,0.0,0.0
0.3000000000000007,-0.0371856,-9.9218496,-1.8976848000000002,1.6102584000000002,0.0,0.0,0.0,0.0
0.3200000000000003,-0.08381999999999999,-9.9218496,-1.8976848000000002,1.7635728,0.0,0.0,0.0,0.0
0.34000000000000075,-0.021336000000000004,-9.976104,-1.9519392,1.6867632000000001,0.0,0.0,0.0,0.0
0.3600000000000003,-0.023164800000000006,-9.976104,-1.9519392,1.7635728,0.0,0.0,0.0,0.0
0.3800000000000008,-0.2441448,-10.0303584,-1.8976848000000002,1.6867632000000001,0.0,0.0,0.0,0.0
0.40000000000000036,-0.2310384,-9.9218496,-2.0061936,1.7635728,0.0,0.0,0.0,0.0
0.4200000000000004,-0.2170176,-9.9218496,-1.8976848000000002,1.7635728,0.0,0.0,0.0,0.0
0.4400000000000004,-0.1344168,-9.9218496,-2.0061936,1.6867632000000001,0.0,0.0,0.0,0.0
0.4600000000000004,-0.1542288,-9.976104,-1.8434304000000001,1.7635728,0.0,0.0,0.0,0.0
0.4800000000000004,-0.23561040000000003,-9.9218496,-1.8976848000000002,1.6867632000000001,0.0,0.0,0.0,0.0
0.5000000000000004,-0.1472184,-9.976104,-1.8434304000000001,1.6867632000000001,0.0,0.0,0.0,0.0
0.5200000000000005,-0.06126480000000001,-9.9218496,-1.8976848000000002,1.6867632000000001,0.0,0.0,0.0,0.0
0.5400000000000005,-0.1591056,-9.9218496,-1.8976848000000002,1.6867632000000001,0.0,0.0,0.0,0.0
0.5600000000000005,0.0713232,-9.813645600000001,-1.8976848000000002,1.6102584000000002,0.0,0.0,0.0,0.0
0.5800000000000005,0.17739360000000004,-9.867595200000002,-1.9519392,1.6867632000000001,0.0,0.0,0.0,0.0
0.6000000000000005,0.17526000000000003,-9.976104,-1.8434304000000001,1.6867632000000001,0.0,0.0,0.0,0.0
0.6200000000000006,0.16245840000000003,-9.976104,-1.8434304000000001,1.6867632000000001,0.0,0.0,0.0,0.0
0.6400000000000006,0.0652272,-9.976104,-1.8434304000000001,1.6867632000000001,0.0,0.0,0.0,0.0
0.6600000000000001,0.10180320000000001,-10.0303584,-1.8976848000000002,1.8400776,0.0,0.0,0.0,0.0
0.6800000000000002,0.025908,-9.9218496,-1.8976848000000002,1.6867632000000001,0.0,0.0,0.0,0.0
0.7000000000000002,-0.08656319999999999,-9.976104,-1.8434304000000001,1.7635728,0.0,0.0,0.0,0.0
0.7200000000000002,-0.0064008,-9.976104,-1.9519392,1.6867632000000001,0.0,0.0,0.0,0.0
0.7400000000000002,-0.131064,-9.9218496,-1.8976848000000002,1.7635728,0.0,0.0,0.0,0.0
0.7600000000000002,-0.16032480000000002,-9.976104,-1.8434304000000001,1.6867632000000001,0.0,0.0,0.0,0.0
0.7800000000000002,-0.09418320000000001,-9.9218496,-1.8976848000000002,1.6867632000000001,0.0,0.0,0.0,0.0
0.8000000000000003,-0.07315200000000001,-9.867595200000002,-1.9519392,1.7635728,0.0,0.0,0.0,0.0
0.8200000000000003,-0.055168800000000004,-9.976104,-1.8434304000000001,1.6867632000000001,0.0,0.0,0.0,0.0
0.8400000000000003,0.033527999999999995,-10.0303584,-1.8976848000000002,1.6867632000000001,0.0,0.0,0.0,0.0
0.8600000000000003,-0.053644800000000006,-9.867595200000002,-1.8434304000000001,1.7635728,0.0,0.0,0.0,0.0
0.8800000000000003,0.009144,-9.9218496,-1.8976848000000002,1.6102584000000002,0.0,0.0,0.0,0.0
0.9000000000000004,0.112776,-9.976104,-1.8434304000000001,1.7635728,0.0,0.0,0.0,0.0
0.9200000000000004,0.09083040000000002,-9.867595200000002,-1.9519392,1.6867632000000001,0.0,0.0,0.0,0.0
0.9400000000000004,-0.13563599999999998,-9.9218496,-1.8976848000000002,1.7635728,0.0,0.0,0.0,0.0
0.9600000000000004,-0.12374879999999999,-9.867595200000002,-1.8434304000000001,1.6867632000000001,0.0,0.0,0.0,0.0
0.9800000000000004,-0.1633728,-9.9218496,-2.0061936,1.6102584000000002,0.0,0.0,0.0,0.0
1.0000000000000004,-0.2898648,-9.867595200000002,-1.9519392,1.7635728,0.0,0.0,0.0,0.0
1.0200000000000005,0.018288,-9.976104,-1.8434304000000001,1.6867632000000001,0.0,0.0,0.0,0.0
1.0400000000000005,-0.0569976,-9.976104,-1.9519392,1.6867632000000001,0.0,0.0,0.0,0.0
1.0600000000000005,-0.0499872,-9.9218496,-1.8976848000000002,1.6867632000000001,0.0,0.0,0.0,0.0
1.0800000000000005,-0.03322320000000001,-9.976104,-1.8434304000000001,1.6867632000000001,0.0,0.0,0.0,0.0
1.1000000000000005,-0.11430000000000001,-9.867595200000002,-1.9519392,1.6867632000000001,0.0,0.0,0.0,0.0
1.1200000000000006,-0.1837944,-10.0303584,-1.8976848000000002,1.7635728,0.0,0.0,0.0,0.0
1.1400000000000006,-0.1975104,-9.867595200000002,-1.9519392,1.7635728,0.0,0.0,0.0,0.0
1.1600000000000001,-0.26182320000000003,-9.976104,-1.9519392,1.6867632000000001,0.0,0.0,0.0,0.0
1.1800000000000002,-0.210312,-9.9218496,-1.789176,1.6867632000000001,0.0,0.0,0.0,0.0
1.2000000000000002,-0.126492,-9.976104,-1.9519392,1.6102584000000002,0.0,0.0,0.0,0.0
1.2200000000000002,-0.07589520000000001,-9.9218496,-1.8976848000000002,1.7635728,0.0,0.0,0.0,0.0
1.2400000000000002,-0.173736,-9.9218496,-1.789176,1.6867632000000001,0.0,0.0,0.0,0.0
1.2600000000000002,-0.249936,-9.976104,-1.8434304000000001,1.6867632000000001,0.0,0.0,0.0,0.0
1.2800000000000002,-0.25633680000000003,-9.976104,-1.9519392,1.6867632000000001,0.0,0.0,0.0,0.0
1.3000000000000003,-0.3605784,-9.976104,-1.8434304000000001,1.6102584000000002,0.0,0.0,0.0,0.0
1.3200000000000003,-0.4559808,-9.976104,-1.8434304000000001,1.7635728,0.0,0.0,0.0,0.0
1.3400000000000003,-0.4928616,-9.867595200000002,-1.9519392,1.7635728,0.0,0.0,0.0,0.0
1.3600000000000003,-0.565404,-9.9218496,-1.8976848000000002,1.7635728,0.0,0.0,0.0,0.0
1.3800000000000003,-0.5123688000000001,-10.0303584,-1.8976848000000002,1.7635728,0.0,0.0,0.0,0.0
1.4000000000000004,-0.5327904,-9.9218496,-1.8976848000000002,1.6867632000000001,0.0,0.0,0.0,0.0
1.4200000000000004,-0.3892296,-9.9218496,-1.8976848000000002,1.6867632000000001,0.0,0.0,0.0,0.0
1.4400000000000004,-0.5160264,-10.0303584,-1.8976848000000002,1.6867632000000001,0.0,0.0,0.0,0.0
1.4600000000000004,-0.40416480000000005,-9.9218496,-2.0061936,1.7635728,0.0,0.0,0.0,0.0
1.4800000000000004,-0.176784,-9.976104,-1.9519392,1.6867632000000001,0.0,0.0,0.0,0.0
1.5000000000000004,-0.17068799999999998,-9.867595200000002,-1.9519392,1.6867632000000001,0.0,0.0,0.0,0.0
1.5200000000000005,-0.11978639999999999,-9.9218496,-1.8976848000000002,1.6867632000000001,0.0,0.0,0.0,0.0
1.5400000000000005,-0.2502408,-9.867595200000002,-1.8434304000000001,1.6867632000000001,0.0,0.0,0.0,0.0
1.5600000000000005,-0.20573999999999998,-9.976104,-1.9519392,1.7635728,0.0,0.0,0.0,0.0
1.5800000000000005,-0.15605760000000002,-9.9218496,-2.0061936,1.7635728,0.0,0.0,0.0,0.0
1.6000000000000005,-0.3681984,-9.9218496,-1.8976848000000002,1.6867632000000001,0.0,0.0,0.0,0.0
1.6200000000000006,-0.1581912,-9.9218496,-1.789176,1.6867632000000001,0.0,0.0,0.0,0.0
1.6400000000000006,-0.043891200000000005,-9.867595200000002,-1.9519392,1.6867632000000001,0.0,0.0,0.0,0.0
1.6600000000000001,-0.0088392,-9.976104,-1.9519392,1.6867632000000001,0.0,0.0,0.0,0.0
1.6800000000000002,0.0124968,-9.9218496,-1.8976848000000002,1.6867632000000001,0.0,0.0,0.0,0.0
1.7000000000000002,-0.06370320000000002,-9.867595200000002,-1.8434304000000001,1.6867632000000001,0.0,0.0,0.0,0.0
1.7200000000000002,0.12740640000000003,-9.867595200000002,-1.8434304000000001,1.6867632000000001,0.0,0.0,0.0,0.0
1.7400000000000002,0.1347216,-9.976104,-1.9519392,1.6867632000000001,0.0,0.0,0.0,0.0
1.7600000000000002,0.0179832,-9.9218496,-2.0061936,1.6867632000000001,0.0,0.0,0.0,0.0
1.7800000000000002,0.0024384000000000003,-9.976104,-1.8434304000000001,1.6867632000000001,0.0,0.0,0.0,0.0
1.8000000000000003,-0.067056,-9.9218496,-1.789176,1.6867632000000001,0.0,0.0,0.0,0.0
1.8200000000000003,-0.23469600000000002,-9.976104,-1.9519392,1.6867632000000001,0.0,0.0,0.0,0.0
1.8400000000000003,-0.3294888,-9.976104,-1.9519392,1.6867632000000001,0.0,0.0,0.0,0.0
1.8600000000000003,-0.1712976,-9.9218496,-1.8976848000000002,1.6867632000000001,0.0,0.0,0.0,0.0
1.8800000000000003,-0.2581656,-9.9218496,-1.8976848000000002,1.6867632000000001,0.0,0.0,0.0,0.0
1.9000000000000004,-0.2215896,-9.976104,-1.9519392,1.6867632000000001,0.0,0.0,0.0,0.0
1.9200000000000004,-0.1932432,-9.9218496,-1.789176,1.7635728,0.0,0.0,0.0,0.0
1.9400000000000004,-0.11521440000000001,-10.0303584,-1.789176,1.6867632000000001,0.0,0.0,0.0,0.0
1.9600000000000004,-0.13228320000000002,-9.9218496,-1.8976848000000002,1.7635728,0.0,0.0,0.0,0.0
1.9800000000000004,-0.252984,-9.9218496,-1.8976848000000002,1.6867632000000001,0.0,0.0,0.0,0.0
2.0000000000000004,-0.3782568,-9.976104,-1.9519392,1.7635728,0.0,0.0,0.0,0.0
2.0200000000000005,-0.3419856,-9.9218496,-1.8976848000000002,1.6867632000000001,0.0,0.0,0.0,0.0
2.0400000000000005,-0.3724656,-9.9218496,-1.8976848000000002,1.6867632000000001,0.0,0.0,0.0,0.0
2.0600000000000005,-0.2557272,-9.976104,-1.8434304000000001,1.7635728,0.0,0.0,0.0,0.0
2.0800000000000005,-0.1289304,-9.867595200000002,-1.8434304000000001,1.6102584000000002,0.0,0.0,0.0,0.0
2.1000000000000005,-0.21518879999999999,-9.9218496,-1.8976848000000002,1.7635728,0.0,0.0,0.0,0.0
2.1200000000000006,-0.2139696,-9.976104,-1.8434304000000001,1.6867632000000001,0.0,0.0,0.0,0.0
2.1400000000000006,-0.1438656,-9.867595200000002,-1.8434304000000001,1.7635728,0.0,0.0,0.0,0.0
2.16,-0.1286256,-9.9218496,-1.8976848000000002,1.7635728,0.0,0.0,0.0,0.0
2.18,-0.1301496,-9.867595200000002,-1.8434304000000001,1.7635728,0.0,0.0,0.0,0.0
2.2,-0.38526720000000003,-9.9218496,-1.8976848000000002,1.6867632000000001,0.0,0.0,0.0,0.0
2.22,-0.28193999999999997,-9.9218496,-1.8976848000000002,1.7635728,0.0,0.0,0.0,0.0
2.24,-0.16520159999999998,-9.9218496,-2.0061936,1.6867632000000001,0.0,0.0,0.0,0.0
2.2600000000000002,-0.1947672,-9.9218496,-2.0061936,1.6867632000000001,0.0,0.0,0.0,0.0
2.2800000000000002,-0.1362456,-9.9218496,-2.0061936,1.6867632000000001,0.0,0.0,0.0,0.0
2.3000000000000003,-0.155448,-9.867595200000002,-1.9519392,1.7635728,0.0,0.0,0.0,0.0
2.3200000000000003,-0.1225296,-9.867595200000002,-1.9519392,1.7635728,0.0,0.0,0.0,0.0
2.3400000000000003,-0.27005280000000004,-9.9218496,-1.789176,1.6867632000000001,0.0,0.0,0.0,0.0
2.3600000000000003,-0.33497520000000003,-9.976104,-1.9519392,1.6867632000000001,0.0,0.0,0.0,0.0
2.3800000000000003,-0.33406080000000005,-9.867595200000002,-2.0601432,1.6867632000000001,0.0,0.0,0.0,0.0
2.4000000000000004,-0.32796480000000006,-9.976104,-1.8434304000000001,1.7635728,0.0,0.0,0.0,0.0
2.4200000000000004,-0.4111752,-9.976104,-1.8434304000000001,1.6867632000000001,0.0,0.0,0.0,0.0
2.4400000000000004,-0.30114240000000003,-9.9218496,-1.8976848000000002,1.6867632000000001,0.0,0.0,0.0,0.0
2.4600000000000004,-0.1776984,-9.976104,-1.9519392,1.6867632000000001,0.0,0.0,0.0,0.0
2.4800000000000004,-0.1801368,-9.9218496,-1.8976848000000002,1.6867632000000001,0.0,0.0,0.0,0.0
2.5000000000000004,-0.2136648,-9.976104,-1.8434304000000001,1.6867632000000001,0.0,0.0,0.0,0.0
2.5200000000000005,-0.1246632,-9.9218496,-1.8976848000000002,1.7635728,0.0,0.0,0.0,0.0
2.54,-0.19385280000000002,-9.9218496,-1.8976848000000002,1.7635728,0.0,0.0,0.0,0.0
2.5600000000000005,-0.06400800000000001,-9.976104,-1.8434304000000001,1.7635728,0.0,0.0,0.0,0.0
2.58,0.016764,-9.976104,-1.8434304000000001,1.7635728,0.0,0.0,0.0,0.0
2.6000000000000005,-0.0118872,-9.976104,-1.8434304000000001,1.7635728,0.0,0.0,0.0,0.0
2.62,-0.1054608,-9.9218496,-1.8976848000000002,1.7635728,0.0,0.0,0.0,0.0
2.6400000000000006,-0.0088392,-9.9218496,-1.8976848000000002,1.7635728,0.0,0.0,0.0,0.0
2.66,0.0569976,-10.0303584,-1.8976848000000002,1.7635728,0.0,0.0,0.0,0.0
2.6800000000000006,-0.112776,-9.867595200000002,-1.9519392,1.6867632000000001,0.0,0.0,0.0,0.0
2.7,-0.2307336,-9.976104,-1.9519392,1.6102584000000002,0.0,0.0,0.0,0.0
2.7200000000000006,-0.2200656,-9.976104,-1.8434304000000001,1.6102584000000002,0.0,0.0,0.0,0.0
2.74,-0.1078992,-9.867595200000002,-1.8434304000000001,1.6867632000000001,0.0,0.0,0.0,0.0
2.7600000000000007,-0.2051304,-9.976104,-1.8434304000000001,1.7635728,0.0,0.0,0.0,0.0
2.7800000000000002,-0.1453896,-9.9218496,-1.8976848000000002,1.7635728,0.0,0.0,0.0,0.0
2.8000000000000003,-0.2602992,-9.9218496,-1.8976848000000002,1.6867632000000001,0.0,0.0,0.0,0.0
2.8200000000000003,-0.2334768,-9.9218496,-1.8976848000000002,1.6867632000000001,0.0,0.0,0.0,0.0
2.8400000000000003,-0.1636776,-9.976104,-1.8434304000000001,1.7635728,0.0,0.0,0.0,0.0
2.8600000000000003,-0.051206400000000006,-9.9218496,-1.8976848000000002,1.6102584000000002,0.0,0.0,0.0,0.0
2.8800000000000003,0.0,-9.9218496,-1.8976848000000002,1.7635728,0.0,0.0,0.0,0.0
2.9000000000000004,-0.043586400000000004,-9.976104,-1.8434304000000001,1.7635728,0.0,0.0,0.0,0.0
2.9200000000000004,-0.1865376,-9.976104,-1.8434304000000001,1.6867632000000001,0.0,0.0,0.0,0.0
2.9400000000000004,-0.1088136,-9.9218496,-1.8976848000000002,1.6867632000000001,0.0,0.0,0.0,0.0
2.9600000000000004,-0.1377696,-9.7593912,-1.9519392,1.6867632000000001,0.0,0.0,0.0,0.0
2.9800000000000004,0.028956000000000003,-9.9218496,-1.8976848000000002,1.6867632000000001,0.0,0.0,0.0,0.0
3.0000000000000004,-0.025908,-9.976104,-1.9519392,1.6867632000000001,0.0,0.0,0.0,0.0
3.0200000000000005,-0.057912000000000005,-9.9218496,-1.8976848000000002,1.6867632000000001,0.0,0.0,0.0,0.0
3.04,-0.15057120000000002,-9.976104,-1.8434304000000001,1.7635728,0.0,0.0,0.0,0.0
3.0600000000000005,-0.086868,-9.9218496,-1.8976848000000002,1.6867632000000001,0.0,0.0,0.0,0.0
3.08,-0.1551432,-9.976104,-1.9519392,1.6867632000000001,0.0,0.0,0.0,0.0
3.1000000000000005,-0.1524,-9.9218496,-1.8976848000000002,1.8400776,0.0,0.0,0.0,0.0
3.12,-0.1072896,-9.9218496,-1.789176,1.6867632000000001,0.0,0.0,0.0,0.0
3.1400000000000006,-0.222504,-9.9218496,-1.8976848000000002,1.7635728,0.0,0.0,0.0,0.0
3.16,-0.1414272,-10.0303584,-2.0061936,1.6867632000000001,0.0,0.0,0.0,0.0
3.1800000000000006,-0.19659600000000002,-9.9218496,-1.8976848000000002,1.6867632000000001,0.0,0.0,0.0,0.0
3.2,0.0,-9.976104,-1.9519392,1.7635728,0.0,0.0,0.0,0.0
3.2200000000000006,0.0009143999999999998,-9.9218496,-1.8976848000000002,1.6867632000000001,0.0,0.0,0.0,0.0
3.24,-0.05181600000000001,-9.976104,-1.8434304000000001,1.7635728,0.0,0.0,0.0,0.0
3.2600000000000007,0.094488,-9.976104,-1.8434304000000001,1.6102584000000002,0.0,0.0,0.0,0.0
3.2800000000000002,0.23957280000000003,-9.9218496,-1.8976848000000002,1.6867632000000001,0.0,0.0,0.0,0.0
3.3000000000000003,0.14173200000000002,-9.9218496,-1.789176,1.7635728,0.0,0.0,0.0,0.0
3.3200000000000003,0.1481328,-9.9218496,-1.8976848000000002,1.6867632000000001,0.0,0.0,0.0,0.0
3.3400000000000003,0.11064240000000002,-9.976104,-1.9519392,1.6867632000000001,0.0,0.0,0.0,0.0
3.3600000000000003,0.0134112,-9.976104,-1.9519392,1.7635728,0.0,0.0,0.0,0.0
3.3800000000000003,0.0356616,-9.976104,-1.8434304000000001,1.7635728,0.0,0.0,0.0,0.0
3.4000000000000004,0.0192024,-9.9218496,-1.8976848000000002,1.6102584000000002,0.0,0.0,0.0,0.0
3.4200000000000004,-0.08199119999999999,-9.9218496,-1.8976848000000002,1.7635728,0.0,0.0,0.0,0.0
3.4400000000000004,0.0740664,-10.0303584,-1.8976848000000002,1.7635728,0.0,0.0,0.0,0.0
3.4600000000000004,-0.003048000000000001,-9.9218496,-1.8976848000000002,1.6867632000000001,0.0,0.0,0.0,0.0
3.4800000000000004,0.0036576000000000004,-10.0303584,-1.789176,1.6867632000000001,0.0,0.0,0.0,0.0
3.5000000000000004,0.1597152,-9.976104,-1.8434304000000001,1.7635728,0.0,0.0,0.0,0.0
3.5200000000000005,0.32064960000000003,-9.9218496,-1.8976848000000002,1.7635728,0.0,0.0,0.0,0.0
3.5400000000000005,0.3410712,-9.9218496,-1.8976848000000002,1.8400776,0.0,0.0,0.0,0.0
3.5600000000000005,0.33741360000000004,-9.976104,-1.9519392,1.7635728,0.0,0.0,0.0,0.0
3.5800000000000005,0.3422904,-9.976104,-1.9519392,1.6867632000000001,0.0,0.0,0.0,0.0
3.6000000000000005,0.16703040000000002,-9.976104,-1.8434304000000001,1.6867632000000001,0.0,0.0,0.0,0.0
3.62,0.11155680000000003,-9.9218496,-1.789176,1.6867632000000001,0.0,0.0,0.0,0.0
3.6400000000000006,0.1563624,-9.976104,-1.8434304000000001,1.7635728,0.0,0.0,0.0,0.0
3.66,0.12222480000000001,-9.976104,-1.8434304000000001,1.6102584000000002,0.0,0.0,0.0,0.0
3.6800000000000006,0.21366480000000004,-9.867595200000002,-1.8434304000000001,1.6867632000000001,0.0,0.0,0.0,0.0
3.7,0.11978640000000002,-9.9218496,-1.789176,1.6867632000000001,0.0,0.0,0.0,0.0
3.72,-0.059436,-9.9218496,-1.8976848000000002,1.6867632000000001,0.0,0.0,0.0,0.0
3.74,-0.044196000000000006,-9.9218496,-1.8976848000000002,1.7635728,0.0,0.0,0.0,0.0
3.7600000000000002,-0.0408432,-9.976104,-1.8434304000000001,1.6867632000000001,0.0,0.0,0.0,0.0
3.7800000000000002,-0.1225296,-9.9218496,-1.8976848000000002,1.6867632000000001,0.0,0.0,0.0,0.0
3.8000000000000003,-0.0957072,-9.9218496,-1.789176,1.6867632000000001,0.0,0.0,0.0,0.0
3.8200000000000003,-0.050292,-9.9218496,-1.8976848000000002,1.7635728,0.0,0.0,0.0,0.0
3.8400000000000003,-0.23682960000000003,-10.0303584,-2.0061936,1.8400776,0.0,0.0,0.0,0.0
3.8600000000000003,-0.3605784,-9.976104,-1.8434304000000001,1.6867632000000001,0.0,0.0,0.0,0.0
3.8800000000000003,-0.207264,-9.976104,-1.9519392,1.7635728,0.0,0.0,0.0,0.0
3.9000000000000004,-0.146304,-9.9218496,-1.8976848000000002,1.6102584000000002,0.0,0.0,0.0,0.0
3.9200000000000004,-0.0451104,-9.976104,-1.8434304000000001,1.7635728,0.0,0.0,0.0,0.0
3.9400000000000004,-0.1530096,-9.9218496,-1.8976848000000002,1.6867632000000001,0.0,0.0,0.0,0.0
3.9600000000000004,-0.0713232,-9.976104,-1.8434304000000001,1.6867632000000001,0.0,0.0,0.0,0.0
3.9800000000000004,-0.018897599999999997,-9.976104,-1.9519392,1.8400776,0.0,0.0,0.0,0.0
4.0,-0.109728,-9.976104,-1.9519392,1.6867632000000001,0.0,0.0,0.0,0.0
4.0200000000000005,-0.050596800000000004,-9.976104,-1.8434304000000001,1.7635728,0.0,0.0,0.0,0.0
4.04,0.094488,-9.9218496,-1.8976848000000002,1.7635728,0.0,0.0,0.0,0.0
4.0600000000000005,0.11155680000000003,-9.976104,-1.8434304000000001,1.7635728,0.0,0.0,0.0,0.0
4.08,0.1331976,-9.9218496,-1.8976848000000002,1.8400776,0.0,0.0,0.0,0.0
4.1000000000000005,0.33588960000000007,-9.976104,-1.8434304000000001,1.6867632000000001,0.0,0.0,0.0,0.0
4.12,0.2999232,-9.9218496,-1.8976848000000002,1.6867632000000001,0.0,0.0,0.0,0.0
4.140000000000001,0.1466088,-9.813645600000001,-1.789176,1.6867632000000001,0.0,0.0,0.0,0.0
4.16,0.0006096000000000006,-10.0303584,-1.8976848000000002,1.6867632000000001,0.0,0.0,0.0,0.0
4.180000000000001,-0.1011936,-9.9218496,-1.789176,1.6867632000000001,0.0,0.0,0.0,0.0
4.2,-0.10759439999999999,-9.9218496,-1.8976848000000002,1.6867632000000001,0.0,0.0,0.0,0.0
4.220000000000001,-0.029260800000000003,-9.9218496,-2.0061936,1.7635728,0.0,0.0,0.0,0.0
4.24,0.0057912,-10.0303584,-1.789176,1.6867632000000001,0.0,0.0,0.0,0.0
4.260000000000001,0.0664464,-9.867595200000002,-1.7349216,1.7635728,0.0,0.0,0.0,0.0
4.28,0.0749808,-9.867595200000002,-2.0601432,1.6102584000000002,0.0,0.0,0.0,0.0
4.300000000000001,0.12009120000000001,-9.867595200000002,-1.8434304000000001,1.7635728,0.0,0.0,0.0,0.0
4.32,0.13624560000000002,-10.0303584,-1.8976848000000002,1.7635728,0.0,0.0,0.0,0.0
4.340000000000001,0.0621792,-9.867595200000002,-1.9519392,1.6102584000000002,0.0,0.0,0.0,0.0
4.36,-0.030175200000000003,-9.813645600000001,-1.8976848000000002,1.7635728,0.0,0.0,0.0,0.0
4.380000000000001,-0.1331976,-10.0846128,-1.8434304000000001,1.8400776,0.0,0.0,0.0,0.0
4.4,-0.268224,-9.813645600000001,-1.8976848000000002,1.7635728,0.0,0.0,0.0,0.0
4.42,0.0381,-9.9218496,-2.1143976,1.6867632000000001,0.0,0.0,0.0,0.0
4.44,0.23317200000000002,-9.6508824,-1.9519392,1.6102584000000002,0.0,0.0,0.0,0.0
4.46,0.11521440000000001,-9.7051368,-2.0061936,1.7635728,0.0,0.0,0.0,0.0
4.48,-0.187452,-23.422356,-16.1571432,0.3834384,0.0,0.0,0.0,0.0
4.5,-0.048768000000000006,-58.8267048,-11.1148368,30.133747200000002,0.0,0.0,0.0,0.0
4.5200000000000005,0.04907280000000001,-35.675620800000004,-19.6269864,12.498324000000002,0.0,0.0,0.0,0.0
4.54,0.2642616,-101.60508000000002,-21.1451952,1.3801344,0.0,0.0,0.0,0.0
4.5600000000000005,0.49072800000000005,-72.76094160000001,-40.8806904,29.9036232,0.0,0.0,0.0,0.0
4.58,0.5306568,-58.609992,-33.452714400000005,29.44368,0.0,0.0,0.0,0.0
4.6000000000000005,0.5047488,-60.778644,-31.934505600000005,28.6002984,0.0,0.0,0.0,0.0
4.62,0.7235952000000001,-70.97176560000001,-38.1155448,22.6195128,0.0,0.0,0.0,0.0
4.640000000000001,0.768096,-71.35124160000001,-44.8927728,22.389388800000003,0.0,0.0,0.0,0.0
4.66,0.9649968,-68.3151288,-45.9772512,31.5138816,0.0,0.0,0.0,0.0
4.680000000000001,1.1024616,-72.1101936,-40.013229599999995,28.9837368,0.0,0.0,0.0,0.0
4.7,1.2652248,-73.4656392,-43.3203096,27.910231200000002,0.0,0.0,0.0,0.0
4.720000000000001,1.7196816000000001,-74.604372,-43.266055200000004,28.676803200000002,0.0,0.0,0.0,0.0
4.74,2.1878544,-74.4958632,-42.8323248,29.5969944,0.0,0.0,0.0,0.0
4.760000000000001,2.5956768,-73.953624,-43.37456400000001,30.210556800000003,0.0,0.0,0.0,0.0
4.78,3.2531303999999994,-73.89967440000001,-44.5132968,30.210556800000003,0.0,0.0,0.0,0.0
4.800000000000001,3.95478,-76.23078480000001,-46.844712,31.130443200000002,0.0,0.0,0.0,0.0
4.82,4.6911768,-77.3695176,-47.65791840000001,31.360567200000002,0.0,0.0,0.0,0.0
4.840000000000001,5.505602400000001,-73.89967440000001,-46.573440000000005,31.130443200000002,0.0,0.0,0.0,0.0
4.86,6.585508800000001,-76.99004160000001,-48.471124800000005,31.667196,0.0,0.0,0.0,0.0
4.880000000000001,7.3328784,-74.9295936,-47.3866464,30.210556800000003,0.0,0.0,0.0,0.0
4.9,8.0089248,-76.773024,-47.92888560000001,28.9837368,0.0,0.0,0.0,0.0
4.92,8.754160800000001,-80.7311568,-49.609857600000005,30.363871200000002,0.0,0.0,0.0,0.0
4.94,9.564624000000002,-80.29742639999999,-51.019557600000006,29.673804000000004,0.0,0.0,0.0,0.0
4.960000000000001,10.184587200000001,-80.622648,-50.043588,29.5204896,0.0,0.0,0.0,0.0
4.98,10.806684,-82.5745872,-50.4773184,29.7503088,0.0,0.0,0.0,0.0
5.0,11.394948,-82.4660784,-49.39284000000001,30.133747200000002,0.0,0.0,0.0,0.0
5.0200000000000005,12.1551192,-84.4180176,-49.609857600000005,33.124140000000004,0.0,0.0,0.0,0.0
5.04,13.024104000000001,-86.4239064,-49.447094400000005,31.897320000000004,0.0,0.0,0.0,0.0
5.0600000000000005,13.894003200000002,-85.2854784,-48.41687040000001,32.357263200000006,0.0,0.0,0.0,0.0
5.08,14.917826400000001,-85.06846080000001,-49.2843312,31.437376800000003,0.0,0.0,0.0,0.0
5.1000000000000005,16.174516800000003,-83.9300328,-49.880824800000006,29.44368,0.0,0.0,0.0,0.0
5.12,17.402251200000002,-82.8998088,-50.4773184,29.9036232,0.0,0.0,0.0,0.0
5.140000000000001,18.595848,-81.1106328,-51.72425520000001,29.5969944,0.0,0.0,0.0,0.0
5.16,19.719036000000003,-82.3575696,-52.754479200000006,29.9036232,0.0,0.0,0.0,0.0
5.180000000000001,20.7489552,-86.8033824,-54.7061136,31.590691200000002,0.0,0.0,0.0,0.0
5.2,21.798076800000004,-76.3392936,-49.5556032,30.6705,0.0,0.0,0.0,0.0
5.220000000000001,23.0224584,-78.833472,-50.6397768,30.900624,0.0,0.0,0.0,0.0
5.24,24.2206272,-74.604372,-49.880824800000006,29.827118400000003,0.0,0.0,0.0,0.0
5.260000000000001,25.4596392,-75.79705440000001,-50.856794400000005,29.3668704,0.0,0.0,0.0,0.0
5.28,26.8016736,-76.6105656,-53.8386528,31.9741296,0.0,0.0,0.0,0.0
5.300000000000001,28.134259200000002,-72.056244,-51.453288,29.9036232,0.0,0.0,0.0,0.0
5.32,29.5028112,-70.97176560000001,-50.151792,26.146658400000003,0.0,0.0,0.0,0.0
5.34,30.778704,-69.7790832,-49.2843312,25.456591200000002,0.0,0.0,0.0,0.0
5.36,32.3444616,-74.33340480000001,-50.80254000000001,26.223163200000002,0.0,0.0,0.0,0.0
5.380000000000001,33.970569600000005,-70.9175112,-47.603664,24.996343200000002,0.0,0.0,0.0,0.0
5.4,35.61588,-72.5981784,-47.4409008,24.9198384,0.0,0.0,0.0,0.0
5.42,37.2989856,-67.9896024,-44.4590424,23.9231424,0.0,0.0,0.0,0.0
5.44,38.9217408,-66.5802072,-45.109485600000006,25.2264672,0.0,0.0,0.0,0.0
5.460000000000001,40.64416560000001,-66.6884112,-44.78426400000001,24.9198384,0.0,0.0,0.0,0.0
5.48,42.2266872,-65.8209504,-44.025312,25.763220000000004,0.0,0.0,0.0,0.0
5.5,43.6857648,-62.7848376,-43.80829440000001,27.910231200000002,0.0,0.0,0.0,0.0
5.5200000000000005,45.1430136,-62.3511072,-45.435012,25.0731528,0.0,0.0,0.0,0.0
5.54,46.8252048,-58.447228800000005,-44.2420248,22.4661984,0.0,0.0,0.0,0.0
5.5600000000000005,48.7317288,-58.339024800000004,-43.0493424,20.242377600000005,0.0,0.0,0.0,0.0
5.58,50.7470664,-57.471259200000006,-40.1214336,19.1691768,0.0,0.0,0.0,0.0
5.6000000000000005,52.954123200000005,-56.00760960000001,-37.0310664,19.3224912,0.0,0.0,0.0,0.0
5.62,54.873144,-53.4591768,-34.3744296,18.939052800000002,0.0,0.0,0.0,0.0
5.640000000000001,56.8653168,-53.567685600000004,-33.940699200000005,18.708928800000002,0.0,0.0,0.0,0.0
5.66,58.765440000000005,-51.1277616,-33.8864448,17.7122328,0.0,0.0,0.0,0.0
5.680000000000001,60.6652584,-49.935079200000004,-34.7539056,17.7122328,0.0,0.0,0.0,0.0
5.7,62.9043192,-56.820816,-39.6877032,20.4725016,0.0,0.0,0.0,0.0
5.720000000000001,65.0924784,-45.5435208,-32.4224904,16.945356,0.0,0.0,0.0,0.0
5.74,67.2148008,-47.3326968,-30.850332,16.6387272,0.0,0.0,0.0,0.0
5.760000000000001,69.17405520000001,-44.675755200000005,-29.386377600000003,15.488716800000002,0.0,0.0,0.0,0.0
5.78,70.98639600000001,-38.9287512,-24.181307999999998,12.8817624,0.0,0.0,0.0,0.0
5.800000000000001,72.87097440000001,-34.6453968,-21.090940800000002,11.271504,0.0,0.0,0.0,0.0
5.82,74.8003584,-27.325929600000002,-18.000573600000003,9.6612456,0.0,0.0,0.0,0.0
5.84,76.6102608,-20.602956,-12.144756000000001,7.0542912,0.0,0.0,0.0,0.0
5.86,78.2982432,-16.319601600000002,-8.0784192,5.4440328000000004,0.0,0.0,0.0,0.0
5.880000000000001,80.0965632,-9.488119200000002,-6.777228,2.9135831999999997,0.0,0.0,0.0,0.0
5.9,81.93450720000001,-9.3256608,-3.0361128,1.5334488,0.0,0.0,0.0,0.0
5.92,83.48472,-6.0725304,-2.4941784,0.8433816000000001,0.0,0.0,0.0,0.0
5.94,84.91941360000001,-2.2771608000000003,-1.8434304000000001,0.0,0.0,0.0,0.0,0.0
5.960000000000001,86.6205024,-0.3252216,-1.0844784,-0.30662880000000003,0.0,0.0,0.0,0.0
5.98,88.3429272,1.789176,1.030224,-0.6900672,0.0,0.0,0.0,0.0
6.0,89.9345928,1.030224,1.4639544,-0.6900672,0.0,0.0,0.0,0.0
6.0200000000000005,91.62074640000002,2.548128,1.4639544,-0.23012400000000002,0.0,0.0,0.0,0.0
6.04,93.409008,2.4941784,1.5182088,-0.0768096,0.0,0.0,0.0,0.0
6.0600000000000005,95.161608,-1.4639544,6.343497600000001,-4.8304704,0.0,0.0,0.0,0.0
6.08,96.927924,1.1926824,2.7108912000000003,-0.0768096,0.0,0.0,0.0,0.0
6.1000000000000005,98.7164904,-1.7349216,-5.638800000000001,-19.2456816,0.0,0.0,0.0,0.0
6.12,100.56327360000002,1.7349216,0.3252216,-8.58774,0.0,0.0,0.0,0.0
6.140000000000001,102.3332472,1.8976848000000002,-0.16276320000000002,-8.5109304,0.0,0.0,0.0,0.0
6.16,104.1260808,3.198876,18.163032,-17.7887376,0.0,0.0,0.0,0.0
6.180000000000001,105.87624240000001,17.6210976,5.9097672,-20.7026256,0.0,0.0,0.0,0.0
6.2,107.6779152,7.970215200000001,13.608710400000001,-15.1817832,0.0,0.0,0.0,0.0
6.220000000000001,109.53567120000001,7.6989432,2.6023824,-4.523841600000001,0.0,0.0,0.0,0.0
6.24,111.2769936,-5.476036800000001,7.210958400000001,-4.0638984,0.0,0.0,0.0,0.0
6.260000000000001,112.896396,-1.030224,5.6930544,-6.9774816,0.0,0.0,0.0,0.0
6.28,114.67520880000001,-0.9759696,4.445812800000001,-6.364224,0.0,0.0,0.0,0.0
6.300000000000001,116.4022056,-1.1387328,4.2833544,-6.4407288000000005,0.0,0.0,0.0,0.0
6.32,118.04812560000002,-1.6264128000000002,4.2291,-6.364224,0.0,0.0,0.0,0.0
6.34,119.67331920000001,-1.1387328,4.2833544,-6.2874144,0.0,0.0,0.0,0.0
6.36,121.40854560000001,-0.7046976,4.5000672,-5.827471200000001,0.0,0.0,0.0,0.0
6.380000000000001,122.84202,-1.0844784,4.554321600000001,-5.6741568000000004,0.0,0.0,0.0,0.0
6.4,124.36602,-0.4879848,4.1748456,-5.9807856,0.0,0.0,0.0,0.0
6.42,125.97079200000002,-0.650748,4.2291,-5.750661600000001,0.0,0.0,0.0,0.0
6.44,127.5588,-0.8674608,3.6868608000000003,-6.364224,0.0,0.0,0.0,0.0
6.460000000000001,129.1196808,-0.7589520000000001,3.6868608000000003,-6.364224,0.0,0.0,0.0,0.0
6.48,130.74883680000002,-0.4337304,4.2291,-5.6741568000000004,0.0,0.0,0.0,0.0
6.5,132.3249576,-0.9759696,3.9035736000000005,-6.2109096,0.0,0.0,0.0,0.0
6.5200000000000005,133.88035200000002,-0.5964936000000001,4.1748456,-5.597347200000001,0.0,0.0,0.0,0.0
6.540000000000001,135.457692,-0.4879848,4.608576,-5.6741568000000004,0.0,0.0,0.0,0.0
6.5600000000000005,137.11946160000002,-1.030224,4.2833544,-5.750661600000001,0.0,0.0,0.0,0.0
6.58,138.6879624,-0.9759696,4.012082400000001,-6.0572904,0.0,0.0,0.0,0.0
6.6000000000000005,140.2409184,-0.8674608,4.012082400000001,-5.827471200000001,0.0,0.0,0.0,0.0
6.620000000000001,141.5579592,-1.0844784,4.012082400000001,-5.6741568000000004,0.0,0.0,0.0,0.0
6.640000000000001,143.109696,-0.650748,4.2291,-5.5205376,0.0,0.0,0.0,0.0
6.66,144.80286,-0.7046976,3.7411152,-5.9807856,0.0,0.0,0.0,0.0
6.68,146.5429632,-0.37947600000000004,4.1748456,-5.6741568000000004,0.0,0.0,0.0,0.0
6.7,148.1498688,-0.2709672,4.2833544,-5.5205376,0.0,0.0,0.0,0.0
6.720000000000001,149.6473512,-1.5182088,3.7953696000000003,-5.4440328000000004,0.0,0.0,0.0,0.0
6.74,151.2323112,-1.3554456000000001,3.3073848000000003,-5.9807856,0.0,0.0,0.0,0.0
6.76,152.72796480000002,-0.7046976,3.5240976,-5.827471200000001,0.0,0.0,0.0,0.0
6.78,154.2361152,-0.37947600000000004,4.0663368,-5.2907184,0.0,0.0,0.0,0.0
6.800000000000001,155.8497264,-0.8674608,4.2291,-5.137404,0.0,0.0,0.0,0.0
6.82,157.4925984,-1.0844784,3.9035736000000005,-5.367223200000001,0.0,0.0,0.0,0.0
6.84,158.9541144,-1.030224,3.957828,-5.060594400000001,0.0,0.0,0.0,0.0
6.86,160.3982568,-1.3554456000000001,3.957828,-5.060594400000001,0.0,0.0,0.0,0.0
6.880000000000001,161.9466408,-0.5964936000000001,3.8496240000000004,-5.2907184,0.0,0.0,0.0,0.0
6.9,163.56695760000002,-0.2170176,3.7953696000000003,-5.060594400000001,0.0,0.0,0.0,0.0
6.92,165.0623064,-0.4879848,3.8496240000000004,-5.367223200000001,0.0,0.0,0.0,0.0
6.94,166.5585696,-0.9217152000000001,3.198876,-5.5205376,0.0,0.0,0.0,0.0
6.960000000000001,168.09811440000001,-0.7589520000000001,3.4698432,-5.2907184,0.0,0.0,0.0,0.0
6.98,169.51360560000003,-0.9217152000000001,3.5240976,-5.137404,0.0,0.0,0.0,0.0
7.0,170.9656728,-0.7589520000000001,3.6868608000000003,-4.907280000000001,0.0,0.0,0.0,0.0
7.0200000000000005,172.29582,-0.7589520000000001,3.578352,-4.907280000000001,0.0,0.0,0.0,0.0
7.040000000000001,173.63053920000002,-0.8674608,4.012082400000001,-4.370527200000001,0.0,0.0,0.0,0.0
7.0600000000000005,175.0874832,-0.7589520000000001,4.012082400000001,-4.7539656,0.0,0.0,0.0,0.0
7.08,176.4411,-0.650748,3.6868608000000003,-4.8304704,0.0,0.0,0.0,0.0
7.1000000000000005,177.8776224,-0.8132064000000001,3.4158936000000004,-5.137404,0.0,0.0,0.0,0.0
7.120000000000001,179.38790640000002,-0.7046976,3.198876,-4.7539656,0.0,0.0,0.0,0.0
7.140000000000001,180.9585408,-0.16276320000000002,3.7411152,-5.2139088000000005,0.0,0.0,0.0,0.0
7.16,182.357268,-1.0844784,3.3616392,-5.137404,0.0,0.0,0.0,0.0
7.18,183.72673440000003,-1.4639544,3.198876,-4.7539656,0.0,0.0,0.0,0.0
7.2,185.0370696,-1.2469368,3.4158936000000004,-4.6006512,0.0,0.0,0.0,0.0
7.220000000000001,186.24102960000002,-1.030224,3.3073848000000003,-4.523841600000001,0.0,0.0,0.0,0.0
7.24,187.447428,0.0542544,2.9818584,-4.984089600000001,0.0,0.0,0.0,0.0
7.26,188.6922312,-0.4879848,2.9818584,-4.8304704,0.0,0.0,0.0,0.0
7.28,190.0004328,-0.2170176,3.2531304000000003,-4.7539656,0.0,0.0,0.0,0.0
7.300000000000001,191.37355680000002,-0.3252216,3.9035736000000005,-3.910584,0.0,0.0,0.0,0.0
7.32,192.8070312,-0.8132064000000001,3.957828,-3.68046,0.0,0.0,0.0,0.0
7.34,194.200272,-0.9759696,2.9279088,-4.523841600000001,0.0,0.0,0.0,0.0
7.36,195.61149600000002,-0.650748,3.2531304000000003,-4.6006512,0.0,0.0,0.0,0.0
7.380000000000001,197.00138400000003,-0.4337304,1.6264128000000002,-4.907280000000001,0.0,0.0,0.0,0.0
7.4,198.51837360000002,-1.0844784,2.9279088,-4.8304704,0.0,0.0,0.0,0.0
7.42,199.9725744,-0.9217152000000001,2.7651456,-4.984089600000001,0.0,0.0,0.0,0.0
7.44,201.28595760000002,-0.7589520000000001,3.2531304000000003,-4.4473368,0.0,0.0,0.0,0.0
7.460000000000001,202.6487184,-0.2170176,3.578352,-3.9870888,0.0,0.0,0.0,0.0
7.48,204.1577832,-0.1085088,3.1446216000000002,-3.7572696000000003,0.0,0.0,0.0,0.0
7.5,205.53121200000004,-0.37947600000000004,3.0903671999999998,-4.2937176,0.0,0.0,0.0,0.0
7.5200000000000005,206.8598352,-0.5964936000000001,3.3073848000000003,-3.8337744,0.0,0.0,0.0,0.0
7.540000000000001,208.17626640000003,-1.6806672000000002,3.3073848000000003,-3.9870888,0.0,0.0,0.0,0.0
7.5600000000000005,209.43722400000001,-1.2469368,2.9818584,-4.2937176,0.0,0.0,0.0,0.0
7.58,210.65368080000002,-1.2469368,2.6566368,-4.6006512,0.0,0.0,0.0,0.0
7.6000000000000005,211.8981792,-0.4337304,2.6023824,-4.0638984,0.0,0.0,0.0,0.0
7.620000000000001,213.15791760000002,-0.2170176,2.6023824,-4.2172128,0.0,0.0,0.0,0.0
7.640000000000001,214.50818160000003,-0.0542544,2.8736544000000004,-4.4473368,0.0,0.0,0.0,0.0
7.66,215.90172720000004,-0.3252216,2.7108912000000003,-4.370527200000001,0.0,0.0,0.0,0.0
7.68,217.28216640000002,0.0,3.0361128,-3.9870888,0.0,0.0,0.0,0.0
7.7,218.57086080000002,-0.7589520000000001,3.1446216000000002,-3.9870888,0.0,0.0,0.0,0.0
7.720000000000001,219.81139680000004,-0.650748,3.3616392,-3.8337744,0.0,0.0,0.0,0.0
7.74,221.008956,-1.0844784,2.8194000000000004,-3.5271456,0.0,0.0,0.0,0.0
7.76,222.30984240000004,-1.1387328,2.548128,-3.68046,0.0,0.0,0.0,0.0
7.78,223.573848,-0.8132064000000001,2.548128,-3.9870888,0.0,0.0,0.0,0.0
7.800000000000001,224.7302592,-0.7589520000000001,2.9279088,-3.8337744,0.0,0.0,0.0,0.0
7.82,225.95768880000003,-0.650748,2.8194000000000004,-3.68046,0.0,0.0,0.0,0.0
7.84,227.15280959999998,-0.650748,2.7108912000000003,-4.0638984,0.0,0.0,0.0,0.0
7.86,228.3625608,-0.37947600000000004,2.7651456,-3.9870888,0.0,0.0,0.0,0.0
7.880000000000001,229.55798640000003,-0.5422392,3.0361128,-3.8337744,0.0,0.0,0.0,0.0
7.9,230.67446880000003,-0.7046976,2.9818584,-3.5271456,0.0,0.0,0.0,0.0
7.92,231.7891224,-0.5422392,3.1446216000000002,-3.68046,0.0,0.0,0.0,0.0
7.94,232.9686984,-0.2170176,3.2531304000000003,-3.450336,0.0,0.0,0.0,0.0
7.960000000000001,234.21411120000002,-0.3252216,2.8194000000000004,-3.5271456,0.0,0.0,0.0,0.0
7.98,235.279692,-0.4337304,2.4941784,-3.910584,0.0,0.0,0.0,0.0
8.0,236.4674976,-0.5964936000000001,2.4399240000000004,-3.9870888,0.0,0.0,0.0,0.0
8.02,237.69096480000002,-1.5182088,2.0601432,-3.5271456,0.0,0.0,0.0,0.0
8.040000000000001,239.0009952,-1.7349216,1.8434304000000001,-3.68046,0.0,0.0,0.0,0.0
8.06,240.41191440000003,-1.0844784,2.1686520000000002,-3.910584,0.0,0.0,0.0,0.0
8.08,241.62075120000003,-0.7589520000000001,2.8194000000000004,-3.7572696000000003,0.0,0.0,0.0,0.0
8.100000000000001,242.7677136,-0.2709672,3.3073848000000003,-3.3738312000000006,0.0,0.0,0.0,0.0
8.120000000000001,243.8726136,-0.0542544,3.3073848000000003,-3.1437072,0.0,0.0,0.0,0.0
8.14,245.04548400000002,0.5964936000000001,2.7651456,-3.0672024,0.0,0.0,0.0,0.0
8.16,246.33661680000003,-1.3011912,2.9279088,-3.6036504000000003,0.0,0.0,0.0,0.0
8.18,247.4479176,-0.7046976,2.548128,-4.1404032,0.0,0.0,0.0,0.0
8.2,248.6262744,-0.7046976,2.3314152,-3.68046,0.0,0.0,0.0,0.0
8.22,249.8683344,-0.8132064000000001,2.2229064000000003,-3.68046,0.0,0.0,0.0,0.0
8.24,251.10399360000002,-1.0844784,1.4097000000000002,-3.7572696000000003,0.0,0.0,0.0,0.0
8.26,252.3536736,-0.7046976,2.2229064000000003,-3.7572696000000003,0.0,0.0,0.0,0.0
8.280000000000001,253.528068,-0.4337304,3.0361128,-2.9903928,0.0,0.0,0.0,0.0
8.3,254.59303920000002,-0.8132064000000001,3.0903671999999998,-3.2970216000000003,0.0,0.0,0.0,0.0
8.32,255.59766000000002,-0.5964936000000001,2.8736544000000004,-3.0672024,0.0,0.0,0.0,0.0
8.34,256.6495248,0.0,3.0361128,-3.0672024,0.0,0.0,0.0,0.0
8.36,257.66877600000004,-0.650748,2.9279088,-3.0672024,0.0,0.0,0.0,0.0
8.38,258.63804,-1.2469368,1.789176,-3.7572696000000003,0.0,0.0,0.0,0.0
8.4,259.5774336,-1.3554456000000001,2.2229064000000003,-3.2970216000000003,0.0,0.0,0.0,0.0
8.42,260.6195448,-1.4097000000000002,2.2771608000000003,-3.3738312000000006,0.0,0.0,0.0,0.0
8.440000000000001,261.654036,-0.4337304,2.6023824,-2.9135831999999997,0.0,0.0,0.0,0.0
8.46,262.9198704,-0.8132064000000001,2.4399240000000004,-3.2970216000000003,0.0,0.0,0.0,0.0
8.48,264.042144,-0.0542544,2.0061936,-3.3738312000000006,0.0,0.0,0.0,0.0
8.5,265.0025688,-0.2170176,2.0601432,-2.9903928,0.0,0.0,0.0,0.0
8.52,265.95324,-0.7589520000000001,2.3856696,-2.8370784000000002,0.0,0.0,0.0,0.0
8.54,266.82100560000003,-0.650748,2.2771608000000003,-2.9135831999999997,0.0,0.0,0.0,0.0
8.56,267.84726720000003,-0.1085088,2.2771608000000003,-2.7602688,0.0,0.0,0.0,0.0
8.58,268.7491704,-0.2709672,2.4399240000000004,-2.6069544000000002,0.0,0.0,0.0,0.0
8.600000000000001,269.76964080000005,-0.4879848,2.6566368,-2.6069544000000002,0.0,0.0,0.0,0.0
8.620000000000001,270.778224,-0.7046976,2.3314152,-2.8370784000000002,0.0,0.0,0.0,0.0
8.64,271.781016,-0.2709672,2.1143976,-3.0672024,0.0,0.0,0.0,0.0
8.66,272.814288,-0.9217152000000001,1.789176,-3.0672024,0.0,0.0,0.0,0.0
8.68,273.8862696,-1.030224,1.8976848000000002,-2.9903928,0.0,0.0,0.0,0.0
8.7,275.0442048,-0.8674608,1.8434304000000001,-2.9135831999999997,0.0,0.0,0.0,0.0
8.72,276.1387416,-0.650748,1.9519392,-2.9135831999999997,0.0,0.0,0.0,0.0
8.74,277.2360216,-0.5422392,2.1686520000000002,-2.8370784000000002,0.0,0.0,0.0,0.0
8.760000000000002,278.3595144,-0.37947600000000004,2.1143976,-2.683764,0.0,0.0,0.0,0.0
8.780000000000001,279.15534720000005,-0.5422392,2.2771608000000003,-2.6069544000000002,0.0,0.0,0.0,0.0
8.8,279.99690000000004,-0.4879848,2.0061936,-2.6069544000000002,0.0,0.0,0.0,0.0
8.82,280.8710664,-0.7589520000000001,2.0601432,-2.683764,0.0,0.0,0.0,0.0
8.84,281.78424720000004,-0.4337304,2.1686520000000002,-2.4536400000000005,0.0,0.0,0.0,0.0
8.86,282.6955992,-0.2709672,2.3314152,-2.3768304000000002,0.0,0.0,0.0,0.0
8.88,283.6359072,-0.650748,2.0601432,-2.6069544000000002,0.0,0.0,0.0,0.0
8.9,284.5829208,-0.5964936000000001,1.8976848000000002,-2.683764,0.0,0.0,0.0,0.0
8.92,285.4964064,-0.5964936000000001,1.8976848000000002,-2.8370784000000002,0.0,0.0,0.0,0.0
8.940000000000001,286.4275704,-0.5422392,1.8434304000000001,-2.5304496,0.0,0.0,0.0,0.0
8.96,287.34745680000003,-0.7046976,1.6806672000000002,-2.5304496,0.0,0.0,0.0,0.0
8.98,288.380424,-0.8674608,1.8434304000000001,-2.683764,0.0,0.0,0.0,0.0
9.0,289.387788,-0.5964936000000001,1.789176,-2.5304496,0.0,0.0,0.0,0.0
9.02,290.3835696,-0.4337304,1.8434304000000001,-2.4536400000000005,0.0,0.0,0.0,0.0
9.04,291.405564,-0.7046976,2.1143976,-2.3003256,0.0,0.0,0.0,0.0
9.06,292.52966640000005,-0.4337304,1.8434304000000001,-2.3003256,0.0,0.0,0.0,0.0
9.08,293.508684,-0.7046976,1.789176,-2.3768304000000002,0.0,0.0,0.0,0.0
9.100000000000001,294.4889208,-0.4337304,1.8434304000000001,-2.3003256,0.0,0.0,0.0,0.0
9.120000000000001,295.4712912,-0.5422392,1.8434304000000001,-2.0702016,0.0,0.0,0.0,0.0
9.14,296.3832528,-0.37947600000000004,1.8976848000000002,-1.9936968000000002,0.0,0.0,0.0,0.0
9.16,297.1995072,-0.37947600000000004,1.8976848000000002,-2.223516,0.0,0.0,0.0,0.0
9.18,298.073064,-0.5964936000000001,1.8976848000000002,-1.9168872,0.0,0.0,0.0,0.0
9.2,299.08042800000004,-0.9217152000000001,1.5724632,-2.3768304000000002,0.0,0.0,0.0,0.0
9.22,300.13991280000005,-0.4337304,1.7349216,-2.223516,0.0,0.0,0.0,0.0
9.24,301.107348,-0.4879848,1.5724632,-2.3768304000000002,0.0,0.0,0.0,0.0
9.260000000000002,302.00346,-0.4337304,1.3011912,-2.5304496,0.0,0.0,0.0,0.0
9.280000000000001,302.8593384,-0.2709672,1.3554456000000001,-2.683764,0.0,0.0,0.0,0.0
9.3,303.6536472,-0.3252216,1.8434304000000001,-1.9168872,0.0,0.0,0.0,0.0
9.32,304.4671584,-0.650748,1.8434304000000001,-1.8400776,0.0,0.0,0.0,0.0
9.34,305.2005072,-0.9759696,1.8434304000000001,-1.6102584000000002,0.0,0.0,0.0,0.0
9.36,306.18562080000004,-0.7589520000000001,1.8434304000000001,-1.5334488,0.0,0.0,0.0,0.0
9.38,307.1655528,-0.650748,1.8434304000000001,-1.6102584000000002,0.0,0.0,0.0,0.0
9.4,307.9671768,-0.650748,1.7349216,-1.7635728,0.0,0.0,0.0,0.0
9.42,308.83158960000003,-0.7589520000000001,1.6264128000000002,-1.9168872,0.0,0.0,0.0,0.0
9.440000000000001,309.63595680000003,-0.7046976,1.6806672000000002,-1.9168872,0.0,0.0,0.0,0.0
9.46,310.4918352,-0.37947600000000004,1.3554456000000001,-2.1470112,0.0,0.0,0.0,0.0
9.48,311.3422272,-0.5422392,1.5182088,-2.0702016,0.0,0.0,0.0,0.0
9.5,312.1347072,-0.4879848,1.2469368,-1.9936968000000002,0.0,0.0,0.0,0.0
9.52,312.80861999999996,0.1085088,1.4097000000000002,-1.9936968000000002,0.0,0.0,0.0,0.0
9.54,313.5194136,-0.16276320000000002,1.4639544,-2.0702016,0.0,0.0,0.0,0.0
9.56,314.28964319999994,-0.1085088,1.8434304000000001,-1.7635728,0.0,0.0,0.0,0.0
9.58,315.0312215999999,-0.2170176,1.7349216,-1.7635728,0.0,0.0,0.0,0.0
9.600000000000001,315.8965488,-0.4879848,1.4639544,-1.6102584000000002,0.0,0.0,0.0,0.0
9.620000000000001,316.661292,-0.4337304,1.6264128000000002,-1.4569440000000002,0.0,0.0,0.0,0.0
9.64,317.5260096,-0.9217152000000001,1.5724632,-1.3036296,0.0,0.0,0.0,0.0
9.66,318.4922255999999,-0.9759696,1.4097000000000002,-1.4569440000000002,0.0,0.0,0.0,0.0
9.68,319.3432272,-0.8674608,1.4097000000000002,-1.6102584000000002,0.0,0.0,0.0,0.0
9.7,320.2573224,-0.8674608,1.5182088,-1.3801344,0.0,0.0,0.0,0.0
9.72,321.16440719999997,-0.8674608,1.3011912,-1.6867632000000001,0.0,0.0,0.0,0.0
9.74,321.9885864,-0.650748,1.1926824,-1.9168872,0.0,0.0,0.0,0.0
9.760000000000002,322.7585112,-0.37947600000000004,1.3554456000000001,-1.6102584000000002,0.0,0.0,0.0,0.0
9.780000000000001,323.46534239999994,-0.1085088,1.6264128000000002,-1.4569440000000002,0.0,0.0,0.0,0.0
9.8,324.33768,-0.1085088,1.6264128000000002,-1.5334488,0.0,0.0,0.0,0.0
9.82,325.0054968,-0.16276320000000002,1.2469368,-1.6867632000000001,0.0,0.0,0.0,0.0
9.84,325.764144,-0.16276320000000002,1.1387328,-1.8400776,0.0,0.0,0.0,0.0
9.86,326.3557607999999,-0.4337304,1.1926824,-1.9168872,0.0,0.0,0.0,0.0
9.88,326.99462159999996,-0.4879848,1.1387328,-1.7635728,0.0,0.0,0.0,0.0
9.9,327.71821679999994,-0.4337304,1.0844784,-1.7635728,0.0,0.0,0.0,0.0
9.92,328.3558584,-0.4337304,1.3011912,-1.4569440000000002,0.0,0.0,0.0,0.0
9.940000000000001,329.05324079999997,-0.7046976,1.4639544,-1.3801344,0.0,0.0,0.0,0.0
9.96,329.9210064,-0.650748,1.5182088,-1.2268200000000002,0.0,0.0,0.0,0.0
9.98,330.59644319999995,-0.5964936000000001,1.4639544,-1.1500104,0.0,0.0,0.0,0.0
10.0,331.1990328,-0.5964936000000001,1.2469368,-1.1500104,0.0,0.0,0.0,0.0
10.02,331.91470319999996,-0.7046976,1.3554456000000001,-1.2268200000000002,0.0,0.0,0.0,0.0
10.04,332.62976399999997,-0.650748,1.1926824,-1.3036296,0.0,0.0,0.0,0.0
10.06,333.3356808,-0.5964936000000001,1.3554456000000001,-1.3036296,0.0,0.0,0.0,0.0
10.08,334.10956799999997,-0.7046976,1.2469368,-1.4569440000000002,0.0,0.0,0.0,0.0
10.100000000000001,334.77281279999994,-0.2709672,1.2469368,-1.3036296,0.0,0.0,0.0,0.0
10.120000000000001,335.6067456,-0.4337304,1.3011912,-1.3036296,0.0,0.0,0.0,0.0
10.14,336.4614048,-0.5964936000000001,1.1387328,-1.3801344,0.0,0.0,0.0,0.0
10.16,337.2267576,-0.5964936000000001,1.030224,-1.5334488,0.0,0.0,0.0,0.0
10.18,337.94669519999997,-0.4879848,1.2469368,-1.3036296,0.0,0.0,0.0,0.0
10.2,338.698332,-0.37947600000000004,1.2469368,-1.3801344,0.0,0.0,0.0,0.0
10.22,339.3015312,-0.4337304,1.1926824,-1.4569440000000002,0.0,0.0,0.0,0.0
10.24,339.9025968,-0.3252216,1.1926824,-1.3801344,0.0,0.0,0.0,0.0
10.260000000000002,340.6325928,-0.4337304,1.3011912,-1.2268200000000002,0.0,0.0,0.0,0.0
10.280000000000001,341.32235519999995,-0.16276320000000002,1.3554456000000001,-1.2268200000000002,0.0,0.0,0.0,0.0
10.3,342.06362879999995,-0.3252216,1.4097000000000002,-1.1500104,0.0,0.0,0.0,0.0
10.32,342.65036879999997,-0.37947600000000004,1.2469368,-1.2268200000000002,0.0,0.0,0.0,0.0
10.34,343.3428744,-0.4337304,1.1926824,-1.1500104,0.0,0.0,0.0,0.0
10.36,344.0759184,-0.5422392,1.1926824,-1.2268200000000002,0.0,0.0,0.0,0.0
10.38,344.6547336,-0.5422392,1.1926824,-1.1500104,0.0,0.0,0.0,0.0
10.4,345.3310848,-0.5964936000000001,1.1387328,-1.1500104,0.0,0.0,0.0,0.0
10.42,346.06473839999995,-0.5964936000000001,1.2469368,-1.1500104,0.0,0.0,0.0,0.0
10.440000000000001,346.711524,-0.650748,1.0844784,-1.2268200000000002,0.0,0.0,0.0,0.0
10.46,347.4555408,-0.7589520000000001,1.0844784,-1.3036296,0.0,0.0,0.0,0.0
10.48,348.1376832,-0.650748,0.8674608,-1.2268200000000002,0.0,0.0,0.0,0.0
10.5,348.762828,-0.650748,0.8674608,-1.1500104,0.0,0.0,0.0,0.0
10.52,349.4260728,-0.5422392,0.8674608,-1.2268200000000002,0.0,0.0,0.0,0.0
10.54,350.0253096,-0.4879848,1.030224,-1.1500104,0.0,0.0,0.0,0.0
10.56,350.5678536,-0.5422392,1.0844784,-1.1500104,0.0,0.0,0.0,0.0
10.58,351.15245999999996,-0.37947600000000004,1.030224,-1.0735056,0.0,0.0,0.0,0.0
10.600000000000001,351.6962232,-0.3252216,1.1926824,-1.0735056,0.0,0.0,0.0,0.0
10.620000000000001,352.2850968,-0.2709672,1.030224,-0.996696,0.0,0.0,0.0,0.0
10.64,352.8218496,-0.2709672,1.030224,-1.1500104,0.0,0.0,0.0,0.0
10.66,353.3314752,-0.4337304,1.0844784,-0.9201912000000001,0.0,0.0,0.0,0.0
10.68,353.9706408,-0.37947600000000004,1.1387328,-0.9201912000000001,0.0,0.0,0.0,0.0
10.7,354.5805456,-0.4337304,1.1926824,-0.8433816000000001,0.0,0.0,0.0,0.0
10.72,355.1301,-0.5422392,1.0844784,-0.9201912000000001,0.0,0.0,0.0,0.0
10.74,355.5909576,-0.5964936000000001,1.030224,-0.996696,0.0,0.0,0.0,0.0
10.760000000000002,356.0682744,-0.650748,0.9759696,-0.9201912000000001,0.0,0.0,0.0,0.0
10.780000000000001,356.6025888,-0.650748,0.9759696,-0.9201912000000001,0.0,0.0,0.0,0.0
10.8,357.2466312,-0.650748,0.9759696,-0.996696,0.0,0.0,0.0,0.0
10.82,357.853488,-0.650748,0.9759696,-0.8433816000000001,0.0,0.0,0.0,0.0
10.84,358.46796479999995,-0.650748,0.9759696,-0.996696,0.0,0.0,0.0,0.0
10.86,359.1266376,-0.4337304,0.9759696,-1.0735056,0.0,0.0,0.0,0.0
10.88,359.65485599999994,-0.4337304,0.7589520000000001,-0.9201912000000001,0.0,0.0,0.0,0.0
10.9,360.2534832,-0.2709672,0.8132064000000001,-0.996696,0.0,0.0,0.0,0.0
10.92,360.76890000000003,-0.5964936000000001,0.7046976,-0.996696,0.0,0.0,0.0,0.0
10.940000000000001,361.3955688,-0.37947600000000004,0.7046976,-0.996696,0.0,0.0,0.0,0.0
10.96,361.9125096,-0.3252216,0.7589520000000001,-0.9201912000000001,0.0,0.0,0.0,0.0
10.98,362.3962272,-0.4337304,0.8674608,-0.9201912000000001,0.0,0.0,0.0,0.0
11.0,362.8805544,-0.4879848,0.9217152000000001,-0.9201912000000001,0.0,0.0,0.0,0.0
11.02,363.32739119999997,-0.37947600000000004,0.9217152000000001,-0.9201912000000001,0.0,0.0,0.0,0.0
11.04,363.7349088,-0.5964936000000001,0.9217152000000001,-0.9201912000000001,0.0,0.0,0.0,0.0
11.06,364.29482640000003,-0.4337304,0.8674608,-0.9201912000000001,0.0,0.0,0.0,0.0
11.08,364.834932,-0.37947600000000004,0.9217152000000001,-0.9201912000000001,0.0,0.0,0.0,0.0
11.100000000000001,365.47226879999994,-0.4337304,0.8674608,-0.9201912000000001,0.0,0.0,0.0,0.0
11.120000000000001,366.00384,-0.4337304,0.8674608,-0.9201912000000001,0.0,0.0,0.0,0.0
11.14,366.5348016,-0.4337304,0.8674608,-0.9201912000000001,0.0,0.0,0.0,0.0
11.16,367.0840512,-0.4337304,0.8674608,-0.9201912000000001,0.0,0.0,0.0,0.0
11.18,367.60404,-0.4337304,0.8674608,-0.9201912000000001,0.0,0.0,0.0,0.0
11.2,368.18559839999995,-0.650748,0.8674608,-0.8433816000000001,0.0,0.0,0.0,0.0
11.22,368.64279839999995,-0.5422392,0.8674608,-0.8433816000000001,0.0,0.0,0.0,0.0
11.24,369.0954264,-0.5422392,0.8674608,-0.9201912000000001,0.0,0.0,0.0,0.0
11.260000000000002,369.49837199999996,-0.4879848,0.9217152000000001,-0.9201912000000001,0.0,0.0,0.0,0.0
11.280000000000001,369.88059119999997,-0.5422392,0.8674608,-0.8433816000000001,0.0,0.0,0.0,0.0
11.3,370.33230480000003,-0.5964936000000001,0.8132064000000001,-0.9201912000000001,0.0,0.0,0.0,0.0
11.32,370.7718264,-0.5422392,0.650748,-0.8433816000000001,0.0,0.0,0.0,0.0
11.34,371.15282640000004,-0.5964936000000001,0.7046976,-0.9201912000000001,0.0,0.0,0.0,0.0
11.36,371.493288,-0.4879848,0.7046976,-0.9201912000000001,0.0,0.0,0.0,0.0
11.38,371.96115599999996,-0.5422392,0.650748,-0.8433816000000001,0.0,0.0,0.0,0.0
11.4,372.3894,-0.5422392,0.5422392,-0.9201912000000001,0.0,0.0,0.0,0.0
11.42,372.88104239999996,-0.4879848,0.5964936000000001,-0.8433816000000001,0.0,0.0,0.0,0.0
11.440000000000001,373.2970944,-0.37947600000000004,0.5964936000000001,-0.9201912000000001,0.0,0.0,0.0,0.0
11.46,373.69912559999995,-0.2170176,0.650748,-0.8433816000000001,0.0,0.0,0.0,0.0
11.48,374.1368184,-0.3252216,0.650748,-0.8433816000000001,0.0,0.0,0.0,0.0
11.5,374.5614048,-0.4337304,0.8674608,-0.8433816000000001,0.0,0.0,0.0,0.0
11.52,374.87138639999995,-0.37947600000000004,0.7046976,-0.8433816000000001,0.0,0.0,0.0,0.0
11.54,375.182892,-0.4337304,0.7589520000000001,-0.8433816000000001,0.0,0.0,0.0,0.0
11.56,375.5407272,-0.4337304,0.7589520000000001,-0.9201912000000001,0.0,0.0,0.0,0.0
11.58,375.9729336,-0.4337304,0.650748,-0.9201912000000001,0.0,0.0,0.0,0.0
11.600000000000001,376.392948,-0.37947600000000004,0.8132064000000001,-0.8433816000000001,0.0,0.0,0.0,0.0
11.620000000000001,376.7672424,-0.37947600000000004,0.7046976,-0.8433816000000001,0.0,0.0,0.0,0.0
11.64,377.1406224,-0.4337304,0.8674608,-0.7668768,0.0,0.0,0.0,0.0
11.66,377.54051999999996,-0.37947600000000004,0.7046976,-0.8433816000000001,0.0,0.0,0.0,0.0
11.68,377.91024239999996,-0.2170176,0.8674608,-0.7668768,0.0,0.0,0.0,0.0
11.7,378.357384,-0.2709672,0.9217152000000001,-0.6900672,0.0,0.0,0.0,0.0
11.72,378.7548432,-0.4879848,0.8132064000000001,-0.7668768,0.0,0.0,0.0,0.0
11.74,379.2254544,-0.4337304,0.7589520000000001,-0.6900672,0.0,0.0,0.0,0.0
11.760000000000002,379.67686319999996,-0.5964936000000001,0.7046976,-0.7668768,0.0,0.0,0.0,0.0
11.780000000000001,379.991112,-0.5964936000000001,0.5964936000000001,-0.7668768,0.0,0.0,0.0,0.0
11.8,380.3382792,-0.650748,0.650748,-0.8433816000000001,0.0,0.0,0.0,0.0
11.82,380.7232416,-0.7046976,0.7046976,-0.8433816000000001,0.0,0.0,0.0,0.0
11.84,381.04663439999996,-0.5422392,0.650748,-0.7668768,0.0,0.0,0.0,0.0
11.86,381.3645408,-0.5964936000000001,0.7046976,-0.7668768,0.0,0.0,0.0,0.0
11.88,381.71749919999996,-0.4879848,0.7046976,-0.7668768,0.0,0.0,0.0,0.0
11.9,382.0756392,-0.650748,0.650748,-0.8433816000000001,0.0,0.0,0.0,0.0
11.92,382.38897359999993,-0.5964936000000001,0.5964936000000001,-0.7668768,0.0,0.0,0.0,0.0
11.940000000000001,382.6983456,-0.4337304,0.650748,-0.6900672,0.0,0.0,0.0,0.0
11.96,383.07203039999996,-0.5422392,0.5422392,-0.8433816000000001,0.0,0.0,0.0,0.0
11.98,383.374392,-0.5422392,0.5422392,-0.8433816000000001,0.0,0.0,0.0,0.0
12.0,383.7300936,-0.4337304,0.650748,-0.7668768,0.0,0.0,0.0,0.0
12.02,384.01569119999994,-0.4337304,0.4337304,-0.7668768,0.0,0.0,0.0,0.0
12.04,384.3448752,-0.37947600000000004,0.5964936000000001,-0.7668768,0.0,0.0,0.0,0.0
12.06,384.6966144,-0.4337304,0.4337304,-0.7668768,0.0,0.0,0.0,0.0
12.08,385.0831008,-0.37947600000000004,0.4879848,-0.8433816000000001,0.0,0.0,0.0,0.0
12.100000000000001,385.4351448,-0.3252216,0.5422392,-0.8433816000000001,0.0,0.0,0.0,0.0
12.120000000000001,385.77042479999994,-0.2709672,0.5964936000000001,-0.7668768,0.0,0.0,0.0,0.0
12.14,386.1404519999999,-0.2709672,0.5964936000000001,-0.7668768,0.0,0.0,0.0,0.0
12.16,386.4440328,-0.3252216,0.5422392,-0.8433816000000001,0.0,0.0,0.0,0.0
12.18,386.67537599999997,-0.3252216,0.5422392,-0.7668768,0.0,0.0,0.0,0.0
12.2,386.9554872,-0.3252216,0.5422392,-0.8433816000000001,0.0,0.0,0.0,0.0
12.22,387.2703456,-0.37947600000000004,0.5964936000000001,-0.6900672,0.0,0.0,0.0,0.0
12.24,387.61446479999995,-0.4337304,0.5422392,-0.6900672,0.0,0.0,0.0,0.0
12.260000000000002,387.88299359999996,-0.3252216,0.5422392,-0.8433816000000001,0.0,0.0,0.0,0.0
12.280000000000001,388.1603616,-0.4337304,0.650748,-0.8433816000000001,0.0,0.0,0.0,0.0
12.3,388.580376,-0.5422392,0.4337304,-0.6900672,0.0,0.0,0.0,0.0
12.32,388.90011119999997,-0.4337304,0.5422392,-0.7668768,0.0,0.0,0.0,0.0
12.34,389.1287112,-0.5422392,0.650748,-0.7668768,0.0,0.0,0.0,0.0
12.36,389.4649056,-0.4879848,0.5964936000000001,-0.6900672,0.0,0.0,0.0,0.0
12.38,389.83158,-0.4879848,0.37947600000000004,-0.7668768,0.0,0.0,0.0,0.0
12.4,390.20556960000005,-0.5964936000000001,0.4879848,-0.6135624,0.0,0.0,0.0,0.0
12.42,390.396984,-0.37947600000000004,0.5964936000000001,-0.7668768,0.0,0.0,0.0,0.0
12.44,390.62436479999997,-0.4337304,0.650748,-0.7668768,0.0,0.0,0.0,0.0
12.46,390.8550984,-0.5422392,0.5422392,-0.7668768,0.0,0.0,0.0,0.0
12.48,391.0047552,-0.4879848,0.4879848,-0.6900672,0.0,0.0,0.0,0.0
12.5,391.25103359999997,-0.5964936000000001,0.4879848,-0.6900672,0.0,0.0,0.0,0.0
12.52,391.514076,-0.4337304,0.5422392,-0.6135624,0.0,0.0,0.0,0.0
12.540000000000001,391.73231279999993,-0.5422392,0.5422392,-0.6900672,0.0,0.0,0.0,0.0
12.56,392.012424,-0.4879848,0.4879848,-0.5367528,0.0,0.0,0.0,0.0
12.58,392.1965232,-0.5964936000000001,0.4879848,-0.6900672,0.0,0.0,0.0,0.0
12.6,392.43274319999995,-0.4879848,0.4879848,-0.6135624,0.0,0.0,0.0,0.0
12.620000000000001,392.59398239999996,-0.4337304,0.650748,-0.5367528,0.0,0.0,0.0,0.0
12.64,392.78692079999996,-0.4337304,0.5422392,-0.6900672,0.0,0.0,0.0,0.0
12.66,392.99845199999993,-0.4337304,0.5422392,-0.5367528,0.0,0.0,0.0,0.0
12.68,393.2535696,-0.4879848,0.4879848,-0.6900672,0.0,0.0,0.0,0.0
12.700000000000001,393.4209048,-0.4879848,0.4879848,-0.6900672,0.0,0.0,0.0,0.0
12.72,393.707112,-0.4337304,0.5422392,-0.6135624,0.0,0.0,0.0,0.0
12.74,393.95582879999995,-0.4879848,0.37947600000000004,-0.6900672,0.0,0.0,0.0,0.0
12.76,394.15029119999997,-0.4879848,0.4879848,-0.6135624,0.0,0.0,0.0,0.0
12.780000000000001,394.38132959999996,-0.4337304,0.4337304,-0.5367528,0.0,0.0,0.0,0.0
12.8,394.552932,-0.4337304,0.4337304,-0.7668768,0.0,0.0,0.0,0.0
12.82,394.67180399999995,-0.37947600000000004,0.4879848,-0.6900672,0.0,0.0,0.0,0.0
12.84,394.7470896,-0.4879848,0.37947600000000004,-0.7668768,0.0,0.0,0.0,0.0
12.860000000000001,394.78458,-0.37947600000000004,0.4879848,-0.6135624,0.0,0.0,0.0,0.0
12.88,395.0247624,-0.4879848,0.4879848,-0.6900672,0.0,0.0,0.0,0.0
12.9,395.2978632,-0.4879848,0.4879848,-0.6135624,0.0,0.0,0.0,0.0
12.92,395.5407888,-0.4879848,0.4879848,-0.6135624,0.0,0.0,0.0,0.0
12.94,395.65356479999997,-0.4879848,0.4879848,-0.6135624,0.0,0.0,0.0,0.0
12.96,395.8690584,-0.4879848,0.4879848,-0.6900672,0.0,0.0,0.0,0.0
12.98,396.1205184,-0.4879848,0.4879848,-0.6900672,0.0,0.0,0.0,0.0
13.0,396.3357072,-0.4337304,0.4337304,-0.6135624,0.0,0.0,0.0,0.0
13.02,396.43568159999995,-0.4879848,0.4879848,-0.6135624,0.0,0.0,0.0,0.0
13.040000000000001,396.5216352,-0.37947600000000004,0.4879848,-0.6900672,0.0,0.0,0.0,0.0
13.06,396.80540399999995,-0.37947600000000004,0.4879848,-0.6900672,0.0,0.0,0.0,0.0
13.08,396.8087568,-0.37947600000000004,0.4879848,-0.6135624,0.0,0.0,0.0,0.0
13.1,396.9581088,-0.3252216,0.5422392,-0.6135624,0.0,0.0,0.0,0.0
13.120000000000001,397.03979519999996,-0.4879848,0.4879848,-0.6900672,0.0,0.0,0.0,0.0
13.14,397.16262959999995,-0.37947600000000004,0.4879848,-0.5367528,0.0,0.0,0.0,0.0
13.16,397.2558984,-0.4337304,0.5422392,-0.6900672,0.0,0.0,0.0,0.0
13.18,397.3360607999999,-0.5422392,0.5422392,-0.3834384,0.0,0.0,0.0,0.0
13.200000000000001,397.5137592,-0.4879848,0.4879848,-0.6900672,0.0,0.0,0.0,0.0
13.22,397.7414448,-0.4337304,0.5422392,-0.5367528,0.0,0.0,0.0,0.0
13.24,397.8587928,-0.7046976,0.5964936000000001,-0.6135624,0.0,0.0,0.0,0.0
13.26,397.949928,0.0542544,0.16276320000000002,0.0768096,0.0,0.0,0.0,0.0
13.280000000000001,398.0633136,1.9519392,4.988052,-0.30662880000000003,0.0,0.0,0.0,0.0
13.3,398.173956,-9.217152,-22.9886256,52.523136,0.0,0.0,0.0,0.0
13.32,398.2812456,26.1875016,14.259458400000002,3.5271456,0.0,0.0,0.0,0.0
13.34,398.3854872,-108.8702928,52.4832072,16.101974400000003,0.0,0.0,0.0,0.0
13.360000000000001,398.48698559999997,-77.2610088,20.982432000000003,-65.7115272,0.0,0.0,0.0,0.0
13.38,396.7450536,10.193121600000001,48.254412,41.788689600000005,0.0,0.0,0.0,0.0
13.4,396.53748479999996,0.9217152000000001,33.452714400000005,21.776131200000002,0.0,0.0,0.0,0.0
13.42,396.3033984,-170.62490640000001,-51.453288,99.5257344,0.0,0.0,0.0,0.0
13.44,399.07860239999997,-5.205069600000001,22.880116800000003,26.6066016,0.0,0.0,0.0,0.0
13.46,400.35540960000003,3.4698432,26.6754864,30.0572424,0.0,0.0,0.0,0.0
13.48,400.75622159999995,-15.9401256,25.6995168,52.29331680000001,0.0,0.0,0.0,0.0
13.5,401.1826368,6.9942456,12.958267200000002,12.958267200000002,0.0,0.0,0.0,0.0
13.52,401.74621199999996,-60.8871528,17.837810400000002,-23.846332800000003,0.0,0.0,0.0,0.0
13.540000000000001,402.0049872,-6.5605152,9.2714064,16.8688512,0.0,0.0,0.0,0.0
13.56,401.04821999999996,-4.2833544,38.657784,34.35096,0.0,0.0,0.0,0.0
13.58,401.31796799999995,-6.343497600000001,11.5485672,-0.3834384,0.0,0.0,0.0,0.0
13.6,401.5935072,-1.6264128000000002,-13.771473600000002,3.1437072,0.0,0.0,0.0,0.0
13.620000000000001,402.5118696,-12.0908064,-15.994380000000001,49.5327432,0.0,0.0,0.0,0.0
13.64,402.85629359999996,-0.7046976,0.16276320000000002,29.9036232,0.0,0.0,0.0,0.0
13.66,404.08707599999997,0.8132064000000001,8.5121496,-3.9870888,0.0,0.0,0.0,0.0
13.68,404.6351064,-3.2531304000000003,-14.964156000000001,-3.0672024,0.0,0.0,0.0,0.0
13.700000000000001,403.1638368,25.6995168,-54.8688768,4.7539656,0.0,0.0,0.0,0.0
13.72,403.4741232,88.86383040000001,12.6327408,-15.871850400000001,0.0,0.0,0.0,0.0
13.74,404.20320480000004,8.566404,28.410408,-2.9903928,0.0,0.0,0.0,0.0
13.76,403.40219039999994,-12.524536800000002,23.151084,-32.894016,0.0,0.0,0.0,0.0
13.780000000000001,402.7450416,-5.367528,41.3686752,38.9516112,0.0,0.0,0.0,0.0
13.8,402.4664544,25.86228,-41.91060960000001,49.3794288,0.0,0.0,0.0,0.0
13.82,403.2952056,3.4698432,-10.735360799999999,16.255288800000002,0.0,0.0,0.0,0.0
13.84,403.482048,-2.3314152,18.705271200000002,31.744005600000005,0.0,0.0,0.0,0.0
13.860000000000001,403.60854,-2.3856696,10.626852000000001,20.7026256,0.0,0.0,0.0,0.0
13.88,403.262592,7.3737216000000005,-9.5423736,-12.804952800000002,0.0,0.0,0.0,0.0
13.9,402.4737696,-52.1037312,-157.9379112,36.3446568,0.0,0.0,0.0,0.0
13.92,401.39233920000004,2.7108912000000003,6.2892432000000005,-0.3834384,0.0,0.0,0.0,0.0
13.94,400.6553328,7.6446888,13.608710400000001,5.060594400000001,0.0,0.0,0.0,0.0
13.96,400.25574,0.0542544,9.596628,24.076456800000003,0.0,0.0,0.0,0.0
13.98,400.44136319999996,15.8316168,-8.8919304,28.9837368,0.0,0.0,0.0,0.0
14.0,401.4240384,7.970215200000001,3.5240976,18.8622432,0.0,0.0,0.0,0.0
14.02,401.7529176,-1.8976848000000002,30.308092800000004,16.5622224,0.0,0.0,0.0,0.0
14.040000000000001,401.7352392,-6.8314824000000005,6.8314824000000005,7.744358400000001,0.0,0.0,0.0,0.0
14.06,401.62246319999997,-4.2833544,12.0908064,13.9549632,0.0,0.0,0.0,0.0
14.08,401.5490064,-9.379915200000001,15.018410400000002,19.5523104,0.0,0.0,0.0,0.0
14.1,401.3554584,-21.253704000000003,-46.51918560000001,41.481756000000004,0.0,0.0,0.0,0.0
14.120000000000001,400.763232,-23.3138472,-15.8316168,-47.76917040000001,0.0,0.0,0.0,0.0
14.14,400.3102992,4.120591200000001,1.6264128000000002,-14.951964,0.0,0.0,0.0,0.0
14.16,400.010376,-11.1148368,11.5485672,-34.581084000000004,0.0,0.0,0.0,0.0
14.18,399.9817248,-20.711464799999998,22.771608,-20.0125584,0.0,0.0,0.0,0.0
14.200000000000001,399.9530736,-19.0847472,9.3256608,15.0284688,0.0,0.0,0.0,0.0
14.22,400.04238,-19.898258400000003,-4.3915584,-3.68046,0.0,0.0,0.0,0.0
14.24,400.02592079999994,3.2531304000000003,2.4941784,-3.5271456,0.0,0.0,0.0,0.0
14.26,399.9009528,-0.8132064000000001,0.9217152000000001,-3.6036504000000003,0.0,0.0,0.0,0.0
