time,baro_altitude,accl_x,accl_y,accl_z,gps_altitude,gyro_roll,gyro_pitch,gyro_yaw
0.0,0.0,-9.813645600000001,3.5240976,2.223516,0.0,0.0,0.0,0.0
0.020000000000000018,-0.07162800000000001,-9.7051368,3.5240976,2.0702016,0.0,0.0,0.0,0.0
0.040000000000000036,-0.05547359999999999,-9.813645600000001,3.5240976,2.0702016,0.0,0.0,0.0,0.0
0.06000000000000005,-0.0027432000000000025,-9.813645600000001,3.5240976,2.1470112,0.0,0.0,0.0,0.0
0.08000000000000007,0.0591312,-9.7593912,3.4698432,2.1470112,0.0,0.0,0.0,0.0
0.10000000000000009,0.1941576,-9.867595200000002,3.578352,1.9936968000000002,0.0,0.0,0.0,0.0
0.1200000000000001,0.2337816,-9.813645600000001,3.5240976,1.9936968000000002,0.0,0.0,0.0,0.0
0.14000000000000012,0.46085760000000003,-9.7051368,3.5240976,2.1470112,0.0,0.0,0.0,0.0
0.16000000000000014,0.467868,-9.813645600000001,3.4158936000000004,2.0702016,0.0,0.0,0.0,0.0
0.18000000000000016,0.36606479999999997,-9.7593912,3.578352,2.0702016,0.0,0.0,0.0,0.0
0.20000000000000018,0.3450336,-9.813645600000001,3.5240976,1.9936968000000002,0.0,0.0,0.0,0.0
0.2200000000000002,0.3240024,-9.867595200000002,3.4698432,1.9936968000000002,0.0,0.0,0.0,0.0
0.2400000000000002,0.15453360000000002,-9.813645600000001,3.4158936000000004,2.0702016,0.0,0.0,0.0,0.0
0.26000000000000023,0.0003048000000000003,-9.867595200000002,3.4698432,1.9936968000000002,0.0,0.0,0.0,0.0
0.28000000000000025,-0.06827520000000001,-9.6508824,3.4698432,2.1470112,0.0,0.0,0.0,0.0
0.30000000000000027,-0.184404,-9.7051368,3.4158936000000004,2.3003256,0.0,0.0,0.0,0.0
0.3200000000000003,-0.20116799999999999,-9.7051368,3.4158936000000004,2.1470112,0.0,0.0,0.0,0.0
0.3400000000000003,-0.09083040000000002,-9.867595200000002,3.4698432,2.1470112,0.0,0.0,0.0,0.0
0.3600000000000003,-0.16367759999999998,-9.7593912,3.3616392,2.1470112,0.0,0.0,0.0,0.0
0.38000000000000034,-0.1822704,-9.7593912,3.4698432,2.223516,0.0,0.0,0.0,0.0
0.40000000000000036,-0.17312639999999999,-9.813645600000001,3.4158936000000004,2.1470112,0.0,0.0,0.0,0.0
0.4200000000000004,-0.1429512,-9.813645600000001,3.3073848000000003,2.1470112,0.0,0.0,0.0,0.0
0.4400000000000004,-0.13258799999999998,-9.7051368,3.4158936000000004,2.223516,0.0,0.0,0.0,0.0
0.4600000000000004,-0.038099999999999995,-9.7593912,3.3616392,2.3003256,0.0,0.0,0.0,0.0
0.4800000000000004,0.105156,-9.813645600000001,3.3073848000000003,1.9168872,0.0,0.0,0.0,0.0
0.5,0.1840992,-9.813645600000001,3.3073848000000003,2.223516,0.0,0.0,0.0,0.0
0.52,0.30906720000000004,-9.813645600000001,3.4158936000000004,2.223516,0.0,0.0,0.0,0.0
0.54,0.4172712,-9.7593912,3.3616392,2.223516,0.0,0.0,0.0,0.0
0.56,0.24444960000000002,-9.7593912,3.4698432,2.223516,0.0,0.0,0.0,0.0
0.5800000000000001,0.16733520000000002,-9.867595200000002,3.3616392,2.1470112,0.0,0.0,0.0,0.0
0.6000000000000001,0.25054560000000003,-9.867595200000002,3.3616392,2.0702016,0.0,0.0,0.0,0.0
0.6200000000000001,0.37917120000000004,-9.867595200000002,3.4698432,2.0702016,0.0,0.0,0.0,0.0
0.6400000000000001,0.49164240000000003,-9.7593912,3.4698432,2.1470112,0.0,0.0,0.0,0.0
0.6600000000000001,0.38861999999999997,-9.6508824,3.4698432,2.3003256,0.0,0.0,0.0,0.0
0.6800000000000002,0.33406080000000005,-9.596628,3.4158936000000004,1.9936968000000002,0.0,0.0,0.0,0.0
0.7000000000000002,0.4187952,-9.7593912,3.3616392,1.9936968000000002,0.0,0.0,0.0,0.0
0.7200000000000002,0.09966960000000001,-9.813645600000001,3.4158936000000004,2.0702016,0.0,0.0,0.0,0.0
0.7400000000000002,0.011582400000000003,-9.7593912,3.4698432,2.0702016,0.0,0.0,0.0,0.0
0.7600000000000002,0.0954024,-9.7051368,3.5240976,2.223516,0.0,0.0,0.0,0.0
0.7800000000000002,0.0009144000000000009,-9.7593912,3.578352,2.1470112,0.0,0.0,0.0,0.0
0.8000000000000003,0.06217920000000001,-9.867595200000002,3.4698432,2.0702016,0.0,0.0,0.0,0.0
0.8200000000000003,0.08229600000000001,-9.7593912,3.4698432,2.0702016,0.0,0.0,0.0,0.0
0.8400000000000003,-0.09814559999999999,-9.813645600000001,3.5240976,2.0702016,0.0,0.0,0.0,0.0
0.8600000000000003,0.12893040000000003,-9.7593912,3.4698432,2.1470112,0.0,0.0,0.0,0.0
0.8800000000000003,0.21336000000000002,-9.7593912,3.578352,2.223516,0.0,0.0,0.0,0.0
0.9000000000000004,-0.150876,-9.7593912,3.578352,2.223516,0.0,0.0,0.0,0.0
0.9200000000000004,-0.2191512,-9.7051368,3.5240976,2.1470112,0.0,0.0,0.0,0.0
0.9400000000000004,-0.19872959999999998,-9.867595200000002,3.4698432,2.0702016,0.0,0.0,0.0,0.0
0.9600000000000004,-0.3084576,-9.867595200000002,3.4698432,1.9936968000000002,0.0,0.0,0.0,0.0
0.9800000000000004,-0.5367528,-9.813645600000001,3.4158936000000004,2.0702016,0.0,0.0,0.0,0.0
1.0,-0.4233672,-9.7051368,3.5240976,2.3003256,0.0,0.0,0.0,0.0
1.02,-0.172212,-9.7051368,3.5240976,2.3003256,0.0,0.0,0.0,0.0
1.04,-0.0024384000000000025,-9.7051368,3.5240976,2.1470112,0.0,0.0,0.0,0.0
1.06,0.166116,-9.813645600000001,3.4158936000000004,2.0702016,0.0,0.0,0.0,0.0
1.08,0.2801112,-9.813645600000001,3.4158936000000004,2.0702016,0.0,0.0,0.0,0.0
1.1,0.24536400000000003,-9.867595200000002,3.4698432,2.1470112,0.0,0.0,0.0,0.0
1.12,0.2596896,-9.7593912,3.4698432,2.223516,0.0,0.0,0.0,0.0
1.1400000000000001,0.23042880000000002,-9.813645600000001,3.5240976,2.1470112,0.0,0.0,0.0,0.0
1.1600000000000001,0.2990088,-9.7593912,3.3616392,2.223516,0.0,0.0,0.0,0.0
1.1800000000000002,0.3456432,-9.7593912,3.3616392,2.0702016,0.0,0.0,0.0,0.0
1.2000000000000002,0.16032480000000002,-9.867595200000002,3.3616392,2.0702016,0.0,0.0,0.0,0.0
1.2200000000000002,-0.0094488,-9.813645600000001,3.3073848000000003,2.1470112,0.0,0.0,0.0,0.0
1.2400000000000002,-0.27645359999999997,-9.7593912,3.4698432,2.3003256,0.0,0.0,0.0,0.0
1.2600000000000002,-0.1670304,-9.7051368,3.5240976,2.223516,0.0,0.0,0.0,0.0
1.2800000000000002,-0.141732,-9.7593912,3.3616392,2.223516,0.0,0.0,0.0,0.0
1.3000000000000003,-0.2337816,-9.813645600000001,3.3073848000000003,1.9936968000000002,0.0,0.0,0.0,0.0
1.3200000000000003,-0.1344168,-9.7593912,3.3616392,2.1470112,0.0,0.0,0.0,0.0
1.3400000000000003,-0.034137600000000004,-9.813645600000001,3.4158936000000004,2.0702016,0.0,0.0,0.0,0.0
1.3600000000000003,-0.11856720000000001,-9.7593912,3.4698432,2.3003256,0.0,0.0,0.0,0.0
1.3800000000000003,-0.0161544,-9.6508824,3.4698432,2.223516,0.0,0.0,0.0,0.0
1.4000000000000004,-0.1167384,-9.7051368,3.5240976,2.1470112,0.0,0.0,0.0,0.0
1.4200000000000004,-0.0621792,-9.813645600000001,3.4158936000000004,1.9936968000000002,0.0,0.0,0.0,0.0
1.4400000000000004,-0.0188976,-9.7051368,3.4158936000000004,1.9936968000000002,0.0,0.0,0.0,0.0
1.4600000000000004,-0.1499616,-9.813645600000001,3.5240976,2.1470112,0.0,0.0,0.0,0.0
1.4800000000000004,-0.021031200000000003,-9.7593912,3.578352,2.223516,0.0,0.0,0.0,0.0
1.5,0.08229600000000001,-9.813645600000001,3.5240976,2.1470112,0.0,0.0,0.0,0.0
1.52,0.12801600000000002,-9.813645600000001,3.6326064,2.0702016,0.0,0.0,0.0,0.0
1.54,0.010972800000000001,-9.813645600000001,3.5240976,1.9936968000000002,0.0,0.0,0.0,0.0
1.56,0.032613600000000006,-9.7593912,3.578352,1.9936968000000002,0.0,0.0,0.0,0.0
1.58,0.1469136,-9.7593912,3.578352,2.0702016,0.0,0.0,0.0,0.0
1.6,0.036576,-9.6508824,3.4698432,2.3003256,0.0,0.0,0.0,0.0
1.62,-0.10424159999999999,-9.7593912,3.578352,2.0702016,0.0,0.0,0.0,0.0
1.6400000000000001,-0.16489679999999998,-9.7593912,3.4698432,1.9936968000000002,0.0,0.0,0.0,0.0
1.6600000000000001,-0.09357359999999999,-9.813645600000001,3.4158936000000004,2.0702016,0.0,0.0,0.0,0.0
1.6800000000000002,-0.06858,-9.7593912,3.578352,2.0702016,0.0,0.0,0.0,0.0
1.7000000000000002,-0.0804672,-9.7051368,3.6326064,2.223516,0.0,0.0,0.0,0.0
1.7200000000000002,-0.1374648,-9.6508824,3.4698432,2.1470112,0.0,0.0,0.0,0.0
1.7400000000000002,-0.08077200000000001,-9.7593912,3.4698432,2.0702016,0.0,0.0,0.0,0.0
1.7600000000000002,0.047244,-9.6508824,3.4698432,2.0702016,0.0,0.0,0.0,0.0
1.7800000000000002,0.0493776,-9.867595200000002,3.4698432,1.9936968000000002,0.0,0.0,0.0,0.0
1.8000000000000003,0.1146048,-9.7051368,3.4158936000000004,2.223516,0.0,0.0,0.0,0.0
1.8200000000000003,0.09753600000000001,-9.7051368,3.5240976,2.3768304000000002,0.0,0.0,0.0,0.0
1.8400000000000003,0.1959864,-9.7593912,3.4698432,2.3768304000000002,0.0,0.0,0.0,0.0
1.8600000000000003,0.2694432,-9.867595200000002,3.4698432,2.1470112,0.0,0.0,0.0,0.0
1.8800000000000001,0.28925520000000005,-9.867595200000002,3.3616392,2.0702016,0.0,0.0,0.0,0.0
1.9000000000000001,0.1816608,-9.867595200000002,3.3616392,1.9936968000000002,0.0,0.0,0.0,0.0
1.9200000000000002,0.25877520000000004,-9.867595200000002,3.3616392,2.1470112,0.0,0.0,0.0,0.0
1.9400000000000002,0.23317200000000002,-9.7051368,3.4158936000000004,2.223516,0.0,0.0,0.0,0.0
1.9600000000000002,0.3243072,-9.7593912,3.3616392,2.223516,0.0,0.0,0.0,0.0
1.9800000000000002,0.2593848,-9.7051368,3.4158936000000004,2.1470112,0.0,0.0,0.0,0.0
2.0,0.17129760000000002,-9.7593912,3.4698432,1.9936968000000002,0.0,0.0,0.0,0.0
2.0200000000000005,0.03322320000000001,-9.867595200000002,3.4698432,1.9936968000000002,0.0,0.0,0.0,0.0
2.04,-0.09052560000000001,-9.813645600000001,3.4158936000000004,2.1470112,0.0,0.0,0.0,0.0
2.0600000000000005,-0.1011936,-9.7051368,3.5240976,2.1470112,0.0,0.0,0.0,0.0
2.08,0.013106400000000004,-9.813645600000001,3.5240976,2.223516,0.0,0.0,0.0,0.0
2.1000000000000005,0.0737616,-9.867595200000002,3.4698432,1.9936968000000002,0.0,0.0,0.0,0.0
2.12,-0.025908,-9.7593912,3.4698432,2.0702016,0.0,0.0,0.0,0.0
2.14,-0.08564880000000001,-9.7051368,3.4158936000000004,2.0702016,0.0,0.0,0.0,0.0
2.16,-0.0438912,-9.7593912,3.578352,2.1470112,0.0,0.0,0.0,0.0
2.18,-0.1069848,-9.6508824,3.578352,2.223516,0.0,0.0,0.0,0.0
2.2,0.06309360000000001,-9.7051368,3.5240976,2.223516,0.0,0.0,0.0,0.0
2.22,0.0664464,-9.7051368,3.4158936000000004,2.1470112,0.0,0.0,0.0,0.0
2.24,0.0691896,-9.7593912,3.4698432,1.9936968000000002,0.0,0.0,0.0,0.0
2.2600000000000002,0.08717280000000001,-9.813645600000001,3.5240976,1.9936968000000002,0.0,0.0,0.0,0.0
2.2800000000000002,0.10149840000000002,-9.7051368,3.6326064,2.223516,0.0,0.0,0.0,0.0
2.3000000000000003,0.1606296,-9.7051368,3.5240976,2.4536400000000005,0.0,0.0,0.0,0.0
2.3200000000000003,0.288036,-9.7051368,3.5240976,2.1470112,0.0,0.0,0.0,0.0
2.3400000000000003,0.3523488,-9.7593912,3.578352,1.9936968000000002,0.0,0.0,0.0,0.0
2.3600000000000003,0.23042880000000002,-9.7593912,3.578352,2.1470112,0.0,0.0,0.0,0.0
2.38,0.27797760000000005,-9.7593912,3.578352,2.0702016,0.0,0.0,0.0,0.0
2.4000000000000004,-0.03688079999999999,-9.7051368,3.5240976,2.1470112,0.0,0.0,0.0,0.0
2.42,-0.2517648,-9.813645600000001,3.5240976,2.223516,0.0,0.0,0.0,0.0
2.4400000000000004,-0.1002792,-9.7593912,3.4698432,2.223516,0.0,0.0,0.0,0.0
2.46,-0.2051304,-9.7593912,3.4698432,2.1470112,0.0,0.0,0.0,0.0
2.4800000000000004,-0.1347216,-9.867595200000002,3.4698432,1.9168872,0.0,0.0,0.0,0.0
2.5,-0.056387999999999994,-9.867595200000002,3.4698432,1.9936968000000002,0.0,0.0,0.0,0.0
2.5200000000000005,-0.024993599999999998,-9.6508824,3.3616392,2.1470112,0.0,0.0,0.0,0.0
2.54,-0.09906,-9.7593912,3.4698432,2.223516,0.0,0.0,0.0,0.0
2.5600000000000005,0.1109472,-9.867595200000002,3.4698432,2.0702016,0.0,0.0,0.0,0.0
2.58,0.1115568,-9.867595200000002,3.3616392,1.9936968000000002,0.0,0.0,0.0,0.0
2.6000000000000005,0.12649200000000002,-9.9218496,3.4158936000000004,1.9936968000000002,0.0,0.0,0.0,0.0
2.62,0.3526536,-9.867595200000002,3.3616392,2.0702016,0.0,0.0,0.0,0.0
2.64,0.25908000000000003,-9.7593912,3.3616392,2.223516,0.0,0.0,0.0,0.0
2.66,0.1780032,-9.7593912,3.4698432,2.3003256,0.0,0.0,0.0,0.0
2.68,0.07802880000000001,-9.813645600000001,3.4158936000000004,2.1470112,0.0,0.0,0.0,0.0
2.7,0.1456944,-9.867595200000002,3.4698432,1.9936968000000002,0.0,0.0,0.0,0.0
2.72,0.0972312,-9.7593912,3.3616392,1.9168872,0.0,0.0,0.0,0.0
2.74,0.05882640000000001,-9.7593912,3.4698432,2.223516,0.0,0.0,0.0,0.0
2.7600000000000002,0.1453896,-9.7051368,3.5240976,2.3003256,0.0,0.0,0.0,0.0
2.7800000000000002,-0.0192024,-9.6508824,3.4698432,2.3003256,0.0,0.0,0.0,0.0
2.8000000000000003,-0.181356,-9.7593912,3.578352,2.1470112,0.0,0.0,0.0,0.0
2.8200000000000003,-0.07223760000000001,-9.813645600000001,3.5240976,2.0702016,0.0,0.0,0.0,0.0
2.8400000000000003,-0.09723119999999999,-9.7593912,3.578352,1.9936968000000002,0.0,0.0,0.0,0.0
2.8600000000000003,0.100584,-9.6508824,3.4698432,2.223516,0.0,0.0,0.0,0.0
2.8800000000000003,0.16002000000000002,-9.596628,3.5240976,2.4536400000000005,0.0,0.0,0.0,0.0
2.9000000000000004,0.138684,-9.7593912,3.578352,2.1470112,0.0,0.0,0.0,0.0
2.9200000000000004,0.1877568,-9.813645600000001,3.5240976,2.1470112,0.0,0.0,0.0,0.0
2.9400000000000004,0.23896320000000001,-9.7593912,3.4698432,2.0702016,0.0,0.0,0.0,0.0
2.96,0.22616160000000002,-9.813645600000001,3.5240976,2.0702016,0.0,0.0,0.0,0.0
2.9800000000000004,0.32918400000000003,-8.3496912,4.3376088,2.5304496,0.0,0.0,0.0,0.0
3.0,0.1405128,-9.379915200000001,3.5240976,2.0702016,0.0,0.0,0.0,0.0
3.0200000000000005,0.22006560000000003,-9.4338648,3.7953696000000003,1.9168872,0.0,0.0,0.0,0.0
3.04,0.24719280000000002,-9.7593912,3.578352,2.223516,0.0,0.0,0.0,0.0
3.06,0.100584,-9.7051368,3.4158936000000004,2.223516,0.0,0.0,0.0,0.0
3.08,0.300228,-9.976104,3.3616392,2.0702016,0.0,0.0,0.0,0.0
3.1,0.25755600000000006,-9.867595200000002,3.4698432,2.223516,0.0,0.0,0.0,0.0
3.12,0.12070080000000001,-9.7051368,3.4158936000000004,2.3003256,0.0,0.0,0.0,0.0
3.14,0.0798576,-9.867595200000002,3.3616392,2.1470112,0.0,0.0,0.0,0.0
3.16,0.1472184,-9.976104,3.3616392,2.0702016,0.0,0.0,0.0,0.0
3.18,0.003352800000000003,-9.813645600000001,3.4158936000000004,1.9168872,0.0,0.0,0.0,0.0
3.2,0.0079248,-9.813645600000001,3.4158936000000004,2.1470112,0.0,0.0,0.0,0.0
3.22,0.2795016,-9.813645600000001,3.3073848000000003,2.223516,0.0,0.0,0.0,0.0
3.24,0.28102560000000004,-9.6508824,3.3616392,2.3003256,0.0,0.0,0.0,0.0
3.2600000000000002,0.44531279999999995,-9.867595200000002,3.4698432,2.1470112,0.0,0.0,0.0,0.0
3.2800000000000002,0.5705856,-9.867595200000002,3.3616392,1.9936968000000002,0.0,0.0,0.0,0.0
3.3000000000000003,0.42946320000000004,-9.813645600000001,3.3073848000000003,2.0702016,0.0,0.0,0.0,0.0
3.3200000000000003,0.3773424,-9.7593912,3.4698432,2.0702016,0.0,0.0,0.0,0.0
3.3400000000000003,0.3819144,-9.6508824,3.578352,2.3003256,0.0,0.0,0.0,0.0
3.3600000000000003,0.33345120000000006,-9.6508824,3.4698432,2.3003256,0.0,0.0,0.0,0.0
3.3800000000000003,0.32491680000000006,-9.7051368,3.4158936000000004,2.223516,0.0,0.0,0.0,0.0
3.4000000000000004,0.3188208,-9.813645600000001,3.3073848000000003,1.9936968000000002,0.0,0.0,0.0,0.0
3.4200000000000004,0.3621024,-9.9218496,3.5240976,2.223516,0.0,0.0,0.0,0.0
3.4400000000000004,0.2795016,-9.7593912,3.4698432,2.223516,0.0,0.0,0.0,0.0
3.46,0.34594800000000003,-9.867595200000002,3.4698432,2.223516,0.0,0.0,0.0,0.0
3.4800000000000004,0.3328416,-9.7051368,3.4158936000000004,2.223516,0.0,0.0,0.0,0.0
3.5,0.1374648,-9.7593912,3.4698432,2.223516,0.0,0.0,0.0,0.0
3.52,0.0362712,-9.7593912,3.4698432,2.0702016,0.0,0.0,0.0,0.0
3.54,0.1118616,-9.7051368,3.5240976,2.0702016,0.0,0.0,0.0,0.0
3.56,0.12679680000000002,-9.813645600000001,3.4158936000000004,1.9936968000000002,0.0,0.0,0.0,0.0
3.58,-0.2051304,-9.596628,3.5240976,2.0702016,0.0,0.0,0.0,0.0
3.6,-0.161544,-9.867595200000002,3.578352,2.223516,0.0,0.0,0.0,0.0
3.62,-0.1816608,-9.976104,3.578352,2.223516,0.0,0.0,0.0,0.0
3.64,-0.138684,-9.976104,3.3616392,1.9936968000000002,0.0,0.0,0.0,0.0
3.66,-0.16367759999999998,-9.976104,3.4698432,2.223516,0.0,0.0,0.0,0.0
3.68,-0.2093976,-9.976104,3.2531304000000003,2.3003256,0.0,0.0,0.0,0.0
3.7,-0.32217360000000006,-9.7593912,3.3616392,1.9936968000000002,0.0,0.0,0.0,0.0
3.72,-0.2535936,-9.379915200000001,3.7411152,2.3003256,0.0,0.0,0.0,0.0
3.74,-0.2264664,-10.3013256,3.578352,2.5304496,0.0,0.0,0.0,0.0
3.7600000000000002,-0.13258799999999998,-9.6508824,3.3616392,1.2268200000000002,0.0,0.0,0.0,0.0
3.7800000000000002,0.043586400000000004,-9.976104,3.4698432,2.3003256,0.0,0.0,0.0,0.0
3.8000000000000003,0.11521440000000001,-9.217152,3.578352,2.223516,0.0,0.0,0.0,0.0
3.8200000000000003,0.003048000000000003,-20.602956,3.1446216000000002,5.2139088000000005,0.0,0.0,0.0,0.0
3.8400000000000003,0.0405384,-110.98499520000001,44.7300096,30.8238144,0.0,0.0,0.0,0.0
3.8600000000000003,0.08382,-184.0711584,38.007036,93.85188240000001,0.0,0.0,0.0,0.0
3.8800000000000003,0.13228320000000002,-218.55409680000002,3.5240976,-38.6446776,0.0,0.0,0.0,0.0
3.9000000000000004,0.1862328,-179.028852,43.0493424,35.57778,0.0,0.0,0.0,0.0
3.9200000000000004,0.24566880000000002,-158.3173872,63.7608072,137.173716,0.0,0.0,0.0,0.0
3.9400000000000004,-9.3579696,-153.54635280000002,33.615477600000006,14.951964,0.0,0.0,0.0,0.0
3.9600000000000004,-19.503542400000004,-143.0819592,57.6340224,44.0122056,0.0,0.0,0.0,0.0
3.9800000000000004,-30.705552,-152.1366528,65.2787112,36.9579144,0.0,0.0,0.0,0.0
4.0,-41.922496800000005,-155.606496,66.47169840000001,40.1784312,0.0,0.0,0.0,0.0
4.0200000000000005,-52.567027200000005,-167.8597608,54.218433600000004,50.299620000000004,0.0,0.0,0.0,0.0
4.04,-61.819536,-167.1550632,54.16417920000001,24.229771200000002,0.0,0.0,0.0,0.0
4.0600000000000005,-69.7696344,-156.52821120000002,48.0916488,23.7695232,0.0,0.0,0.0,0.0
4.08,-76.24053839999999,-150.3474768,52.428952800000005,41.021812800000006,0.0,0.0,0.0,0.0
4.1000000000000005,-81.30418080000001,-161.624772,56.2243224,28.8304224,0.0,0.0,0.0,0.0
4.12,-84.998052,-154.46806800000002,47.224188000000005,28.676803200000002,0.0,0.0,0.0,0.0
4.140000000000001,-87.2944152,-142.7567376,53.2967184,33.660892800000006,0.0,0.0,0.0,0.0
4.16,-88.6367544,-149.0459808,45.9229968,35.4244656,0.0,0.0,0.0,0.0
4.180000000000001,-89.16344880000001,-145.52188320000002,46.844712,21.5460072,0.0,0.0,0.0,0.0
4.2,-88.6843032,-133.48533120000002,41.531133600000004,27.6801072,0.0,0.0,0.0,0.0
4.220000000000001,-87.55898160000001,-140.31681360000002,47.8206816,30.6705,0.0,0.0,0.0,0.0
4.24,-86.0041968,-132.7263792,45.9772512,29.1370512,0.0,0.0,0.0,0.0
4.26,-84.161376,-131.4794424,41.91060960000001,28.0635456,0.0,0.0,0.0,0.0
4.28,-81.86775600000001,-136.9554792,36.434572800000005,29.980432800000003,0.0,0.0,0.0,0.0
4.300000000000001,-79.55950560000002,-129.4189944,41.043148800000004,28.370174400000003,0.0,0.0,0.0,0.0
4.32,-77.2006584,-134.08182480000002,52.971192,32.894016,0.0,0.0,0.0,0.0
4.34,-74.9039904,-124.2142296,46.8989664,33.7377024,0.0,0.0,0.0,0.0
4.36,-72.5542872,-125.6239296,38.765988,29.1370512,0.0,0.0,0.0,0.0
4.38,-70.1716656,-127.57556400000001,31.284062400000003,40.791688799999996,0.0,0.0,0.0,0.0
4.4,-67.9350432,-120.4731144,36.1093512,34.4277696,0.0,0.0,0.0,0.0
4.42,-65.55821279999999,-120.039384,36.434572800000005,30.977128800000003,0.0,0.0,0.0,0.0
4.44,-63.188088,-119.768112,41.476879200000006,34.9645224,0.0,0.0,0.0,0.0
4.46,-60.744506400000006,-115.4850624,32.3139816,29.5204896,0.0,0.0,0.0,0.0
4.48,-58.4899008,-113.69588639999999,38.8744968,28.216860000000004,0.0,0.0,0.0,0.0
4.5,-56.310276,-112.0691688,43.9710576,29.0602416,0.0,0.0,0.0,0.0
4.5200000000000005,-54.133699199999995,-110.171484,40.7721816,27.526792800000003,0.0,0.0,0.0,0.0
4.54,-51.8330688,-115.21379040000001,39.0915144,35.0410272,0.0,0.0,0.0,0.0
4.5600000000000005,-49.4867184,-104.53298880000001,39.2539728,27.526792800000003,0.0,0.0,0.0,0.0
4.58,-47.057462400000006,-106.7016408,35.2418904,26.8367256,0.0,0.0,0.0,0.0
4.6000000000000005,-44.5117728,-104.80395600000001,36.922557600000005,26.069848800000003,0.0,0.0,0.0,0.0
4.62,-41.941089600000005,-103.39425600000001,35.4046536,28.676803200000002,0.0,0.0,0.0,0.0
4.640000000000001,-39.529816800000006,-105.94268880000001,37.8442728,22.236074400000003,0.0,0.0,0.0,0.0
4.66,-37.2270528,-102.74381280000001,32.5852536,17.3287944,0.0,0.0,0.0,0.0
4.68,-34.951415999999995,-99.16515600000001,30.199584,22.0059504,0.0,0.0,0.0,0.0
4.7,-32.688276,-100.4123976,37.085320800000005,25.456591200000002,0.0,0.0,0.0,0.0
4.720000000000001,-30.5068224,-99.32791920000001,33.8321904,20.85594,0.0,0.0,0.0,0.0
4.74,-28.2455112,-93.797628,30.1453296,17.3287944,0.0,0.0,0.0,0.0
4.76,-25.929945599999996,-90.7615152,31.229808,23.079456,0.0,0.0,0.0,0.0
4.78,-23.494593599999998,-96.67128240000001,24.9945144,20.625816,0.0,0.0,0.0,0.0
4.800000000000001,-21.1918296,-92.387928,26.6754864,20.0125584,0.0,0.0,0.0,0.0
4.82,-18.9238128,-90.05651280000001,30.199584,25.6864104,0.0,0.0,0.0,0.0
4.84,-16.707612,-89.0265936,27.8681688,27.373478400000003,0.0,0.0,0.0,0.0
4.86,-14.3777208,-88.59255840000002,23.5308648,23.7695232,0.0,0.0,0.0,0.0
4.88,-11.737543200000001,-79.3757112,28.8441384,22.9261416,0.0,0.0,0.0,0.0
4.9,-9.3826584,-82.5203328,25.6995168,19.935748800000002,0.0,0.0,0.0,0.0
4.92,-7.0558152000000005,-81.652872,31.446520800000002,16.101974400000003,0.0,0.0,0.0,0.0
4.94,-4.4991528,-77.2610088,30.199584,23.693018400000003,0.0,0.0,0.0,0.0
4.96,-1.9936968000000002,-77.7489936,33.615477600000006,19.0923672,0.0,0.0,0.0,0.0
4.98,0.5175504,-79.1044392,26.729740800000002,17.5589184,0.0,0.0,0.0,0.0
5.0,3.380232000000001,-72.1101936,22.9886256,21.469502400000003,0.0,0.0,0.0,0.0
5.0200000000000005,5.916472799999999,-79.1044392,24.235562400000003,19.782434400000003,0.0,0.0,0.0,0.0
5.04,8.4710016,-78.3454872,26.4042144,22.772827200000002,0.0,0.0,0.0,0.0
5.0600000000000005,10.872216000000002,-74.71288080000001,23.747577600000003,14.185087200000002,0.0,0.0,0.0,0.0
5.08,13.201802400000002,-66.90542880000001,26.241756000000002,13.49502,0.0,0.0,0.0,0.0
5.1000000000000005,15.9565848,-66.6884112,18.8680344,16.101974400000003,0.0,0.0,0.0,0.0
5.12,18.44802,-59.20648560000001,21.5789256,18.4791096,0.0,0.0,0.0,0.0
5.140000000000001,20.977555200000005,-54.218433600000004,19.3017648,13.49502,0.0,0.0,0.0,0.0
5.16,23.453750400000004,-58.88095920000001,20.9281776,18.0188616,0.0,0.0,0.0,0.0
5.18,25.988162400000004,-57.6340224,22.0669104,16.945356,0.0,0.0,0.0,0.0
5.2,28.501238400000005,-59.5859616,11.2230408,15.565221600000001,0.0,0.0,0.0,0.0
5.220000000000001,31.1648856,-60.019692,16.645128,13.6483344,0.0,0.0,0.0,0.0
5.24,33.77732640000001,-47.2784424,3.9035736000000005,11.501323200000002,0.0,0.0,0.0,0.0
5.26,36.498580800000006,-50.043588,17.2955712,15.795345600000001,0.0,0.0,0.0,0.0
5.28,39.3502896,-49.609857600000005,23.04288,17.2522896,0.0,0.0,0.0,0.0
5.300000000000001,42.068496,-45.8687424,11.277295200000001,14.338401600000001,0.0,0.0,0.0,0.0
5.32,45.0421248,-39.796212000000004,16.0486344,8.6645496,0.0,0.0,0.0,0.0
5.34,48.144684000000005,-38.495020800000006,14.5304256,10.811256,0.0,0.0,0.0,0.0
5.36,51.174700800000004,-32.8562208,0.7589520000000001,2.9903928,0.0,0.0,0.0,0.0
5.38,54.502507200000004,-34.3744296,11.4943128,5.137404,0.0,0.0,0.0,0.0
5.4,57.7559424,-19.3017648,6.1807343999999995,1.3801344,0.0,0.0,0.0,0.0
5.42,61.20597360000001,-16.645128,7.8617064,5.827471200000001,0.0,0.0,0.0,0.0
5.44,64.76481840000001,-11.76528,4.7170848,7.8976728000000005,0.0,0.0,0.0,0.0
5.46,68.627244,-9.5423736,6.2892432000000005,4.4473368,0.0,0.0,0.0,0.0
5.48,72.6134184,0.8132064000000001,2.3314152,4.2937176,0.0,0.0,0.0,0.0
5.5,76.5587496,-0.5422392,1.8434304000000001,2.4536400000000005,0.0,0.0,0.0,0.0
5.5200000000000005,80.53730399999999,1.3011912,0.9759696,1.6102584000000002,0.0,0.0,0.0,0.0
5.54,84.740496,-0.16276320000000002,1.789176,-0.3834384,0.0,0.0,0.0,0.0
5.5600000000000005,89.20612080000001,2.8194000000000004,-1.0844784,-0.6135624,0.0,0.0,0.0,0.0
5.58,93.75587039999999,7.807452,-5.205069600000001,-1.7635728,0.0,0.0,0.0,0.0
5.6000000000000005,98.6512632,0.9759696,-5.096560800000001,-8.357616,0.0,0.0,0.0,0.0
5.62,103.878888,13.8799824,-3.7953696000000003,5.5205376,0.0,0.0,0.0,0.0
5.640000000000001,109.289088,5.476036800000001,1.8976848000000002,-0.6900672,0.0,0.0,0.0,0.0
5.66,115.0135368,7.970215200000001,-4.2833544,-0.23012400000000002,0.0,0.0,0.0,0.0
5.68,120.8702688,-1.5182088,3.2531304000000003,0.30662880000000003,0.0,0.0,0.0,0.0
5.7,126.825756,3.2531304000000003,4.7713392,20.0125584,0.0,0.0,0.0,0.0
5.720000000000001,133.1479176,3.0903671999999998,-0.0542544,-0.7668768,0.0,0.0,0.0,0.0
5.74,139.6904496,4.933797600000001,-6.018276,-9.2778072,0.0,0.0,0.0,0.0
5.76,146.0162688,149.208744,-4.012082400000001,-8.1277968,0.0,0.0,0.0,0.0
5.78,153.4710672,2.6023824,12.036552,10.657941600000001,0.0,0.0,0.0,0.0
5.800000000000001,160.32815280000003,-3.7953696000000003,-3.7953696000000003,0.15331440000000002,0.0,0.0,0.0,0.0
5.82,166.42110480000002,10.247376,-9.7051368,-2.1470112,0.0,0.0,0.0,0.0
5.84,171.873672,-40.2299424,27.8681688,11.4248184,0.0,0.0,0.0,0.0
5.86,177.07508400000003,2.7108912000000003,2.8194000000000004,6.1341,0.0,0.0,0.0,0.0
5.880000000000001,182.39414880000004,107.29813440000001,-82.032348,13.6483344,0.0,0.0,0.0,0.0
5.9,187.34745360000002,13.771473600000002,-6.614769600000001,0.3834384,0.0,0.0,0.0,0.0
5.92,192.20200320000004,18.1087776,-9.5423736,0.5367528,0.0,0.0,0.0,0.0
5.94,197.2037712,14.6389344,-5.3132736,-0.7668768,0.0,0.0,0.0,0.0
5.960000000000001,202.08788640000003,16.373856,-7.4822304,-0.5367528,0.0,0.0,0.0,0.0
5.98,206.92292880000002,20.0607168,-6.0725304,1.8400776,0.0,0.0,0.0,0.0
6.0,211.7028024,17.1331128,-3.3616392,3.2205168000000004,0.0,0.0,0.0,0.0
6.02,216.55887600000003,19.3017648,-5.638800000000001,1.6867632000000001,0.0,0.0,0.0,0.0
6.04,221.52864000000002,18.488558400000002,-10.4640888,2.223516,0.0,0.0,0.0,0.0
6.0600000000000005,226.6175808,18.8680344,-6.7229735999999995,0.6135624,0.0,0.0,0.0,0.0
6.08,231.6699456,17.512588800000003,-5.9097672,2.683764,0.0,0.0,0.0,0.0
6.1,236.89330320000002,18.542508,-8.4582,4.370527200000001,0.0,0.0,0.0,0.0
6.12,241.94140080000003,19.844004,-9.0001344,3.5271456,0.0,0.0,0.0,0.0
6.140000000000001,246.97883040000002,21.5789256,-6.614769600000001,1.3036296,0.0,0.0,0.0,0.0
6.16,251.69500080000003,14.367967200000002,-7.210958400000001,3.2205168000000004,0.0,0.0,0.0,0.0
6.18,256.15635840000004,18.488558400000002,-4.5000672,2.3768304000000002,0.0,0.0,0.0,0.0
6.2,260.5799208,18.163032,-4.3915584,2.3003256,0.0,0.0,0.0,0.0
6.220000000000001,264.89527920000006,17.024604,-8.024164800000001,-0.15331440000000002,0.0,0.0,0.0,0.0
6.24,268.982952,16.482364800000003,-4.8795432000000005,1.3036296,0.0,0.0,0.0,0.0
6.26,273.03435360000003,12.958267200000002,-6.2349888,2.1470112,0.0,0.0,0.0,0.0
6.28,277.2006648,15.235428,-7.427976000000001,1.6102584000000002,0.0,0.0,0.0,0.0
6.300000000000001,281.33131440000005,21.849892800000003,-6.018276,1.8400776,0.0,0.0,0.0,0.0
6.32,285.2693304,13.283488800000002,-6.777228,-0.6900672,0.0,0.0,0.0,0.0
6.34,288.9650304,17.3498256,-9.7593912,0.8433816000000001,0.0,0.0,0.0,0.0
6.36,292.6272024,14.367967200000002,-7.427976000000001,0.3834384,0.0,0.0,0.0,0.0
6.380000000000001,296.0363904,18.6510168,-7.6989432,0.4599432,0.0,0.0,0.0,0.0
6.4,299.27245200000004,18.488558400000002,-2.0061936,1.1500104,0.0,0.0,0.0,0.0
6.42,302.43383760000006,16.6993824,-4.120591200000001,-1.0735056,0.0,0.0,0.0,0.0
6.44,305.84211120000003,16.0486344,-6.9399912,1.3801344,0.0,0.0,0.0,0.0
6.460000000000001,309.190644,13.5005064,-7.3194672,1.6102584000000002,0.0,0.0,0.0,0.0
6.48,312.32581680000004,18.488558400000002,-4.5000672,3.450336,0.0,0.0,0.0,0.0
6.5,315.45154080000003,14.096695200000001,-8.241182400000001,0.30662880000000003,0.0,0.0,0.0,0.0
6.52,318.1727952,13.988186400000002,-4.8795432000000005,-1.4569440000000002,0.0,0.0,0.0,0.0
6.54,320.85747360000005,13.0664712,-3.5240976,0.996696,0.0,0.0,0.0,0.0
6.5600000000000005,323.3751216,16.6993824,-4.445812800000001,2.9135831999999997,0.0,0.0,0.0,0.0
6.58,326.0162136,17.512588800000003,-4.2833544,0.15331440000000002,0.0,0.0,0.0,0.0
6.6,328.71156,14.8016976,2.7651456,1.7635728,0.0,0.0,0.0,0.0
6.62,331.46329440000005,15.0726648,-6.9399912,1.6102584000000002,0.0,0.0,0.0,0.0
6.640000000000001,333.966312,13.7172192,-3.3073848000000003,2.5304496,0.0,0.0,0.0,0.0
6.66,336.32759760000005,15.1269192,-6.5605152,-0.0768096,0.0,0.0,0.0,0.0
6.68,338.6382864,13.174980000000001,-6.343497600000001,-0.9201912000000001,0.0,0.0,0.0,0.0
6.7,340.98189360000003,13.9342368,-7.8617064,-0.5367528,0.0,0.0,0.0,0.0
6.720000000000001,343.16426160000003,14.5304256,-8.4582,7.130796,0.0,0.0,0.0,0.0
6.74,345.29420400000004,10.681106400000001,-3.6326064,-1.3801344,0.0,0.0,0.0,0.0
6.76,347.58538560000005,12.361773600000001,-3.6868608000000003,2.1470112,0.0,0.0,0.0,0.0
6.78,349.81194960000005,13.446252000000001,-3.4698432,0.15331440000000002,0.0,0.0,0.0,0.0
6.800000000000001,351.83307840000003,10.789310400000002,-4.8252888,2.0702016,0.0,0.0,0.0,0.0
6.82,354.0437928,11.006328,-4.608576,3.2205168000000004,0.0,0.0,0.0,0.0
6.84,356.299008,11.1148368,-5.5845456,1.0735056,0.0,0.0,0.0,0.0
6.86,358.57251120000006,11.3315496,-3.5240976,4.984089600000001,0.0,0.0,0.0,0.0
6.880000000000001,360.79115040000005,12.2532648,-6.9399912,2.223516,0.0,0.0,0.0,0.0
6.9,362.9790048,14.964156000000001,-3.1446216000000002,-1.3036296,0.0,0.0,0.0,0.0
6.92,365.1888048,13.9342368,-6.343497600000001,1.6102584000000002,0.0,0.0,0.0,0.0
6.94,367.52936400000004,13.174980000000001,-4.608576,-1.3036296,0.0,0.0,0.0,0.0
6.960000000000001,370.13814720000005,14.8016976,-0.5964936000000001,-0.6135624,0.0,0.0,0.0,0.0
6.98,372.8889672000001,16.590873600000002,-3.1446216000000002,-0.3834384,0.0,0.0,0.0,0.0
7.0,375.68337360000004,10.735360799999999,-4.7713392,1.9168872,0.0,0.0,0.0,0.0
7.02,378.4204776,9.867595200000002,-4.2291,-1.2268200000000002,0.0,0.0,0.0,0.0
7.04,381.02255520000006,12.8497584,-4.7170848,-0.6900672,0.0,0.0,0.0,0.0
7.0600000000000005,383.60116320000003,11.5485672,-5.367528,0.9201912000000001,0.0,0.0,0.0,0.0
7.08,386.13008880000007,11.440058400000002,-4.5000672,-0.4599432,0.0,0.0,0.0,0.0
7.1,388.52002560000005,16.8618408,-3.6326064,2.9903928,0.0,0.0,0.0,0.0
7.12,391.082784,13.3919976,-5.6930544,2.683764,0.0,0.0,0.0,0.0
7.140000000000001,393.498324,9.488119200000002,-4.3915584,3.0672024,0.0,0.0,0.0,0.0
7.16,395.84345520000005,11.982297599999999,-6.4520064,1.0735056,0.0,0.0,0.0,0.0
7.18,398.10842400000007,11.873788800000002,-4.2833544,2.7602688,0.0,0.0,0.0,0.0
7.2,400.3404744,12.795504,-4.988052,1.7635728,0.0,0.0,0.0,0.0
7.220000000000001,402.41921040000005,14.1509496,-3.3073848000000003,1.6867632000000001,0.0,0.0,0.0,0.0
7.24,404.40864,10.681106400000001,-2.6566368,0.15331440000000002,0.0,0.0,0.0,0.0
7.26,406.43708399999997,12.0908064,-3.4158936000000004,0.6900672,0.0,0.0,0.0,0.0
7.28,408.66517200000004,11.2230408,-3.3073848000000003,0.0,0.0,0.0,0.0,0.0
7.300000000000001,410.6664888000001,10.626852000000001,-4.8795432000000005,0.0,0.0,0.0,0.0,0.0
7.32,412.90067280000005,10.355580000000002,-5.259324,-0.996696,0.0,0.0,0.0,0.0
7.34,415.21044720000003,11.3315496,-3.8496240000000004,0.6900672,0.0,0.0,0.0,0.0
7.36,417.2367576,12.8497584,-4.2833544,1.3036296,0.0,0.0,0.0,0.0
7.380000000000001,419.18168640000005,10.735360799999999,-3.6868608000000003,2.4536400000000005,0.0,0.0,0.0,0.0
7.4,421.11594720000005,12.7412496,-3.8496240000000004,3.6036504000000003,0.0,0.0,0.0,0.0
7.42,422.90451360000003,10.4098344,-3.7953696000000003,0.15331440000000002,0.0,0.0,0.0,0.0
7.44,424.6363872,12.958267200000002,-6.2349888,0.4599432,0.0,0.0,0.0,0.0
7.460000000000001,426.5849736,11.76528,-4.7170848,-1.6867632000000001,0.0,0.0,0.0,0.0
7.48,428.5375224,12.9040128,-2.7108912000000003,0.3834384,0.0,0.0,0.0,0.0
7.5,430.42088160000003,11.982297599999999,-3.7411152,1.7635728,0.0,0.0,0.0,0.0
7.52,432.18536880000005,9.3256608,-4.554321600000001,1.6102584000000002,0.0,0.0,0.0,0.0
7.54,433.8861528,10.355580000000002,-6.4520064,0.30662880000000003,0.0,0.0,0.0,0.0
7.5600000000000005,435.553104,8.6206584,-3.6326064,-1.5334488,0.0,0.0,0.0,0.0
7.58,437.28223440000005,11.1148368,-6.2349888,0.15331440000000002,0.0,0.0,0.0,0.0
7.6,439.1421240000001,10.789310400000002,-5.476036800000001,0.9201912000000001,0.0,0.0,0.0,0.0
7.62,440.8474800000001,9.976104,-4.2291,-1.1500104,0.0,0.0,0.0,0.0
7.640000000000001,442.55679840000005,10.8978192,-5.367528,1.7635728,0.0,0.0,0.0,0.0
7.66,444.30696000000006,10.626852000000001,-5.421782400000001,0.7668768,0.0,0.0,0.0,0.0
7.68,445.91295120000007,10.843564800000001,-4.554321600000001,0.30662880000000003,0.0,0.0,0.0,0.0
7.7,447.53387760000004,8.4582,-3.3616392,2.9903928,0.0,0.0,0.0,0.0
7.720000000000001,449.21942160000003,7.8617064,-3.7411152,2.6069544000000002,0.0,0.0,0.0,0.0
7.74,450.9500760000001,9.6508824,-1.0844784,2.3003256,0.0,0.0,0.0,0.0
7.76,452.68652160000005,9.596628,-0.9217152000000001,1.2268200000000002,0.0,0.0,0.0,0.0
7.78,454.3290888000001,12.524536800000002,-3.6326064,0.4599432,0.0,0.0,0.0,0.0
7.8,456.07620240000006,10.0303584,-2.6566368,1.5334488,0.0,0.0,0.0,0.0
7.82,457.6453128,9.5423736,-3.9035736000000005,-1.5334488,0.0,0.0,0.0,0.0
7.84,459.2494752,9.0001344,-3.2531304000000003,-1.3036296,0.0,0.0,0.0,0.0
7.86,461.05846320000006,8.4039456,-3.957828,-0.8433816000000001,0.0,0.0,0.0,0.0
7.88,462.8680608,8.7834216,-4.8795432000000005,-0.6900672,0.0,0.0,0.0,0.0
7.9,464.83950720000007,6.885736800000001,-3.0903671999999998,1.3801344,0.0,0.0,0.0,0.0
7.92,466.8883728,7.8617064,-3.957828,1.4569440000000002,0.0,0.0,0.0,0.0
7.94,468.7948968,9.0543888,-4.933797600000001,0.6135624,0.0,0.0,0.0,0.0
7.96,470.83278960000007,7.8617064,-4.2833544,0.0768096,0.0,0.0,0.0,0.0
7.98,472.8545280000001,7.5904344,-4.554321600000001,0.3834384,0.0,0.0,0.0,0.0
8.0,474.81926880000003,7.6989432,-3.2531304000000003,-0.6135624,0.0,0.0,0.0,0.0
8.02,476.81083200000006,8.1326736,-3.1446216000000002,0.9201912000000001,0.0,0.0,0.0,0.0
8.04,478.6835232,7.915960800000001,-1.9519392,2.223516,0.0,0.0,0.0,0.0
8.06,480.687888,8.3496912,-3.0361128,1.0735056,0.0,0.0,0.0,0.0
8.08,482.346,7.807452,-2.9279088,2.9135831999999997,0.0,0.0,0.0,0.0
8.100000000000001,483.84073920000003,7.4822304,-4.012082400000001,-0.7668768,0.0,0.0,0.0,0.0
8.120000000000001,485.4506928,7.5904344,-3.4698432,1.0735056,0.0,0.0,0.0,0.0
8.14,487.16275440000004,7.048500000000001,-2.9279088,1.1500104,0.0,0.0,0.0,0.0
8.16,488.68462080000006,7.970215200000001,-3.4158936000000004,1.2268200000000002,0.0,0.0,0.0,0.0
8.18,490.2506832,8.241182400000001,-3.7953696000000003,0.7668768,0.0,0.0,0.0,0.0
8.2,491.7567,6.343497600000001,-2.2229064000000003,-0.3834384,0.0,0.0,0.0,0.0
8.22,493.401096,9.1628976,-0.5964936000000001,-1.2268200000000002,0.0,0.0,0.0,0.0
8.24,494.86444080000007,7.427976000000001,-3.4158936000000004,-0.7668768,0.0,0.0,0.0,0.0
8.26,496.401852,7.3194672,-2.0061936,2.1470112,0.0,0.0,0.0,0.0
8.280000000000001,497.84233680000006,8.1326736,-1.8434304000000001,0.6900672,0.0,0.0,0.0,0.0
8.3,499.36481280000004,5.8555128,-0.4337304,1.3801344,0.0,0.0,0.0,0.0
8.32,500.9866536,9.3256608,-2.6023824,0.23012400000000002,0.0,0.0,0.0,0.0
8.34,502.51827360000004,7.048500000000001,-1.3011912,0.0,0.0,0.0,0.0,0.0
8.36,503.9871048,7.5904344,-3.1446216000000002,1.4569440000000002,0.0,0.0,0.0,0.0
8.379999999999999,505.47971040000004,7.048500000000001,-3.7953696000000003,-0.0768096,0.0,0.0,0.0,0.0
8.4,506.9192808000001,6.8314824000000005,-2.7108912000000003,0.3834384,0.0,0.0,0.0,0.0
8.42,508.45455840000005,6.885736800000001,-6.018276,0.3834384,0.0,0.0,0.0,0.0
8.440000000000001,509.98465440000007,6.2892432000000005,-2.3856696,-0.7668768,0.0,0.0,0.0,0.0
8.46,511.56138480000004,8.0784192,-3.7411152,-0.15331440000000002,0.0,0.0,0.0,0.0
8.48,513.1789584,7.6989432,-0.9759696,-0.0768096,0.0,0.0,0.0,0.0
8.5,514.8306696000001,7.156704,-2.8194000000000004,0.23012400000000002,0.0,0.0,0.0,0.0
8.52,516.524748,5.7470040000000004,-2.3856696,1.2268200000000002,0.0,0.0,0.0,0.0
8.54,518.1916992,5.5302912,-1.9519392,3.1437072,0.0,0.0,0.0,0.0
8.56,519.6983256000001,7.5904344,-3.1446216000000002,2.0702016,0.0,0.0,0.0,0.0
8.58,521.1272280000001,6.9399912,-4.120591200000001,2.6069544000000002,0.0,0.0,0.0,0.0
8.600000000000001,522.5280888000001,5.367528,-2.4399240000000004,1.6867632000000001,0.0,0.0,0.0,0.0
8.620000000000001,524.0722056,6.506260800000001,-2.9279088,0.0768096,0.0,0.0,0.0,0.0
8.64,525.662652,6.7229735999999995,-1.6264128000000002,0.7668768,0.0,0.0,0.0,0.0
8.66,527.2939416,7.4822304,-2.2771608000000003,2.7602688,0.0,0.0,0.0,0.0
8.68,528.8584800000001,5.964021600000001,-1.3011912,1.0735056,0.0,0.0,0.0,0.0
8.7,530.4315528,6.1267848,-1.5724632,1.2268200000000002,0.0,0.0,0.0,0.0
8.72,531.99792,5.5845456,-1.8976848000000002,0.5367528,0.0,0.0,0.0,0.0
8.74,533.4185928,5.476036800000001,-1.6806672000000002,-0.4599432,0.0,0.0,0.0,0.0
8.76,534.879804,6.2349888,-1.789176,1.9168872,0.0,0.0,0.0,0.0
8.780000000000001,536.2626816000001,6.506260800000001,-2.2771608000000003,-0.5367528,0.0,0.0,0.0,0.0
8.8,537.769308,5.1508152,-1.4639544,0.7668768,0.0,0.0,0.0,0.0
8.82,539.2280808,6.7229735999999995,-1.5182088,0.9201912000000001,0.0,0.0,0.0,0.0
8.84,540.5737728,4.933797600000001,-1.4639544,0.3834384,0.0,0.0,0.0,0.0
8.86,542.0932008,6.614769600000001,-2.7108912000000003,0.6900672,0.0,0.0,0.0,0.0
8.879999999999999,543.7202232,5.367528,-1.6806672000000002,-0.23012400000000002,0.0,0.0,0.0,0.0
8.9,545.2497096,4.608576,-2.1143976,-1.2268200000000002,0.0,0.0,0.0,0.0
8.92,546.6700776,7.753197600000001,0.0542544,-0.8433816000000001,0.0,0.0,0.0,0.0
8.940000000000001,548.1489672,6.506260800000001,-2.0601432,0.30662880000000003,0.0,0.0,0.0,0.0
8.96,549.7848288,3.957828,-0.4879848,0.6900672,0.0,0.0,0.0,0.0
8.98,551.2405536,5.259324,-2.6566368,1.3036296,0.0,0.0,0.0,0.0
9.0,552.5713104,4.2833544,-2.2229064000000003,0.3834384,0.0,0.0,0.0,0.0
9.02,553.8487272,4.988052,-3.4698432,0.6135624,0.0,0.0,0.0,0.0
9.04,555.248064,5.3132736,-3.578352,0.15331440000000002,0.0,0.0,0.0,0.0
9.06,556.6510584,5.476036800000001,-3.6326064,-0.23012400000000002,0.0,0.0,0.0,0.0
9.08,558.120804,6.0725304,-2.7108912000000003,0.3834384,0.0,0.0,0.0,0.0
9.100000000000001,559.5612888,5.964021600000001,-1.3011912,0.0,0.0,0.0,0.0,0.0
9.120000000000001,561.1243032000001,5.638800000000001,-0.8674608,0.0,0.0,0.0,0.0,0.0
9.14,562.6190424,2.1143976,6.4520064,-1.2268200000000002,0.0,0.0,0.0,0.0
9.16,564.049164,4.445812800000001,-1.0844784,-0.23012400000000002,0.0,0.0,0.0,0.0
9.18,565.45734,4.608576,-0.7046976,0.15331440000000002,0.0,0.0,0.0,0.0
9.2,566.8956912,4.5000672,-0.7046976,0.5367528,0.0,0.0,0.0,0.0
9.22,568.1840808000001,5.367528,-2.0061936,0.4599432,0.0,0.0,0.0,0.0
9.24,569.418216,5.096560800000001,-2.3856696,0.15331440000000002,0.0,0.0,0.0,0.0
9.26,570.7123968,4.1748456,-1.4639544,0.7668768,0.0,0.0,0.0,0.0
9.280000000000001,572.0681472,4.608576,-2.2229064000000003,-0.30662880000000003,0.0,0.0,0.0,0.0
9.3,573.3662904,4.7170848,-2.2229064000000003,-0.4599432,0.0,0.0,0.0,0.0
9.32,574.5784800000001,5.0423064,-2.0061936,0.6135624,0.0,0.0,0.0,0.0
9.34,575.9095416,4.3915584,-0.5964936000000001,0.15331440000000002,0.0,0.0,0.0,0.0
9.36,577.2293256,6.506260800000001,4.554321600000001,0.6900672,0.0,0.0,0.0,0.0
9.379999999999999,578.6381112,5.367528,-0.2709672,0.0,0.0,0.0,0.0,0.0
9.4,580.0651848000001,4.2833544,-0.7046976,0.0768096,0.0,0.0,0.0,0.0
9.42,581.404476,5.367528,-1.8976848000000002,0.30662880000000003,0.0,0.0,0.0,0.0
9.440000000000001,582.7343184,4.8252888,-1.3554456000000001,1.2268200000000002,0.0,0.0,0.0,0.0
9.46,584.0294136,5.259324,-2.4399240000000004,0.7668768,0.0,0.0,0.0,0.0
9.48,585.2827512,3.6868608000000003,-1.4097000000000002,0.23012400000000002,0.0,0.0,0.0,0.0
9.5,586.5031704,4.120591200000001,-2.4941784,-0.0768096,0.0,0.0,0.0,0.0
9.52,587.7699192000001,4.445812800000001,-3.0361128,-0.30662880000000003,0.0,0.0,0.0,0.0
9.54,589.051908,4.7170848,-2.0061936,0.15331440000000002,0.0,0.0,0.0,0.0
9.56,590.2732416,4.012082400000001,-0.8674608,-0.5367528,0.0,0.0,0.0,0.0
9.58,591.5073768000001,4.3376088,-1.0844784,0.0,0.0,0.0,0.0,0.0
9.600000000000001,592.6034376,3.8496240000000004,-0.8132064000000001,1.3036296,0.0,0.0,0.0,0.0
9.620000000000001,593.7083376,4.8795432000000005,-1.9519392,1.0735056,0.0,0.0,0.0,0.0
9.64,594.8464608,3.8496240000000004,-2.0061936,0.30662880000000003,0.0,0.0,0.0,0.0
9.66,596.04402,3.2531304000000003,-0.650748,0.6135624,0.0,0.0,0.0,0.0
9.68,597.3031488,3.8496240000000004,-1.3554456000000001,1.5334488,0.0,0.0,0.0,0.0
9.7,598.5674592,3.957828,-1.6806672000000002,0.4599432,0.0,0.0,0.0,0.0
9.72,599.9250384000001,3.957828,-1.8976848000000002,0.30662880000000003,0.0,0.0,0.0,0.0
9.74,601.2826176,4.3915584,-1.8976848000000002,-0.15331440000000002,0.0,0.0,0.0,0.0
9.76,602.5649112000001,3.4158936000000004,-2.0061936,0.6900672,0.0,0.0,0.0,0.0
9.780000000000001,603.8478144000001,3.957828,-2.3314152,-0.23012400000000002,0.0,0.0,0.0,0.0
9.8,605.0917032000001,3.6326064,-2.7651456,0.7668768,0.0,0.0,0.0,0.0
9.82,606.3377256,4.0663368,-2.548128,1.6102584000000002,0.0,0.0,0.0,0.0
9.84,607.5121200000001,4.5000672,-2.2229064000000003,2.9903928,0.0,0.0,0.0,0.0
9.86,608.851716,2.7108912000000003,-1.4097000000000002,0.30662880000000003,0.0,0.0,0.0,0.0
9.879999999999999,610.0047744,4.120591200000001,-2.4941784,-0.30662880000000003,0.0,0.0,0.0,0.0
9.9,611.2773144,3.0361128,-1.4097000000000002,0.15331440000000002,0.0,0.0,0.0,0.0
9.92,612.5166312,3.1446216000000002,-1.3011912,0.15331440000000002,0.0,0.0,0.0,0.0
9.940000000000001,613.7489376000001,4.1748456,-0.9217152000000001,0.7668768,0.0,0.0,0.0,0.0
9.96,614.9416200000001,4.012082400000001,-1.7349216,0.30662880000000003,0.0,0.0,0.0,0.0
9.98,616.0675512,3.5240976,-1.2469368,0.5367528,0.0,0.0,0.0,0.0
10.0,617.3824584,3.578352,-1.0844784,0.6900672,0.0,0.0,0.0,0.0
10.02,618.655608,3.7953696000000003,-0.9759696,1.1500104,0.0,0.0,0.0,0.0
10.04,619.905288,4.445812800000001,-1.9519392,1.6867632000000001,0.0,0.0,0.0,0.0
10.06,621.2488464,4.1748456,-1.4639544,0.8433816000000001,0.0,0.0,0.0,0.0
10.08,622.4939544000001,3.6326064,-0.5964936000000001,0.7668768,0.0,0.0,0.0,0.0
10.100000000000001,623.6171424,3.578352,-1.3011912,0.3834384,0.0,0.0,0.0,0.0
10.120000000000001,624.71046,3.3616392,-0.5422392,0.30662880000000003,0.0,0.0,0.0,0.0
10.14,625.9580063999999,3.4158936000000004,-0.37947600000000004,0.6135624,0.0,0.0,0.0,0.0
10.16,627.0677832,3.0361128,-0.9759696,0.7668768,0.0,0.0,0.0,0.0
10.18,628.2653424,3.7953696000000003,-1.7349216,0.8433816000000001,0.0,0.0,0.0,0.0
10.2,629.3620128,3.9035736000000005,-1.9519392,1.4569440000000002,0.0,0.0,0.0,0.0
10.22,630.401076,3.5240976,-1.4639544,0.996696,0.0,0.0,0.0,0.0
10.24,631.4072208,2.7108912000000003,-0.7589520000000001,0.8433816000000001,0.0,0.0,0.0,0.0
10.26,632.3609399999999,3.1446216000000002,-0.7589520000000001,0.6135624,0.0,0.0,0.0,0.0
10.280000000000001,633.3311183999999,3.5240976,-1.030224,0.5367528,0.0,0.0,0.0,0.0
10.3,634.3637808,3.2531304000000003,-1.4097000000000002,-0.23012400000000002,0.0,0.0,0.0,0.0
10.32,635.3961383999999,3.0361128,-0.9759696,0.30662880000000003,0.0,0.0,0.0,0.0
10.34,636.36906,3.3073848000000003,-1.3554456000000001,0.15331440000000002,0.0,0.0,0.0,0.0
10.36,637.3675847999999,3.198876,-0.8132064000000001,0.6135624,0.0,0.0,0.0,0.0
10.379999999999999,638.3779967999999,2.9818584,-1.3554456000000001,-0.30662880000000003,0.0,0.0,0.0,0.0
10.4,639.3079415999999,3.8496240000000004,-0.4879848,0.4599432,0.0,0.0,0.0,0.0
10.42,640.226304,2.8736544000000004,-1.1387328,-0.15331440000000002,0.0,0.0,0.0,0.0
10.440000000000001,641.2449455999999,2.7651456,-0.37947600000000004,0.3834384,0.0,0.0,0.0,0.0
10.46,642.3422256,3.3616392,-0.9759696,0.0768096,0.0,0.0,0.0,0.0
10.48,643.4224368,3.7953696000000003,-1.4097000000000002,-0.0768096,0.0,0.0,0.0,0.0
10.5,644.5063056,2.4399240000000004,-0.4879848,0.5367528,0.0,0.0,0.0,0.0
10.52,645.6602784,2.8736544000000004,-1.3554456000000001,0.6135624,0.0,0.0,0.0,0.0
10.54,646.7599968,2.2229064000000003,-0.9217152000000001,0.3834384,0.0,0.0,0.0,0.0
10.56,647.8749551999999,2.7108912000000003,-1.1926824,0.0,0.0,0.0,0.0,0.0
10.58,649.0395960000001,2.7651456,-1.3554456000000001,0.6135624,0.0,0.0,0.0,0.0
10.600000000000001,650.3231088,2.8736544000000004,-1.1387328,0.30662880000000003,0.0,0.0,0.0,0.0
10.620000000000001,651.61668,2.8736544000000004,-0.9217152000000001,-0.23012400000000002,0.0,0.0,0.0,0.0
10.64,652.8913535999999,2.6566368,-1.030224,0.15331440000000002,0.0,0.0,0.0,0.0
10.66,654.0069216,2.7108912000000003,-1.1926824,0.9201912000000001,0.0,0.0,0.0,0.0
10.68,655.1514455999999,2.7651456,-0.7046976,0.30662880000000003,0.0,0.0,0.0,0.0
10.7,656.2816439999999,2.8736544000000004,-1.1387328,0.30662880000000003,0.0,0.0,0.0,0.0
10.72,657.5392488,2.7108912000000003,-1.1926824,0.6900672,0.0,0.0,0.0,0.0
10.74,658.6490256000001,2.4941784,-0.8674608,0.9201912000000001,0.0,0.0,0.0,0.0
10.76,659.9127264,2.8194000000000004,-1.4097000000000002,0.9201912000000001,0.0,0.0,0.0,0.0
10.780000000000001,661.0895591999999,2.2771608000000003,-0.9759696,0.6135624,0.0,0.0,0.0,0.0
10.8,662.2176239999999,2.3856696,-1.1926824,0.0768096,0.0,0.0,0.0,0.0
10.82,663.3008831999999,2.548128,-0.8132064000000001,0.0,0.0,0.0,0.0,0.0
10.84,664.3119048,2.8194000000000004,-1.1926824,-0.15331440000000002,0.0,0.0,0.0,0.0
10.86,665.3244504,2.3856696,-0.9759696,0.0,0.0,0.0,0.0,0.0
10.879999999999999,666.2748167999999,1.6264128000000002,-1.3011912,0.15331440000000002,0.0,0.0,0.0,0.0
10.9,667.2257927999999,2.1143976,-0.5964936000000001,0.0768096,0.0,0.0,0.0,0.0
10.92,668.2166976,1.9519392,-0.3252216,0.0768096,0.0,0.0,0.0,0.0
10.940000000000001,669.118296,2.6566368,-1.030224,0.15331440000000002,0.0,0.0,0.0,0.0
10.96,669.9936816,2.548128,-1.1387328,0.0,0.0,0.0,0.0,0.0
10.98,670.8971088,4.120591200000001,0.4337304,0.4599432,0.0,0.0,0.0,0.0
11.0,671.8310159999999,2.7651456,-0.4879848,0.5367528,0.0,0.0,0.0,0.0
11.02,672.7643136,1.8976848000000002,-0.16276320000000002,0.6135624,0.0,0.0,0.0,0.0
11.04,673.6034279999999,2.7108912000000003,-1.1926824,0.9201912000000001,0.0,0.0,0.0,0.0
11.06,674.5153896,2.4941784,-0.5422392,0.7668768,0.0,0.0,0.0,0.0
11.08,675.5148288,2.7108912000000003,-0.8674608,0.996696,0.0,0.0,0.0,0.0
11.100000000000001,676.4621472,2.6023824,-1.1926824,0.23012400000000002,0.0,0.0,0.0,0.0
11.120000000000001,677.3634408,2.1143976,-0.9217152000000001,0.30662880000000003,0.0,0.0,0.0,0.0
11.14,678.2674776,2.6023824,-1.3011912,1.6102584000000002,0.0,0.0,0.0,0.0
11.16,679.2257687999999,2.2229064000000003,-1.3554456000000001,0.30662880000000003,0.0,0.0,0.0,0.0
11.18,680.1438264,2.0061936,-1.4639544,0.15331440000000002,0.0,0.0,0.0,0.0
11.2,681.1012032,2.2229064000000003,-0.8132064000000001,-0.0768096,0.0,0.0,0.0,0.0
11.22,681.956472,1.7349216,-0.650748,0.23012400000000002,0.0,0.0,0.0,0.0
11.24,682.8614232,2.0601432,-0.9759696,0.0,0.0,0.0,0.0,0.0
11.26,683.8093511999999,2.0601432,-1.0844784,-0.6135624,0.0,0.0,0.0,0.0
11.280000000000001,684.74844,2.0061936,0.0542544,-0.7668768,0.0,0.0,0.0,0.0
11.3,685.627788,1.6264128000000002,0.0,0.30662880000000003,0.0,0.0,0.0,0.0
11.32,686.5943087999999,2.6566368,-1.1387328,0.4599432,0.0,0.0,0.0,0.0
11.34,687.5861279999999,1.789176,-0.2709672,0.7668768,0.0,0.0,0.0,0.0
11.36,688.5715464,2.0601432,-0.5422392,-0.4599432,0.0,0.0,0.0,0.0
11.379999999999999,689.5801296,1.2469368,0.16276320000000002,0.0768096,0.0,0.0,0.0,0.0
11.4,690.6316896,1.789176,-0.5964936000000001,0.30662880000000003,0.0,0.0,0.0,0.0
11.42,691.6058304,1.4097000000000002,-0.2170176,0.0768096,0.0,0.0,0.0,0.0
11.440000000000001,692.6220335999999,1.6806672000000002,-0.0542544,0.0,0.0,0.0,0.0,0.0
11.46,693.6412847999999,1.4097000000000002,-0.2170176,-0.15331440000000002,0.0,0.0,0.0,0.0
11.48,694.5069168,1.0844784,-0.3252216,-0.15331440000000002,0.0,0.0,0.0,0.0
11.5,695.3438976,1.9519392,-0.4337304,-0.6135624,0.0,0.0,0.0,0.0
11.52,696.1446072,1.6264128000000002,0.2170176,-0.6900672,0.0,0.0,0.0,0.0
11.54,697.030356,2.2229064000000003,-0.4879848,0.0,0.0,0.0,0.0,0.0
11.56,697.9368312,1.5724632,-0.4879848,0.23012400000000002,0.0,0.0,0.0,0.0
11.58,698.8146552,2.2229064000000003,-1.2469368,0.3834384,0.0,0.0,0.0,0.0
11.600000000000001,699.7555727999999,1.6264128000000002,-0.5422392,0.5367528,0.0,0.0,0.0,0.0
11.620000000000001,700.6099272,1.7349216,-0.9759696,0.23012400000000002,0.0,0.0,0.0,0.0
11.64,701.4587951999999,1.3011912,-0.5422392,0.6135624,0.0,0.0,0.0,0.0
11.66,702.3725856,1.2469368,-0.4879848,0.30662880000000003,0.0,0.0,0.0,0.0
11.68,703.2059088,1.7349216,-0.7589520000000001,0.30662880000000003,0.0,0.0,0.0,0.0
11.7,704.1117744000001,1.8434304000000001,-1.0844784,-0.23012400000000002,0.0,0.0,0.0,0.0
11.72,705.0877439999999,1.3554456000000001,-0.4879848,-0.6900672,0.0,0.0,0.0,0.0
11.74,706.0536551999999,1.5724632,-0.4879848,-0.7668768,0.0,0.0,0.0,0.0
11.76,707.0488272,1.4097000000000002,0.4337304,0.30662880000000003,0.0,0.0,0.0,0.0
11.78,707.9376239999999,1.4097000000000002,-0.1085088,0.15331440000000002,0.0,0.0,0.0,0.0
11.8,708.8742744,2.0601432,-0.4337304,0.7668768,0.0,0.0,0.0,0.0
11.82,709.6509047999999,1.5724632,-0.0542544,0.3834384,0.0,0.0,0.0,0.0
11.84,710.5198895999999,0.4879848,1.789176,0.7668768,0.0,0.0,0.0,0.0
11.86,711.3065784,0.3252216,1.4097000000000002,0.0,0.0,0.0,0.0,0.0
11.88,712.0176767999999,0.2709672,2.6566368,0.996696,0.0,0.0,0.0,0.0
11.9,712.869288,1.1387328,0.16276320000000002,0.6135624,0.0,0.0,0.0,0.0
11.92,713.6428704,1.5724632,0.0542544,0.0,0.0,0.0,0.0,0.0
11.94,714.4493712,0.4337304,0.1085088,-0.996696,0.0,0.0,0.0,0.0
11.96,715.1863776,1.4639544,-0.5964936000000001,-0.6900672,0.0,0.0,0.0,0.0
11.98,715.91424,1.4639544,0.16276320000000002,0.6900672,0.0,0.0,0.0,0.0
12.0,716.7643272,1.4097000000000002,-0.5422392,-0.15331440000000002,0.0,0.0,0.0,0.0
12.02,717.5531496,0.9217152000000001,0.5964936000000001,0.30662880000000003,0.0,0.0,0.0,0.0
12.040000000000001,718.3907399999999,0.9759696,0.2170176,0.15331440000000002,0.0,0.0,0.0,0.0
12.06,719.0692248,0.8132064000000001,0.2709672,0.15331440000000002,0.0,0.0,0.0,0.0
12.08,719.6852256000001,0.9217152000000001,-0.2709672,0.4599432,0.0,0.0,0.0,0.0
12.1,720.3365832,0.9217152000000001,0.4879848,0.23012400000000002,0.0,0.0,0.0,0.0
12.120000000000001,721.0214687999999,0.9759696,-0.3252216,-0.0768096,0.0,0.0,0.0,0.0
12.14,721.7539032,0.9217152000000001,-0.37947600000000004,0.15331440000000002,0.0,0.0,0.0,0.0
12.16,722.5454687999999,0.8674608,-0.4337304,0.7668768,0.0,0.0,0.0,0.0
12.18,723.3281952,0.8674608,0.0,-0.4599432,0.0,0.0,0.0,0.0
12.200000000000001,724.0322831999999,0.8674608,0.1085088,-0.23012400000000002,0.0,0.0,0.0,0.0
12.22,724.8979152,1.3011912,0.0,-0.15331440000000002,0.0,0.0,0.0,0.0
12.24,725.6858232,0.4337304,0.5422392,-0.0768096,0.0,0.0,0.0,0.0
12.26,726.4886664,1.6806672000000002,-0.0542544,-0.6135624,0.0,0.0,0.0,0.0
12.28,727.2378648,1.1926824,0.5422392,0.0,0.0,0.0,0.0,0.0
12.3,728.0660063999999,1.1926824,0.5422392,-0.6135624,0.0,0.0,0.0,0.0
12.32,728.8213007999999,0.9759696,-0.3252216,0.15331440000000002,0.0,0.0,0.0,0.0
12.34,729.5400192,0.9217152000000001,-0.2709672,-0.5367528,0.0,0.0,0.0,0.0
12.36,730.3367664,0.5964936000000001,0.2709672,-0.6135624,0.0,0.0,0.0,0.0
12.38,731.1432672,1.0844784,-0.3252216,-0.23012400000000002,0.0,0.0,0.0,0.0
12.4,731.9528159999999,1.2469368,-0.0542544,-0.4599432,0.0,0.0,0.0,0.0
12.42,732.7020143999999,1.1926824,0.3252216,-0.4599432,0.0,0.0,0.0,0.0
12.44,733.4512128,0.5964936000000001,0.7046976,-0.23012400000000002,0.0,0.0,0.0,0.0
12.46,734.1498144,0.7589520000000001,0.1085088,-0.15331440000000002,0.0,0.0,0.0,0.0
12.48,734.8307375999999,1.030224,0.16276320000000002,-0.5367528,0.0,0.0,0.0,0.0
12.5,735.5076983999999,0.5964936000000001,0.0542544,-0.4599432,0.0,0.0,0.0,0.0
12.52,736.1349767999999,1.030224,-0.16276320000000002,-0.6900672,0.0,0.0,0.0,0.0
12.540000000000001,736.7479295999999,0.650748,-0.3252216,-0.23012400000000002,0.0,0.0,0.0,0.0
12.56,737.2956551999999,0.5422392,0.0,-0.23012400000000002,0.0,0.0,0.0,0.0
12.58,737.8900152,0.9217152000000001,0.4879848,0.5367528,0.0,0.0,0.0,0.0
12.6,738.4898615999999,0.5964936000000001,0.0542544,-0.30662880000000003,0.0,0.0,0.0,0.0
12.620000000000001,739.1982168,0.7046976,0.2709672,-0.4599432,0.0,0.0,0.0,0.0
12.64,739.9489392,0.37947600000000004,-0.2709672,-0.30662880000000003,0.0,0.0,0.0,0.0
12.66,740.6700960000001,0.8674608,0.1085088,-0.15331440000000002,0.0,0.0,0.0,0.0
12.68,741.26598,0.37947600000000004,0.37947600000000004,-0.23012400000000002,0.0,0.0,0.0,0.0
12.700000000000001,741.9465984,0.4879848,-0.0542544,-0.4599432,0.0,0.0,0.0,0.0
12.72,742.6189872,0.9759696,0.2170176,0.23012400000000002,0.0,0.0,0.0,0.0
12.74,743.2413888,0.8132064000000001,0.2709672,0.15331440000000002,0.0,0.0,0.0,0.0
12.76,743.8537319999999,0.5964936000000001,0.37947600000000004,0.6900672,0.0,0.0,0.0,0.0
12.78,744.4590648000001,0.4337304,0.0,1.0735056,0.0,0.0,0.0,0.0
12.8,745.0784183999999,0.650748,0.2170176,0.0768096,0.0,0.0,0.0,0.0
12.82,745.7441016,0.8132064000000001,0.2709672,0.15331440000000002,0.0,0.0,0.0,0.0
12.84,746.5524312,0.7046976,-0.16276320000000002,0.15331440000000002,0.0,0.0,0.0,0.0
12.86,747.4086143999999,0.5964936000000001,0.0542544,0.4599432,0.0,0.0,0.0,0.0
12.88,748.0395504,0.16276320000000002,-0.16276320000000002,0.4599432,0.0,0.0,0.0,0.0
12.9,748.8027695999999,0.4337304,-0.2170176,0.6135624,0.0,0.0,0.0,0.0
12.92,749.4465072,0.8132064000000001,-0.2709672,0.7668768,0.0,0.0,0.0,0.0
12.94,750.0932928,0.5964936000000001,-0.2709672,1.0735056,0.0,0.0,0.0,0.0
12.96,750.7385544,0.5422392,0.0,0.5367528,0.0,0.0,0.0,0.0
12.98,751.3853399999999,0.37947600000000004,-0.16276320000000002,0.15331440000000002,0.0,0.0,0.0,0.0
13.0,752.0306016000001,0.2709672,0.2709672,0.15331440000000002,0.0,0.0,0.0,0.0
13.02,752.7316415999999,0.7046976,-0.2709672,0.0768096,0.0,0.0,0.0,0.0
13.040000000000001,753.4387776,0.7046976,-0.0542544,0.23012400000000002,0.0,0.0,0.0,0.0
13.06,754.0739808,0.0,0.2170176,-1.3036296,0.0,0.0,0.0,0.0
13.08,754.8018432,0.37947600000000004,0.37947600000000004,-0.0768096,0.0,0.0,0.0,0.0
13.1,755.3733432,0.2170176,0.8674608,0.5367528,0.0,0.0,0.0,0.0
13.120000000000001,755.9378328,0.8132064000000001,0.7046976,0.996696,0.0,0.0,0.0,0.0
13.14,756.5407272,0.7589520000000001,0.5422392,0.15331440000000002,0.0,0.0,0.0,0.0
13.16,757.101864,0.5964936000000001,0.7046976,0.30662880000000003,0.0,0.0,0.0,0.0
13.18,757.6279488,0.650748,0.4337304,0.0,0.0,0.0,0.0,0.0
13.200000000000001,758.1519000000001,0.7589520000000001,0.7589520000000001,0.6135624,0.0,0.0,0.0,0.0
13.22,758.7008448,0.4337304,0.5422392,0.5367528,0.0,0.0,0.0,0.0
13.24,759.1690176000001,0.5964936000000001,0.4879848,0.23012400000000002,0.0,0.0,0.0,0.0
13.26,759.6859584,0.8132064000000001,0.7046976,0.30662880000000003,0.0,0.0,0.0,0.0
13.28,760.241304,0.37947600000000004,0.4879848,0.15331440000000002,0.0,0.0,0.0,0.0
13.3,760.7576352,0.0542544,-0.5964936000000001,0.4599432,0.0,0.0,0.0,0.0
13.32,761.3303544,0.3252216,0.5422392,0.15331440000000002,0.0,0.0,0.0,0.0
13.34,761.8576584,0.9759696,0.7589520000000001,0.3834384,0.0,0.0,0.0,0.0
13.36,762.2886455999999,0.5422392,0.4337304,0.0,0.0,0.0,0.0,0.0
13.38,762.9704832,0.7589520000000001,-0.2170176,0.0,0.0,0.0,0.0,0.0
13.4,763.5352776,0.4879848,0.2709672,-0.0768096,0.0,0.0,0.0,0.0
13.42,764.0138136,0.37947600000000004,0.5964936000000001,0.0,0.0,0.0,0.0,0.0
13.44,764.520696,0.37947600000000004,0.5964936000000001,-0.4599432,0.0,0.0,0.0,0.0
13.46,765.0147767999999,0.4879848,0.37947600000000004,0.0768096,0.0,0.0,0.0,0.0
13.48,765.6454079999999,0.4879848,0.7046976,-0.30662880000000003,0.0,0.0,0.0,0.0
13.5,766.1495472,0.5422392,0.7589520000000001,0.0768096,0.0,0.0,0.0,0.0
13.52,766.73964,0.4337304,0.4337304,0.0,0.0,0.0,0.0,0.0
13.540000000000001,767.1681887999999,0.5422392,0.5422392,-0.0768096,0.0,0.0,0.0,0.0
13.56,767.6580024,0.4337304,0.650748,0.0768096,0.0,0.0,0.0,0.0
13.58,768.1883544,0.4879848,0.7046976,-0.996696,0.0,0.0,0.0,0.0
13.6,768.6062352,0.3252216,0.1085088,0.0,0.0,0.0,0.0,0.0
13.620000000000001,769.0405751999999,0.16276320000000002,0.0542544,-0.23012400000000002,0.0,0.0,0.0,0.0
13.64,769.4636376,0.3252216,0.4337304,-0.0768096,0.0,0.0,0.0,0.0
13.66,769.9254096000001,0.37947600000000004,0.4879848,-0.15331440000000002,0.0,0.0,0.0,0.0
13.68,770.3554824,0.0542544,0.2709672,0.0,0.0,0.0,0.0,0.0
13.700000000000001,770.8014048,0.8132064000000001,-0.0542544,0.0,0.0,0.0,0.0,0.0
13.72,771.3649800000001,0.37947600000000004,0.4879848,0.4599432,0.0,0.0,0.0,0.0
13.74,771.9130104,0.16276320000000002,0.4879848,0.4599432,0.0,0.0,0.0,0.0
13.76,772.4150159999999,0.37947600000000004,0.16276320000000002,0.23012400000000002,0.0,0.0,0.0,0.0
13.78,772.8859319999999,0.2709672,0.2709672,0.0,0.0,0.0,0.0,0.0
13.8,773.394948,0.2170176,0.3252216,-0.0768096,0.0,0.0,0.0,0.0
13.82,773.8960392,0.0542544,0.4879848,0.0,0.0,0.0,0.0,0.0
13.84,774.3559824,0.3252216,0.3252216,0.30662880000000003,0.0,0.0,0.0,0.0
13.86,774.9540000000001,0.1085088,0.2170176,-0.3834384,0.0,0.0,0.0,0.0
13.88,775.4986776,0.0,0.3252216,-0.15331440000000002,0.0,0.0,0.0,0.0
13.9,775.9016232,0.0,0.1085088,-0.3834384,0.0,0.0,0.0,0.0
13.92,776.351508,-0.0542544,0.2709672,-0.4599432,0.0,0.0,0.0,0.0
13.94,776.826996,0.1085088,0.1085088,-0.3834384,0.0,0.0,0.0,0.0
13.96,777.2759664,0.0,0.3252216,-0.5367528,0.0,0.0,0.0,0.0
13.98,777.6786072,-0.1085088,0.2170176,-0.6900672,0.0,0.0,0.0,0.0
14.0,778.0653983999999,-0.2709672,0.7046976,-0.3834384,0.0,0.0,0.0,0.0
14.02,778.5128448,0.37947600000000004,-0.2709672,-0.4599432,0.0,0.0,0.0,0.0
14.040000000000001,778.8929304,0.1085088,0.3252216,-0.30662880000000003,0.0,0.0,0.0,0.0
14.06,779.2873415999999,2.1686520000000002,-1.4097000000000002,-0.8433816000000001,0.0,0.0,0.0,0.0
14.08,779.649444,-0.7589520000000001,-0.2170176,0.3834384,0.0,0.0,0.0,0.0
14.1,780.0481224,-0.16276320000000002,0.16276320000000002,-0.7668768,0.0,0.0,0.0,0.0
14.120000000000001,780.4339992,-0.1085088,0.2170176,-0.7668768,0.0,0.0,0.0,0.0
14.14,780.7973208,-0.2709672,0.37947600000000004,-0.4599432,0.0,0.0,0.0,0.0
14.16,781.1710056000001,-1.7349216,1.9519392,-0.4599432,0.0,0.0,0.0,0.0
14.18,781.592544,-0.2170176,0.4337304,-0.9201912000000001,0.0,0.0,0.0,0.0
14.200000000000001,782.0896727999999,-0.37947600000000004,0.37947600000000004,-0.8433816000000001,0.0,0.0,0.0,0.0
14.22,782.3767943999999,-0.37947600000000004,0.2709672,-0.7668768,0.0,0.0,0.0,0.0
14.24,782.776692,-0.2709672,0.37947600000000004,-0.6900672,0.0,0.0,0.0,0.0
14.26,783.1455000000001,-0.4337304,0.4337304,-0.7668768,0.0,0.0,0.0,0.0
14.28,783.5908128,-0.2709672,0.4879848,-0.6135624,0.0,0.0,0.0,0.0
14.3,783.9986352000001,-0.37947600000000004,0.4879848,-0.6135624,0.0,0.0,0.0,0.0
14.32,784.4006664,-0.2170176,0.4337304,-0.6135624,0.0,0.0,0.0,0.0
14.34,784.6548696,-0.2170176,0.5422392,-0.6135624,0.0,0.0,0.0,0.0
14.36,784.9648511999999,-0.2170176,0.5422392,-0.6135624,0.0,0.0,0.0,0.0
14.38,785.3988864,-0.0542544,0.5964936000000001,-0.6135624,0.0,0.0,0.0,0.0
14.4,785.7359951999999,-0.0542544,0.5964936000000001,-0.6135624,0.0,0.0,0.0,0.0
14.42,786.1935000000001,-0.1085088,0.650748,-0.5367528,0.0,0.0,0.0,0.0
14.44,786.6061992,-0.0542544,0.5964936000000001,-0.4599432,0.0,0.0,0.0,0.0
14.46,786.9497087999999,-0.0542544,0.7046976,-0.23012400000000002,0.0,0.0,0.0,0.0
14.48,787.309068,-0.1085088,0.7589520000000001,-0.23012400000000002,0.0,0.0,0.0,0.0
14.5,787.6227072,0.0542544,0.7046976,-0.30662880000000003,0.0,0.0,0.0,0.0
14.52,788.0198616,-0.2170176,0.5422392,-0.30662880000000003,0.0,0.0,0.0,0.0
14.540000000000001,788.369772,-0.16276320000000002,0.4879848,-0.30662880000000003,0.0,0.0,0.0,0.0
14.56,788.7148056,-0.0542544,0.5964936000000001,-0.3834384,0.0,0.0,0.0,0.0
14.58,789.1137888,-0.16276320000000002,0.5964936000000001,-0.23012400000000002,0.0,0.0,0.0,0.0
14.6,789.4003008,-0.16276320000000002,0.37947600000000004,-0.3834384,0.0,0.0,0.0,0.0
14.620000000000001,789.7904448,-0.2170176,0.4337304,-0.15331440000000002,0.0,0.0,0.0,0.0
14.64,790.1430983999999,-0.16276320000000002,0.5964936000000001,-0.30662880000000003,0.0,0.0,0.0,0.0
14.66,790.5545784000001,-0.2709672,0.4879848,-0.4599432,0.0,0.0,0.0,0.0
14.68,790.8733992,-0.3252216,0.5422392,-0.5367528,0.0,0.0,0.0,0.0
14.700000000000001,791.205936,-0.2709672,0.4879848,-0.4599432,0.0,0.0,0.0,0.0
14.72,791.530548,-0.3252216,0.5422392,-0.30662880000000003,0.0,0.0,0.0,0.0
14.74,791.9834807999999,-0.3252216,0.5422392,-0.30662880000000003,0.0,0.0,0.0,0.0
14.76,792.2992535999999,-0.3252216,0.650748,-0.5367528,0.0,0.0,0.0,0.0
14.78,792.5473608000001,-0.37947600000000004,0.5964936000000001,-0.5367528,0.0,0.0,0.0,0.0
14.8,792.8363112,-0.37947600000000004,0.4879848,-0.4599432,0.0,0.0,0.0,0.0
14.82,793.1563511999999,-0.2170176,0.4337304,-0.5367528,0.0,0.0,0.0,0.0
14.84,793.4251847999999,-0.2709672,0.5964936000000001,-0.5367528,0.0,0.0,0.0,0.0
14.86,793.7421767999999,-0.1085088,0.4337304,-0.4599432,0.0,0.0,0.0,0.0
14.88,794.1009263999999,-0.2709672,0.5964936000000001,-0.4599432,0.0,0.0,0.0,0.0
14.9,794.3920103999999,-0.2170176,0.650748,-0.3834384,0.0,0.0,0.0,0.0
14.92,794.7257664,-0.2170176,0.7589520000000001,-0.3834384,0.0,0.0,0.0,0.0
