time,baro_altitude,accl_x,accl_y,accl_z,gps_altitude,gyro_roll,gyro_pitch,gyro_yaw
0.0,0.0,-10.193121600000001,-1.1926824,1.2268200000000002,0.0,0.0,0.0,0.0
0.020000000000000462,-0.2386584,-10.193121600000001,-1.1926824,1.3801344,0.0,0.0,0.0,0.0
0.040000000000000036,-0.44927520000000004,-10.138867200000002,-1.2469368,1.3036296,0.0,0.0,0.0,0.0
0.0600000000000005,-0.5428488,-10.193121600000001,-1.0844784,1.1500104,0.0,0.0,0.0,0.0
0.08000000000000007,-0.3773424,-10.138867200000002,-1.2469368,1.3036296,0.0,0.0,0.0,0.0
0.10000000000000053,-0.275844,-10.138867200000002,-1.2469368,1.2268200000000002,0.0,0.0,0.0,0.0
0.1200000000000001,-0.3773424,-10.138867200000002,-1.2469368,1.3036296,0.0,0.0,0.0,0.0
0.13999999999999968,-0.4285488,-10.138867200000002,-1.2469368,1.3036296,0.0,0.0,0.0,0.0
0.16000000000000014,-0.4261104,-10.0846128,-1.1926824,1.1500104,0.0,0.0,0.0,0.0
0.17999999999999972,-0.4535424,-10.0303584,-1.2469368,1.3036296,0.0,0.0,0.0,0.0
0.20000000000000018,-0.3243072,-10.193121600000001,-1.1926824,1.2268200000000002,0.0,0.0,0.0,0.0
0.21999999999999975,-0.300228,-10.138867200000002,-1.1387328,1.2268200000000002,0.0,0.0,0.0,0.0
0.2400000000000002,-0.3499104,-10.193121600000001,-1.0844784,1.3036296,0.0,0.0,0.0,0.0
0.2599999999999998,-0.2554224,-10.0846128,-1.1926824,1.1500104,0.0,0.0,0.0,0.0
0.28000000000000025,-0.1816608,-10.138867200000002,-1.2469368,1.3036296,0.0,0.0,0.0,0.0
0.2999999999999998,-0.04236719999999997,-10.138867200000002,-1.2469368,1.3036296,0.0,0.0,0.0,0.0
0.3200000000000003,-0.15392399999999998,-10.193121600000001,-1.1926824,1.1500104,0.0,0.0,0.0,0.0
0.33999999999999986,-0.2968752,-10.0846128,-1.3011912,1.3036296,0.0,0.0,0.0,0.0
0.3600000000000003,-0.24475439999999998,-10.0303584,-1.2469368,1.2268200000000002,0.0,0.0,0.0,0.0
0.3799999999999999,-0.0679704,-10.0846128,-1.1926824,1.2268200000000002,0.0,0.0,0.0,0.0
0.40000000000000036,0.06644640000000003,-10.138867200000002,-1.2469368,1.3036296,0.0,0.0,0.0,0.0
0.41999999999999993,0.013716000000000013,-10.193121600000001,-1.0844784,1.2268200000000002,0.0,0.0,0.0,0.0
0.4400000000000004,-0.0329184,-10.193121600000001,-1.3011912,1.3036296,0.0,0.0,0.0,0.0
0.45999999999999996,-0.1274064,-10.193121600000001,-1.0844784,1.2268200000000002,0.0,0.0,0.0,0.0
0.4800000000000004,-0.20299679999999998,-10.138867200000002,-1.3554456000000001,1.4569440000000002,0.0,0.0,0.0,0.0
0.5,-0.2822448,-10.193121600000001,-1.0844784,1.1500104,0.0,0.0,0.0,0.0
0.5200000000000005,-0.4242816,-10.0846128,-1.0844784,1.3036296,0.0,0.0,0.0,0.0
0.54,-0.4532376000000001,-10.138867200000002,-1.2469368,1.3801344,0.0,0.0,0.0,0.0
0.5600000000000005,-0.12862559999999998,-10.0846128,-1.0844784,1.2268200000000002,0.0,0.0,0.0,0.0
0.5800000000000001,-0.1578864,-10.0846128,-1.3011912,1.3801344,0.0,0.0,0.0,0.0
0.6000000000000005,-0.2322576,-10.138867200000002,-1.2469368,1.2268200000000002,0.0,0.0,0.0,0.0
0.6200000000000001,-0.1222248,-10.138867200000002,-1.1387328,1.2268200000000002,0.0,0.0,0.0,0.0
0.6400000000000001,-0.0835152,-10.138867200000002,-1.2469368,1.3801344,0.0,0.0,0.0,0.0
0.6600000000000001,-0.0408432,-10.193121600000001,-1.0844784,1.2268200000000002,0.0,0.0,0.0,0.0
0.6800000000000002,-0.07680959999999999,-10.138867200000002,-1.2469368,1.3036296,0.0,0.0,0.0,0.0
0.7000000000000002,-0.1267968,-10.0846128,-1.1926824,1.2268200000000002,0.0,0.0,0.0,0.0
0.7200000000000002,-0.33649920000000005,-10.138867200000002,-1.1387328,1.3036296,0.0,0.0,0.0,0.0
0.7400000000000002,-0.3136392,-10.138867200000002,-1.3554456000000001,1.3036296,0.0,0.0,0.0,0.0
0.7600000000000002,-0.2782824,-10.138867200000002,-1.1387328,1.3036296,0.0,0.0,0.0,0.0
0.7800000000000002,-0.3313176,-10.0846128,-1.3011912,1.3801344,0.0,0.0,0.0,0.0
0.8000000000000003,-0.2167128,-10.0846128,-1.1926824,1.4569440000000002,0.0,0.0,0.0,0.0
0.8200000000000003,-0.188976,-10.138867200000002,-1.2469368,1.1500104,0.0,0.0,0.0,0.0
0.8400000000000003,-0.0353568,-10.138867200000002,-1.2469368,1.3036296,0.0,0.0,0.0,0.0
0.8600000000000003,-0.0658368,-10.193121600000001,-1.1926824,1.1500104,0.0,0.0,0.0,0.0
0.8799999999999999,-0.11094719999999998,-10.138867200000002,-1.2469368,1.1500104,0.0,0.0,0.0,0.0
0.8999999999999999,-0.0780288,-10.193121600000001,-1.0844784,1.2268200000000002,0.0,0.0,0.0,0.0
0.9199999999999999,-0.05913119999999999,-10.0846128,-1.1926824,1.2268200000000002,0.0,0.0,0.0,0.0
0.94,-0.181356,-10.193121600000001,-1.1926824,1.3801344,0.0,0.0,0.0,0.0
0.96,-0.17312639999999999,-10.247376,-1.1387328,1.2268200000000002,0.0,0.0,0.0,0.0
0.98,-0.08381999999999999,-10.138867200000002,-1.3554456000000001,1.3801344,0.0,0.0,0.0,0.0
1.0,-0.16672559999999997,-10.138867200000002,-1.1387328,1.2268200000000002,0.0,0.0,0.0,0.0
1.02,-0.06705599999999999,-10.138867200000002,-1.2469368,1.3036296,0.0,0.0,0.0,0.0
1.04,-0.05730239999999999,-10.138867200000002,-1.1387328,1.3036296,0.0,0.0,0.0,0.0
1.06,-0.1499616,-10.138867200000002,-1.1387328,1.3036296,0.0,0.0,0.0,0.0
1.08,-0.188976,-10.0846128,-1.3011912,1.3036296,0.0,0.0,0.0,0.0
1.1,-0.2200656,-10.138867200000002,-1.1387328,1.1500104,0.0,0.0,0.0,0.0
1.12,-0.2767584,-10.0303584,-1.1387328,1.1500104,0.0,0.0,0.0,0.0
1.1400000000000001,-0.3209544,-10.138867200000002,-1.1387328,1.1500104,0.0,0.0,0.0,0.0
1.1600000000000001,-0.21336,-10.138867200000002,-1.2469368,1.2268200000000002,0.0,0.0,0.0,0.0
1.1800000000000002,-0.1438656,-10.0846128,-1.3011912,1.2268200000000002,0.0,0.0,0.0,0.0
1.2000000000000002,-0.1225296,-10.193121600000001,-1.3011912,1.1500104,0.0,0.0,0.0,0.0
1.2200000000000002,-0.022250399999999986,-10.193121600000001,-1.3011912,1.3036296,0.0,0.0,0.0,0.0
1.2400000000000002,0.038709600000000004,-10.138867200000002,-1.1387328,1.2268200000000002,0.0,0.0,0.0,0.0
1.2600000000000002,-0.0018288000000000017,-10.138867200000002,-1.2469368,1.2268200000000002,0.0,0.0,0.0,0.0
1.2800000000000002,-0.09052559999999998,-10.193121600000001,-1.0844784,1.2268200000000002,0.0,0.0,0.0,0.0
1.3000000000000003,-0.29718,-10.0846128,-1.0844784,1.0735056,0.0,0.0,0.0,0.0
1.3200000000000003,-0.3553968,-10.138867200000002,-1.1387328,1.2268200000000002,0.0,0.0,0.0,0.0
1.3400000000000003,-0.34625279999999997,-10.0846128,-1.1926824,1.2268200000000002,0.0,0.0,0.0,0.0
1.3600000000000003,-0.5708904,-10.138867200000002,-1.2469368,1.2268200000000002,0.0,0.0,0.0,0.0
1.38,-0.6403848,-10.138867200000002,-1.3554456000000001,1.3801344,0.0,0.0,0.0,0.0
1.4,-0.6025896,-10.138867200000002,-1.2469368,1.1500104,0.0,0.0,0.0,0.0
1.42,-0.5803392,-10.0303584,-1.3554456000000001,1.3801344,0.0,0.0,0.0,0.0
1.44,-0.5529072,-10.138867200000002,-1.2469368,1.3036296,0.0,0.0,0.0,0.0
1.46,-0.47365919999999995,-10.0846128,-1.3011912,1.3801344,0.0,0.0,0.0,0.0
1.48,-0.4032504,-10.0846128,-1.1926824,1.2268200000000002,0.0,0.0,0.0,0.0
1.5,-0.5020055999999999,-10.138867200000002,-1.1387328,1.2268200000000002,0.0,0.0,0.0,0.0
1.52,-0.4081272,-10.0846128,-1.1926824,1.1500104,0.0,0.0,0.0,0.0
1.54,-0.3486912,-10.193121600000001,-1.1926824,1.1500104,0.0,0.0,0.0,0.0
1.56,-0.43494960000000005,-10.0846128,-1.1926824,1.1500104,0.0,0.0,0.0,0.0
1.58,-0.4047744,-10.0846128,-1.3011912,1.2268200000000002,0.0,0.0,0.0,0.0
1.6,-0.2136648,-10.0846128,-1.1926824,1.2268200000000002,0.0,0.0,0.0,0.0
1.62,-0.09753599999999998,-10.0303584,-1.2469368,1.3036296,0.0,0.0,0.0,0.0
1.6400000000000001,-0.23286720000000002,-10.0846128,-1.3011912,1.3801344,0.0,0.0,0.0,0.0
1.6600000000000001,-0.1908048,-10.193121600000001,-1.1926824,1.3801344,0.0,0.0,0.0,0.0
1.6800000000000002,-0.13106399999999999,-10.0303584,-1.2469368,1.3801344,0.0,0.0,0.0,0.0
1.7000000000000002,-0.1054608,-10.193121600000001,-1.1926824,1.3036296,0.0,0.0,0.0,0.0
1.7200000000000002,-0.04206239999999997,-10.0846128,-1.3011912,1.2268200000000002,0.0,0.0,0.0,0.0
1.7400000000000002,-0.08321039999999999,-10.138867200000002,-1.1387328,1.1500104,0.0,0.0,0.0,0.0
1.7600000000000002,-0.1194816,-10.138867200000002,-1.1387328,0.996696,0.0,0.0,0.0,0.0
1.7800000000000002,0.013716000000000013,-10.193121600000001,-1.3011912,1.2268200000000002,0.0,0.0,0.0,0.0
1.8000000000000003,-0.016459199999999983,-10.0846128,-1.1926824,1.1500104,0.0,0.0,0.0,0.0
1.8200000000000003,0.05364480000000001,-10.0846128,-1.1926824,1.3036296,0.0,0.0,0.0,0.0
1.8400000000000003,-0.1685544,-10.0846128,-1.3011912,1.3036296,0.0,0.0,0.0,0.0
1.8600000000000003,-0.008229599999999974,-10.138867200000002,-1.1387328,1.3801344,0.0,0.0,0.0,0.0
1.88,0.11734800000000001,-10.193121600000001,-1.3011912,1.3036296,0.0,0.0,0.0,0.0
1.9,-0.02346959999999999,-10.193121600000001,-1.1926824,1.3036296,0.0,0.0,0.0,0.0
1.92,-0.07254239999999998,-10.138867200000002,-1.1387328,1.1500104,0.0,0.0,0.0,0.0
1.94,0.0408432,-10.138867200000002,-1.2469368,1.1500104,0.0,0.0,0.0,0.0
1.96,-0.3575304,-10.247376,-1.2469368,1.2268200000000002,0.0,0.0,0.0,0.0
1.98,-0.30205679999999996,-10.193121600000001,-1.0844784,1.1500104,0.0,0.0,0.0,0.0
2.0,-0.15057120000000002,-10.138867200000002,-1.2469368,1.2268200000000002,0.0,0.0,0.0,0.0
2.02,-0.11399519999999999,-10.0846128,-1.1926824,1.1500104,0.0,0.0,0.0,0.0
2.04,-0.08168639999999999,-10.0846128,-1.1926824,1.2268200000000002,0.0,0.0,0.0,0.0
2.06,-0.1243584,-10.0846128,-1.3011912,1.3036296,0.0,0.0,0.0,0.0
2.08,-0.053644799999999986,-10.138867200000002,-1.2469368,1.2268200000000002,0.0,0.0,0.0,0.0
2.1,-0.06644639999999999,-10.138867200000002,-1.3554456000000001,1.3036296,0.0,0.0,0.0,0.0
2.12,-0.2782824,-10.138867200000002,-1.3554456000000001,1.3036296,0.0,0.0,0.0,0.0
2.14,-0.291084,-10.138867200000002,-1.1387328,1.3036296,0.0,0.0,0.0,0.0
2.16,-0.2136648,-10.138867200000002,-1.2469368,1.3036296,0.0,0.0,0.0,0.0
2.18,0.07193280000000003,-10.193121600000001,-1.0844784,1.2268200000000002,0.0,0.0,0.0,0.0
2.2,0.0749808,-10.193121600000001,-1.1926824,1.1500104,0.0,0.0,0.0,0.0
2.22,-0.011582399999999977,-10.138867200000002,-1.1387328,1.2268200000000002,0.0,0.0,0.0,0.0
2.24,-0.16794479999999998,-10.0846128,-1.1926824,1.2268200000000002,0.0,0.0,0.0,0.0
2.2600000000000002,-0.2231136,-10.0303584,-1.2469368,1.2268200000000002,0.0,0.0,0.0,0.0
2.2800000000000002,-0.09479279999999998,-10.0846128,-1.3011912,1.3801344,0.0,0.0,0.0,0.0
2.3000000000000003,-0.163068,-10.138867200000002,-1.2469368,1.2268200000000002,0.0,0.0,0.0,0.0
2.3200000000000003,-0.19872959999999998,-10.0846128,-1.3011912,1.3801344,0.0,0.0,0.0,0.0
2.3400000000000003,-0.15941039999999998,-10.193121600000001,-1.1926824,1.2268200000000002,0.0,0.0,0.0,0.0
2.3600000000000003,-0.1969008,-10.138867200000002,-1.2469368,1.2268200000000002,0.0,0.0,0.0,0.0
2.38,-0.307848,-10.0846128,-1.1926824,1.2268200000000002,0.0,0.0,0.0,0.0
2.4,-0.4096512,-10.247376,-1.1387328,1.1500104,0.0,0.0,0.0,0.0
2.42,-0.5519928000000001,-10.138867200000002,-1.1387328,1.1500104,0.0,0.0,0.0,0.0
2.44,-0.6897624,-10.138867200000002,-1.2469368,1.2268200000000002,0.0,0.0,0.0,0.0
2.46,-0.6208776,-10.0846128,-1.1926824,1.2268200000000002,0.0,0.0,0.0,0.0
2.48,-0.536448,-10.193121600000001,-1.1926824,1.2268200000000002,0.0,0.0,0.0,0.0
2.5,-0.5504688000000001,-10.138867200000002,-1.3554456000000001,1.4569440000000002,0.0,0.0,0.0,0.0
2.52,-0.588264,-10.0303584,-1.2469368,1.3036296,0.0,0.0,0.0,0.0
2.54,-0.6446520000000001,-10.138867200000002,-1.2469368,1.3801344,0.0,0.0,0.0,0.0
2.56,-0.4645152,-10.138867200000002,-1.2469368,1.3036296,0.0,0.0,0.0,0.0
2.58,-0.40355519999999995,-10.138867200000002,-1.2469368,1.1500104,0.0,0.0,0.0,0.0
2.6,-0.2670048,-10.138867200000002,-1.2469368,1.2268200000000002,0.0,0.0,0.0,0.0
2.62,-0.36850320000000003,-10.138867200000002,-1.1387328,1.1500104,0.0,0.0,0.0,0.0
2.64,-0.19781519999999997,-10.0846128,-1.3011912,1.3036296,0.0,0.0,0.0,0.0
2.66,-0.185928,-10.0846128,-1.1926824,1.1500104,0.0,0.0,0.0,0.0
2.68,-0.1795272,-10.138867200000002,-1.1387328,1.3036296,0.0,0.0,0.0,0.0
2.7,-0.2801112,-10.138867200000002,-1.2469368,1.3801344,0.0,0.0,0.0,0.0
2.72,-0.24627839999999998,-10.247376,-1.1387328,1.2268200000000002,0.0,0.0,0.0,0.0
2.74,-0.4117848,-10.138867200000002,-1.2469368,1.3036296,0.0,0.0,0.0,0.0
2.76,-0.39136319999999997,-10.138867200000002,-1.3554456000000001,1.3801344,0.0,0.0,0.0,0.0
2.7800000000000002,-0.20421599999999998,-10.193121600000001,-1.3011912,1.1500104,0.0,0.0,0.0,0.0
2.8,-0.37978080000000003,-10.193121600000001,-1.3011912,1.2268200000000002,0.0,0.0,0.0,0.0
2.8200000000000003,-0.521208,-10.138867200000002,-1.3554456000000001,1.2268200000000002,0.0,0.0,0.0,0.0
2.84,-0.6464808000000001,-10.138867200000002,-1.1387328,1.3036296,0.0,0.0,0.0,0.0
2.8600000000000003,-0.7095743999999999,-10.193121600000001,-1.3011912,1.2268200000000002,0.0,0.0,0.0,0.0
2.88,-0.5635752,-10.138867200000002,-1.1387328,1.2268200000000002,0.0,0.0,0.0,0.0
2.9000000000000004,-0.20695919999999998,-10.138867200000002,-1.1387328,1.3036296,0.0,0.0,0.0,0.0
2.92,-0.12862559999999998,-10.138867200000002,-1.2469368,1.3036296,0.0,0.0,0.0,0.0
2.9400000000000004,-0.1908048,-10.193121600000001,-1.3011912,1.3036296,0.0,0.0,0.0,0.0
2.96,-0.2950464,-10.0303584,-1.3554456000000001,1.3801344,0.0,0.0,0.0,0.0
2.9800000000000004,-0.3163824,-10.138867200000002,-1.2469368,1.3036296,0.0,0.0,0.0,0.0
3.0,-0.46573440000000005,-10.0303584,-1.3554456000000001,1.3036296,0.0,0.0,0.0,0.0
3.02,-0.3678936,-10.138867200000002,-1.2469368,1.3036296,0.0,0.0,0.0,0.0
3.04,-0.54102,-10.138867200000002,-1.1387328,1.1500104,0.0,0.0,0.0,0.0
3.06,-0.6266688,-10.138867200000002,-1.1387328,1.1500104,0.0,0.0,0.0,0.0
3.08,-0.6016752000000001,-10.138867200000002,-1.1387328,1.2268200000000002,0.0,0.0,0.0,0.0
3.1,-0.47792640000000003,-10.138867200000002,-1.2469368,1.2268200000000002,0.0,0.0,0.0,0.0
3.12,-0.39319200000000004,-10.138867200000002,-1.2469368,1.1500104,0.0,0.0,0.0,0.0
3.14,-0.4443984,-10.0846128,-1.1926824,1.2268200000000002,0.0,0.0,0.0,0.0
3.16,-0.3995928,-10.0846128,-1.3011912,1.2268200000000002,0.0,0.0,0.0,0.0
3.18,-0.33162240000000004,-10.138867200000002,-1.2469368,1.3801344,0.0,0.0,0.0,0.0
3.2,-0.32918400000000003,-10.138867200000002,-1.2469368,1.3036296,0.0,0.0,0.0,0.0
3.22,-0.1758696,-10.0846128,-1.3011912,1.2268200000000002,0.0,0.0,0.0,0.0
3.24,-0.2642616,-10.193121600000001,-1.3011912,1.1500104,0.0,0.0,0.0,0.0
3.26,-0.11612879999999999,-10.193121600000001,-1.1926824,1.1500104,0.0,0.0,0.0,0.0
3.2800000000000002,-0.17343119999999998,-10.138867200000002,-1.2469368,1.3036296,0.0,0.0,0.0,0.0
3.3,-0.1228344,-10.193121600000001,-1.0844784,1.0735056,0.0,0.0,0.0,0.0
3.3200000000000003,-0.27523440000000005,-10.0846128,-1.3011912,1.2268200000000002,0.0,0.0,0.0,0.0
3.34,-0.31302959999999996,-10.0846128,-1.0844784,1.2268200000000002,0.0,0.0,0.0,0.0
3.3600000000000003,-0.27614879999999997,-10.138867200000002,-1.2469368,1.2268200000000002,0.0,0.0,0.0,0.0
3.38,-0.05974079999999999,-10.0303584,-1.2469368,1.3801344,0.0,0.0,0.0,0.0
3.4000000000000004,-0.045719999999999976,-10.0846128,-1.1926824,1.3036296,0.0,0.0,0.0,0.0
3.42,-0.1578864,-10.138867200000002,-1.2469368,1.3036296,0.0,0.0,0.0,0.0
3.4400000000000004,-0.16916399999999998,-10.0846128,-1.3011912,1.2268200000000002,0.0,0.0,0.0,0.0
3.46,-0.2776728,-10.0846128,-1.1926824,1.1500104,0.0,0.0,0.0,0.0
3.4800000000000004,-0.3654552,-10.193121600000001,-1.3011912,1.3036296,0.0,0.0,0.0,0.0
3.5,-0.2968752,-10.193121600000001,-1.1926824,1.1500104,0.0,0.0,0.0,0.0
3.52,-0.3590544,-10.138867200000002,-1.1387328,1.2268200000000002,0.0,0.0,0.0,0.0
3.54,-0.4044696,-10.0846128,-1.1926824,1.3036296,0.0,0.0,0.0,0.0
3.56,-0.45445680000000005,-10.138867200000002,-1.1387328,1.2268200000000002,0.0,0.0,0.0,0.0
3.58,-0.4047744,-10.193121600000001,-1.1926824,1.3036296,0.0,0.0,0.0,0.0
3.6,-0.361188,-10.0846128,-1.1926824,1.3036296,0.0,0.0,0.0,0.0
3.62,-0.3069336,-10.138867200000002,-1.2469368,1.2268200000000002,0.0,0.0,0.0,0.0
3.64,-0.2944368,-10.138867200000002,-1.3554456000000001,1.3036296,0.0,0.0,0.0,0.0
3.66,-0.1993392,-10.0846128,-1.1926824,1.3801344,0.0,0.0,0.0,0.0
3.68,-0.19598639999999998,-10.0846128,-1.1926824,1.1500104,0.0,0.0,0.0,0.0
3.7,-0.25908000000000003,-10.193121600000001,-1.1926824,1.3036296,0.0,0.0,0.0,0.0
3.72,-0.1609344,-10.138867200000002,-1.3554456000000001,1.1500104,0.0,0.0,0.0,0.0
3.74,-0.20177759999999997,-10.138867200000002,-1.1387328,0.996696,0.0,0.0,0.0,0.0
3.7600000000000002,-0.13685519999999998,-10.0846128,-1.3011912,1.3036296,0.0,0.0,0.0,0.0
3.7800000000000002,-0.0024384000000000025,-10.138867200000002,-1.1387328,1.0735056,0.0,0.0,0.0,0.0
3.8000000000000003,-0.005486399999999971,-10.193121600000001,-1.1926824,1.2268200000000002,0.0,0.0,0.0,0.0
3.8200000000000003,-0.030784799999999994,-10.0846128,-1.3011912,1.3801344,0.0,0.0,0.0,0.0
3.84,-0.17739359999999998,-10.0846128,-1.1926824,1.2268200000000002,0.0,0.0,0.0,0.0
3.8600000000000003,-0.2221992,-10.0846128,-1.1926824,1.3036296,0.0,0.0,0.0,0.0
3.88,-0.22341840000000002,-10.0303584,-1.3554456000000001,1.3036296,0.0,0.0,0.0,0.0
3.9000000000000004,-0.17190719999999998,-10.193121600000001,-1.0844784,1.0735056,0.0,0.0,0.0,0.0
3.92,-0.09936479999999999,-10.138867200000002,-1.3554456000000001,1.2268200000000002,0.0,0.0,0.0,0.0
3.94,0.009144000000000008,-10.138867200000002,-1.2469368,1.3036296,0.0,0.0,0.0,0.0
3.96,-0.07589519999999998,-10.138867200000002,-1.030224,0.996696,0.0,0.0,0.0,0.0
3.98,-0.19872959999999998,-10.138867200000002,-1.2469368,1.3036296,0.0,0.0,0.0,0.0
4.0,-0.2429256,-10.0846128,-1.1926824,1.1500104,0.0,0.0,0.0,0.0
4.0200000000000005,-0.2938272,-10.138867200000002,-1.2469368,1.1500104,0.0,0.0,0.0,0.0
4.04,-0.34838640000000004,-10.0846128,-1.4097000000000002,1.3801344,0.0,0.0,0.0,0.0
4.0600000000000005,-0.3532632,-10.193121600000001,-1.1926824,1.1500104,0.0,0.0,0.0,0.0
4.08,-0.35448240000000003,-10.138867200000002,-1.2469368,1.3036296,0.0,0.0,0.0,0.0
4.1,-0.2334768,-10.0846128,-1.3011912,1.3801344,0.0,0.0,0.0,0.0
4.12,-0.1685544,-10.138867200000002,-1.1387328,1.1500104,0.0,0.0,0.0,0.0
4.140000000000001,-0.08199119999999999,-10.138867200000002,-1.2469368,1.2268200000000002,0.0,0.0,0.0,0.0
4.16,-0.23652479999999998,-10.0846128,-1.0844784,1.2268200000000002,0.0,0.0,0.0,0.0
4.18,-0.2078736,-10.193121600000001,-1.1926824,1.1500104,0.0,0.0,0.0,0.0
4.2,-0.2667,-10.0846128,-1.1926824,1.1500104,0.0,0.0,0.0,0.0
4.22,-0.4142232,-10.193121600000001,-1.1926824,1.2268200000000002,0.0,0.0,0.0,0.0
4.24,-0.5416296,-10.0846128,-1.1926824,1.3036296,0.0,0.0,0.0,0.0
4.26,-0.5574792000000001,-10.138867200000002,-1.2469368,1.1500104,0.0,0.0,0.0,0.0
4.28,-0.5465064000000001,-10.138867200000002,-1.2469368,1.4569440000000002,0.0,0.0,0.0,0.0
4.3,-0.4949952000000001,-8.024164800000001,-3.9035736000000005,3.910584,0.0,0.0,0.0,0.0
4.32,-0.5160264,-9.813645600000001,-1.4639544,1.3036296,0.0,0.0,0.0,0.0
4.34,-0.4956048,-10.247376,-0.9217152000000001,0.8433816000000001,0.0,0.0,0.0,0.0
4.36,-0.321564,-9.9218496,-1.1387328,1.2268200000000002,0.0,0.0,0.0,0.0
4.38,-0.3380232,-10.138867200000002,-1.1387328,1.2268200000000002,0.0,0.0,0.0,0.0
4.4,-0.3858768,-10.138867200000002,-1.1387328,1.2268200000000002,0.0,0.0,0.0,0.0
4.42,-0.5081015999999999,-9.9218496,-1.030224,1.3036296,0.0,0.0,0.0,0.0
4.44,-0.3828288,-10.193121600000001,-1.3011912,1.3036296,0.0,0.0,0.0,0.0
4.46,-0.3331464,-9.976104,-1.0844784,1.0735056,0.0,0.0,0.0,0.0
4.48,-0.17739359999999998,-9.976104,-1.3011912,1.3801344,0.0,0.0,0.0,0.0
4.5,-0.2109216,-10.247376,-1.1387328,1.3036296,0.0,0.0,0.0,0.0
4.5200000000000005,-0.07345679999999999,-10.0303584,-0.9217152000000001,0.8433816000000001,0.0,0.0,0.0,0.0
4.54,-0.277368,-9.976104,-1.4097000000000002,1.4569440000000002,0.0,0.0,0.0,0.0
4.5600000000000005,-0.4081272,-10.0303584,-1.1387328,0.8433816000000001,0.0,0.0,0.0,0.0
4.58,-0.2734056,-10.355580000000002,-1.1387328,1.3036296,0.0,0.0,0.0,0.0
4.6000000000000005,-0.2886456,-10.4098344,-1.0844784,1.3801344,0.0,0.0,0.0,0.0
4.62,-0.3160776,-10.3013256,-0.9759696,0.9201912000000001,0.0,0.0,0.0,0.0
4.64,-0.23774399999999998,-10.5183432,-1.4097000000000002,1.5334488,0.0,0.0,0.0,0.0
4.66,-0.34686239999999996,-10.138867200000002,-0.5964936000000001,1.4569440000000002,0.0,0.0,0.0,0.0
4.68,-0.17739359999999998,-9.9218496,-0.5964936000000001,1.2268200000000002,0.0,0.0,0.0,0.0
4.7,-0.3041904,-35.8926384,-1.6264128000000002,-5.4440328000000004,0.0,0.0,0.0,0.0
4.72,-0.1840992,-133.05160080000002,-8.8919304,5.137404,0.0,0.0,0.0,0.0
4.74,0.3572256000000001,-151.7029224,-18.976543200000002,21.1625688,0.0,0.0,0.0,0.0
4.76,0.7388352000000001,-165.09461520000002,-15.4521408,27.756916800000003,0.0,0.0,0.0,0.0
4.78,1.1945112,-175.66721280000002,-17.5668432,27.220164000000004,0.0,0.0,0.0,0.0
4.8,1.644396,-182.227728,-24.7778016,34.9645224,0.0,0.0,0.0,0.0
4.82,2.0702016,-195.023232,-15.8858712,30.977128800000003,0.0,0.0,0.0,0.0
4.84,2.5527,-200.87874480000002,-3.198876,38.7982968,0.0,0.0,0.0,0.0
4.86,3.0918912,-195.40270800000002,-26.6754864,44.2423296,0.0,0.0,0.0,0.0
4.88,3.7843968,-201.47523840000002,-20.602956,36.6512856,0.0,0.0,0.0,0.0
4.9,4.572609600000001,-198.872856,-23.2053384,39.7181832,0.0,0.0,0.0,0.0
4.92,5.273344800000001,-202.72217520000004,-19.3560192,37.1112288,0.0,0.0,0.0,0.0
4.94,6.1136784,-202.451208,-19.6269864,41.71188,0.0,0.0,0.0,0.0
4.96,6.787896,-204.94508160000004,-17.1331128,38.721487200000006,0.0,0.0,0.0,0.0
4.98,7.608112800000001,-208.577688,-13.5005064,34.4277696,0.0,0.0,0.0,0.0
5.0,8.4234528,-207.22224240000003,-14.855952000000002,43.0920144,0.0,0.0,0.0,0.0
5.0200000000000005,9.3777816,-206.35478160000002,-15.7234128,43.32213840000001,0.0,0.0,0.0,0.0
5.04,10.755172799999999,-209.0656728,-13.012521600000001,41.481756000000004,0.0,0.0,0.0,0.0
5.0600000000000005,11.9676672,-199.84852080000002,-22.2293688,46.0059024,0.0,0.0,0.0,0.0
5.08,13.5221472,-205.5415752,-16.5366192,46.3125312,0.0,0.0,0.0,0.0
5.1,15.235123199999999,-208.84896000000003,-13.229234400000001,46.4658456,0.0,0.0,0.0,0.0
5.12,17.072152799999998,-204.56560560000003,-17.512588800000003,47.46254160000001,0.0,0.0,0.0,0.0
5.140000000000001,18.6260232,-200.39076000000003,-21.687434400000004,45.62246400000001,0.0,0.0,0.0,0.0
5.16,19.9714104,-201.69195120000003,-20.3859384,46.849284000000004,0.0,0.0,0.0,0.0
5.18,21.1967064,-201.58374720000003,-20.494447200000003,45.3155304,0.0,0.0,0.0,0.0
5.2,22.168408799999998,-202.451208,-19.6269864,41.481756000000004,0.0,0.0,0.0,0.0
5.22,22.9938072,-202.39695360000002,-19.6812408,41.328441600000005,0.0,0.0,0.0,0.0
5.24,23.6591856,-197.08337520000003,-24.9945144,42.171823200000006,0.0,0.0,0.0,0.0
5.26,24.6650256,-198.60158400000003,-23.4766104,39.488364000000004,0.0,0.0,0.0,0.0
5.28,25.6998216,-195.2941992,-26.7836904,37.6479816,0.0,0.0,0.0,0.0
5.3,26.837030400000003,-194.48099280000002,-27.5972016,37.4946672,0.0,0.0,0.0,0.0
5.32,28.0144728,-191.98711920000002,-30.091075200000002,28.2936696,0.0,0.0,0.0,0.0
5.34,29.2144704,-189.87241680000002,-32.205777600000005,31.130443200000002,0.0,0.0,0.0,0.0
5.36,30.5949096,-186.56503200000003,-33.452714400000005,35.8844088,0.0,0.0,0.0,0.0
5.38,32.005524,-185.58936720000003,-26.0789928,38.4148584,0.0,0.0,0.0,0.0
5.4,33.5880456,-178.5408672,-28.3561536,32.5873872,0.0,0.0,0.0,0.0
5.42,35.3022408,-178.05288240000002,-25.8080256,37.9546104,0.0,0.0,0.0,0.0
5.44,37.1618256,-175.61295840000002,-28.789884,41.5585656,0.0,0.0,0.0,0.0
5.46,39.103401600000005,-168.781476,-22.392132000000004,35.807904,0.0,0.0,0.0,0.0
5.48,41.2662624,-169.9744632,-32.5852536,39.7949928,0.0,0.0,0.0,0.0
5.5,43.4635656,-173.769528,-27.705405600000002,33.50757840000001,0.0,0.0,0.0,0.0
5.5200000000000005,45.595336800000005,-174.5287848,-14.909901600000001,47.3092272,0.0,0.0,0.0,0.0
5.54,47.7228408,-166.2876024,-29.3321232,39.488364000000004,0.0,0.0,0.0,0.0
5.5600000000000005,50.13319920000001,-148.829268,-19.572732000000002,34.0443312,0.0,0.0,0.0,0.0
5.58,52.371345600000005,-92.22546960000001,-14.909901600000001,23.6162088,0.0,0.0,0.0,0.0
5.6,54.4506912,-46.085455200000006,-12.2532648,10.888065600000001,0.0,0.0,0.0,0.0
5.62,56.50169040000001,-18.81378,-7.6446888,5.903976000000001,0.0,0.0,0.0,0.0
5.640000000000001,59.103158400000005,-6.9399912,9.3256608,7.0542912,0.0,0.0,0.0,0.0
5.66,62.1557304,2.9279088,0.8674608,4.370527200000001,0.0,0.0,0.0,0.0
5.68,65.4198336,8.94588,8.6206584,-0.8433816000000001,0.0,0.0,0.0,0.0
5.7,68.96069520000002,8.837676,3.198876,2.3003256,0.0,0.0,0.0,0.0
5.720000000000001,72.69784800000001,8.729167200000001,10.4640888,-0.7668768,0.0,0.0,0.0,0.0
5.74,76.42280880000001,8.186928,10.4640888,-0.7668768,0.0,0.0,0.0,0.0
5.76,79.9691568,8.94588,6.885736800000001,-1.1500104,0.0,0.0,0.0,0.0
5.78,83.135724,9.0001344,4.6628304,-1.6867632000000001,0.0,0.0,0.0,0.0
5.8,86.18707680000001,9.976104,2.1686520000000002,-0.7668768,0.0,0.0,0.0,0.0
5.82,89.05981680000001,9.5423736,0.5422392,-0.6135624,0.0,0.0,0.0,0.0
5.84,91.8840936,9.5423736,3.2531304000000003,1.2268200000000002,0.0,0.0,0.0,0.0
5.86,94.6794144,9.813645600000001,1.2469368,3.1437072,0.0,0.0,0.0,0.0
5.88,97.62865920000002,9.813645600000001,1.789176,3.68046,0.0,0.0,0.0,0.0
5.9,100.46421360000001,9.379915200000001,4.608576,1.5334488,0.0,0.0,0.0,0.0
5.92,103.38114960000001,9.0001344,5.5302912,0.30662880000000003,0.0,0.0,0.0,0.0
5.94,106.39409760000001,9.2714064,5.1508152,-0.0768096,0.0,0.0,0.0,0.0
5.96,109.4744064,8.024164800000001,8.8919304,-1.2268200000000002,0.0,0.0,0.0,0.0
5.98,112.43584320000001,8.295436800000001,4.933797600000001,-2.6069544000000002,0.0,0.0,0.0,0.0
6.0,115.2582912,8.241182400000001,4.3376088,-0.8433816000000001,0.0,0.0,0.0,0.0
6.02,118.08531120000002,9.0543888,4.0663368,-0.996696,0.0,0.0,0.0,0.0
6.04,120.66879600000001,9.3256608,2.9279088,-0.6135624,0.0,0.0,0.0,0.0
6.0600000000000005,123.159012,9.7593912,1.8434304000000001,1.7635728,0.0,0.0,0.0,0.0
6.08,125.68824240000001,7.915960800000001,5.096560800000001,2.3003256,0.0,0.0,0.0,0.0
6.1,128.16870480000003,9.6508824,-0.3252216,2.3768304000000002,0.0,0.0,0.0,0.0
6.12,130.73634,10.5725976,2.4399240000000004,0.8433816000000001,0.0,0.0,0.0,0.0
6.140000000000001,133.2609984,9.488119200000002,1.4639544,0.4599432,0.0,0.0,0.0,0.0
6.16,135.7405464,8.566404,5.5302912,-2.223516,0.0,0.0,0.0,0.0
6.18,138.4200432,9.217152,2.4941784,-2.0702016,0.0,0.0,0.0,0.0
6.2,141.140688,8.295436800000001,3.6326064,0.15331440000000002,0.0,0.0,0.0,0.0
6.220000000000001,143.9229024,8.7834216,3.9035736000000005,-1.5334488,0.0,0.0,0.0,0.0
6.24,146.535648,8.186928,1.030224,-3.2205168000000004,0.0,0.0,0.0,0.0
6.26,149.2014288,8.1326736,2.7108912000000003,0.0,0.0,0.0,0.0,0.0
6.28,151.8184416,8.729167200000001,3.8496240000000004,-0.4599432,0.0,0.0,0.0,0.0
6.3,154.458924,8.566404,6.1807343999999995,1.6102584000000002,0.0,0.0,0.0,0.0
6.32,157.20882959999997,8.729167200000001,1.6806672000000002,0.6900672,0.0,0.0,0.0,0.0
6.34,159.8566272,8.4039456,4.933797600000001,0.9201912000000001,0.0,0.0,0.0,0.0
6.36,162.6495096,8.0784192,3.7411152,0.8433816000000001,0.0,0.0,0.0,0.0
6.38,165.3085848,6.8314824000000005,3.7953696000000003,0.0,0.0,0.0,0.0,0.0
6.4,167.9536392,8.024164800000001,4.120591200000001,-0.996696,0.0,0.0,0.0,0.0
6.42,170.5639464,7.807452,1.8434304000000001,-0.996696,0.0,0.0,0.0,0.0
6.44,172.94565359999999,8.566404,2.1686520000000002,-1.1500104,0.0,0.0,0.0,0.0
6.46,175.5443784,8.295436800000001,0.4879848,-0.8433816000000001,0.0,0.0,0.0,0.0
6.48,178.07147519999998,8.024164800000001,2.0601432,0.6135624,0.0,0.0,0.0,0.0
6.5,180.6628848,8.6749128,1.5182088,-0.30662880000000003,0.0,0.0,0.0,0.0
6.52,183.2984904,8.241182400000001,3.1446216000000002,0.4599432,0.0,0.0,0.0,0.0
6.54,186.0496152,8.566404,2.0601432,0.9201912000000001,0.0,0.0,0.0,0.0
6.5600000000000005,188.68583040000001,8.6206584,0.0542544,0.8433816000000001,0.0,0.0,0.0,0.0
6.58,191.3720328,9.0543888,-0.0542544,0.15331440000000002,0.0,0.0,0.0,0.0
6.6,194.162172,7.8617064,4.2833544,-0.0768096,0.0,0.0,0.0,0.0
6.62,196.76943119999999,7.5904344,4.120591200000001,0.3834384,0.0,0.0,0.0,0.0
6.640000000000001,199.31969279999998,9.0543888,2.8736544000000004,-0.7668768,0.0,0.0,0.0,0.0
6.66,202.03058399999998,7.5364848,2.6566368,-1.0735056,0.0,0.0,0.0,0.0
6.68,204.69209759999998,7.3194672,3.6326064,-0.9201912000000001,0.0,0.0,0.0,0.0
6.7,207.17774160000002,7.427976000000001,2.4399240000000004,1.9168872,0.0,0.0,0.0,0.0
6.720000000000001,209.72404079999998,8.0784192,2.8736544000000004,0.0,0.0,0.0,0.0,0.0
6.74,212.2496136,7.5364848,4.2833544,1.0735056,0.0,0.0,0.0,0.0
6.76,214.84254719999998,7.5364848,3.8496240000000004,-0.8433816000000001,0.0,0.0,0.0,0.0
6.78,217.2849096,7.915960800000001,-0.3252216,1.6867632000000001,0.0,0.0,0.0,0.0
6.800000000000001,219.6730176,7.6989432,2.3856696,1.3801344,0.0,0.0,0.0,0.0
6.82,222.0928248,7.753197600000001,2.7651456,0.9201912000000001,0.0,0.0,0.0,0.0
6.84,224.6052912,7.048500000000001,4.445812800000001,-0.30662880000000003,0.0,0.0,0.0,0.0
6.86,227.19792,8.1326736,1.6264128000000002,1.6102584000000002,0.0,0.0,0.0,0.0
6.88,229.66923839999998,7.6989432,2.7108912000000003,-0.996696,0.0,0.0,0.0,0.0
6.9,232.1795712,7.3194672,4.1748456,-1.0735056,0.0,0.0,0.0,0.0
6.92,234.7444632,7.3194672,1.789176,-0.9201912000000001,0.0,0.0,0.0,0.0
6.9399999999999995,237.27308399999998,7.1024496,3.198876,-0.8433816000000001,0.0,0.0,0.0,0.0
6.96,239.8324896,7.6989432,2.1686520000000002,-0.15331440000000002,0.0,0.0,0.0,0.0
6.98,242.38031279999998,6.9399912,5.421782400000001,-0.9201912000000001,0.0,0.0,0.0,0.0
7.0,244.8205416,6.9399912,2.7108912000000003,-0.3834384,0.0,0.0,0.0,0.0
7.02,247.2549792,6.9399912,5.638800000000001,1.0735056,0.0,0.0,0.0,0.0
7.04,249.8878416,6.397752,6.506260800000001,0.5367528,0.0,0.0,0.0,0.0
7.0600000000000005,252.3207552,7.210958400000001,0.5964936000000001,0.3834384,0.0,0.0,0.0,0.0
7.08,254.6655816,6.2892432000000005,4.988052,0.9201912000000001,0.0,0.0,0.0,0.0
7.1,257.2319976,6.9399912,3.4698432,1.2268200000000002,0.0,0.0,0.0,0.0
7.12,259.5902352,6.397752,2.4941784,-0.23012400000000002,0.0,0.0,0.0,0.0
7.140000000000001,261.887208,6.885736800000001,3.3073848000000003,0.23012400000000002,0.0,0.0,0.0,0.0
7.16,264.25398,6.9942456,2.2229064000000003,0.4599432,0.0,0.0,0.0,0.0
7.18,266.5616208,6.8314824000000005,2.1686520000000002,0.5367528,0.0,0.0,0.0,0.0
7.2,268.854936,6.018276,3.957828,0.0,0.0,0.0,0.0,0.0
7.220000000000001,271.1141136,6.777228,1.5724632,-0.8433816000000001,0.0,0.0,0.0,0.0
7.24,273.4107816,6.2349888,3.957828,-0.9201912000000001,0.0,0.0,0.0,0.0
7.26,275.7516456,5.964021600000001,2.7108912000000003,-0.7668768,0.0,0.0,0.0,0.0
7.28,278.0967768,5.801258400000001,5.9097672,0.15331440000000002,0.0,0.0,0.0,0.0
7.300000000000001,280.4483088,6.668719200000001,1.5724632,-0.30662880000000003,0.0,0.0,0.0,0.0
7.32,282.8266632,6.614769600000001,3.2531304000000003,-0.15331440000000002,0.0,0.0,0.0,0.0
7.34,285.2184288,6.343497600000001,0.8132064000000001,-0.6900672,0.0,0.0,0.0,0.0
7.36,287.6309208,6.668719200000001,0.16276320000000002,-0.15331440000000002,0.0,0.0,0.0,0.0
7.38,290.0129328,6.1807343999999995,4.554321600000001,-0.30662880000000003,0.0,0.0,0.0,0.0
7.4,292.2577848,7.048500000000001,0.8674608,1.1500104,0.0,0.0,0.0,0.0
7.42,294.5108664,6.9942456,0.37947600000000004,0.7668768,0.0,0.0,0.0,0.0
7.4399999999999995,296.8145448,5.801258400000001,3.5240976,1.6102584000000002,0.0,0.0,0.0,0.0
7.46,299.081952,6.1267848,1.789176,0.0768096,0.0,0.0,0.0,0.0
7.48,301.39568879999996,7.1024496,0.4879848,-1.3036296,0.0,0.0,0.0,0.0
7.5,303.7030248,6.343497600000001,2.3314152,1.3036296,0.0,0.0,0.0,0.0
7.52,306.0365736,5.7470040000000004,3.578352,0.3834384,0.0,0.0,0.0,0.0
7.54,308.349396,6.343497600000001,1.4639544,1.3801344,0.0,0.0,0.0,0.0
7.5600000000000005,310.615584,5.9097672,1.030224,-0.5367528,0.0,0.0,0.0,0.0
7.58,312.8808576,6.2892432000000005,1.1926824,0.15331440000000002,0.0,0.0,0.0,0.0
7.6,315.03884159999996,5.5845456,3.0903671999999998,-0.23012400000000002,0.0,0.0,0.0,0.0
7.62,317.2364496,5.6930544,2.8736544000000004,0.996696,0.0,0.0,0.0,0.0
7.640000000000001,319.41150239999996,5.964021600000001,2.8194000000000004,-0.6135624,0.0,0.0,0.0,0.0
7.66,321.7545,5.367528,2.6566368,0.4599432,0.0,0.0,0.0,0.0
7.68,324.03196560000004,5.476036800000001,2.2229064000000003,0.0,0.0,0.0,0.0,0.0
7.7,326.2509096,5.5302912,3.0361128,-1.4569440000000002,0.0,0.0,0.0,0.0
7.720000000000001,328.50886799999995,6.1267848,0.8132064000000001,-0.6900672,0.0,0.0,0.0,0.0
7.74,330.61046400000004,5.638800000000001,1.8434304000000001,-0.5367528,0.0,0.0,0.0,0.0
7.76,332.8589736,6.1267848,1.4639544,0.4599432,0.0,0.0,0.0,0.0
7.78,335.1074832,5.801258400000001,1.1387328,0.4599432,0.0,0.0,0.0,0.0
7.800000000000001,337.3291704,5.7470040000000004,3.1446216000000002,-0.4599432,0.0,0.0,0.0,0.0
7.82,339.49325039999997,5.476036800000001,2.3314152,0.6900672,0.0,0.0,0.0,0.0
7.84,341.647272,6.2892432000000005,2.0601432,1.4569440000000002,0.0,0.0,0.0,0.0
7.86,343.8162288,5.8555128,0.5422392,2.3768304000000002,0.0,0.0,0.0,0.0
7.88,346.02572399999997,5.638800000000001,2.0601432,0.7668768,0.0,0.0,0.0,0.0
7.9,348.1693824,5.3132736,4.2291,-1.0735056,0.0,0.0,0.0,0.0
7.92,350.3718672,5.638800000000001,3.2531304000000003,-0.3834384,0.0,0.0,0.0,0.0
7.9399999999999995,352.6228152,6.614769600000001,2.0601432,-0.23012400000000002,0.0,0.0,0.0,0.0
7.96,354.854256,5.7470040000000004,1.3011912,-0.5367528,0.0,0.0,0.0,0.0
7.98,356.917752,5.205069600000001,1.1926824,0.15331440000000002,0.0,0.0,0.0,0.0
8.0,359.0281872,5.1508152,3.6326064,-0.4599432,0.0,0.0,0.0,0.0
8.02,361.12521119999997,4.8795432000000005,4.8795432000000005,-0.9201912000000001,0.0,0.0,0.0,0.0
8.04,363.204252,5.7470040000000004,-0.4337304,-0.30662880000000003,0.0,0.0,0.0,0.0
8.06,365.321088,5.0423064,2.8736544000000004,-0.23012400000000002,0.0,0.0,0.0,0.0
8.08,367.3019832,5.0423064,1.2469368,-0.7668768,0.0,0.0,0.0,0.0
8.1,369.28623120000003,4.933797600000001,2.2229064000000003,0.6900672,0.0,0.0,0.0,0.0
8.120000000000001,371.32199040000006,5.801258400000001,0.2709672,-0.5367528,0.0,0.0,0.0,0.0
8.14,373.40834639999997,5.205069600000001,2.0601432,0.5367528,0.0,0.0,0.0,0.0
8.16,375.5233536,5.0423064,3.198876,0.7668768,0.0,0.0,0.0,0.0
8.18,377.69352960000003,4.554321600000001,3.2531304000000003,2.3768304000000002,0.0,0.0,0.0,0.0
8.2,379.8573048,4.7170848,3.8496240000000004,-0.9201912000000001,0.0,0.0,0.0,0.0
8.22,381.99151439999997,5.367528,-0.37947600000000004,-0.6900672,0.0,0.0,0.0,0.0
8.24,384.08274720000003,4.8252888,2.8736544000000004,1.5334488,0.0,0.0,0.0,0.0
8.26,386.0770536,4.8795432000000005,3.1446216000000002,0.3834384,0.0,0.0,0.0,0.0
8.280000000000001,388.1914512,4.7713392,3.4698432,0.30662880000000003,0.0,0.0,0.0,0.0
8.3,390.2829888,4.608576,3.198876,-0.3834384,0.0,0.0,0.0,0.0
8.32,392.3193576,4.988052,2.7108912000000003,-0.7668768,0.0,0.0,0.0,0.0
8.34,394.4931912,4.608576,2.8736544000000004,-0.23012400000000002,0.0,0.0,0.0,0.0
8.36,396.52986480000004,4.5000672,2.7651456,-0.5367528,0.0,0.0,0.0,0.0
8.379999999999999,398.56684320000005,4.7170848,1.4639544,-0.5367528,0.0,0.0,0.0,0.0
8.4,400.6452744,4.3376088,2.4941784,1.2268200000000002,0.0,0.0,0.0,0.0
8.42,402.5210136,5.5302912,0.7589520000000001,-0.996696,0.0,0.0,0.0,0.0
8.44,404.5372656,4.608576,2.6566368,-0.30662880000000003,0.0,0.0,0.0,0.0
8.46,406.40081280000004,5.0423064,0.9217152000000001,0.9201912000000001,0.0,0.0,0.0,0.0
8.48,408.31983360000004,4.3376088,4.012082400000001,0.4599432,0.0,0.0,0.0,0.0
8.5,410.2031928,4.3915584,2.7651456,1.9168872,0.0,0.0,0.0,0.0
8.52,412.1508648,4.7170848,1.789176,0.8433816000000001,0.0,0.0,0.0,0.0
8.54,414.0473304,4.5000672,1.789176,-0.3834384,0.0,0.0,0.0,0.0
8.56,415.992564,4.1748456,2.7651456,1.7635728,0.0,0.0,0.0,0.0
8.58,417.9957096,5.3132736,0.2170176,-0.4599432,0.0,0.0,0.0,0.0
8.6,420.0436608,4.933797600000001,0.4879848,-0.15331440000000002,0.0,0.0,0.0,0.0
8.620000000000001,421.80357599999996,4.5000672,0.16276320000000002,-0.23012400000000002,0.0,0.0,0.0,0.0
8.64,423.8493936,4.3915584,2.2229064000000003,0.9201912000000001,0.0,0.0,0.0,0.0
8.66,425.9272152,4.3915584,3.3073848000000003,-0.996696,0.0,0.0,0.0,0.0
8.68,428.03124959999997,3.957828,3.8496240000000004,-0.3834384,0.0,0.0,0.0,0.0
8.7,430.1697264,4.2833544,3.198876,-0.0768096,0.0,0.0,0.0,0.0
8.719999999999999,432.2210304,3.957828,5.1508152,0.23012400000000002,0.0,0.0,0.0,0.0
8.74,434.2101552,3.957828,2.4399240000000004,-0.6135624,0.0,0.0,0.0,0.0
8.76,436.15965600000004,4.608576,3.5240976,-0.9201912000000001,0.0,0.0,0.0,0.0
8.780000000000001,438.1091568,4.120591200000001,1.9519392,-0.4599432,0.0,0.0,0.0,0.0
8.8,440.1650328,4.120591200000001,2.6023824,-0.6900672,0.0,0.0,0.0,0.0
8.82,441.99505200000004,4.1748456,0.7046976,-0.7668768,0.0,0.0,0.0,0.0
8.84,443.8454928,4.012082400000001,0.5422392,0.4599432,0.0,0.0,0.0,0.0
8.86,445.6563096,4.0663368,1.3554456000000001,0.0768096,0.0,0.0,0.0,0.0
8.879999999999999,447.4686504,4.2291,2.0601432,-0.30662880000000003,0.0,0.0,0.0,0.0
8.9,449.3236632,4.1748456,1.1387328,-0.5367528,0.0,0.0,0.0,0.0
8.92,451.1869056,3.7411152,0.9217152000000001,-1.0735056,0.0,0.0,0.0,0.0
8.940000000000001,452.98796880000003,3.957828,2.1143976,0.0768096,0.0,0.0,0.0,0.0
8.96,454.920096,4.0663368,3.4158936000000004,-0.8433816000000001,0.0,0.0,0.0,0.0
8.98,456.68702160000004,4.012082400000001,0.9759696,0.15331440000000002,0.0,0.0,0.0,0.0
9.0,458.37104159999996,4.1748456,0.37947600000000004,0.0,0.0,0.0,0.0,0.0
9.02,460.22453040000005,3.7953696000000003,1.7349216,-0.5367528,0.0,0.0,0.0,0.0
9.04,461.921352,3.9035736000000005,3.4698432,-0.6900672,0.0,0.0,0.0,0.0
9.06,463.7010792,3.6868608000000003,3.3616392,0.15331440000000002,0.0,0.0,0.0,0.0
9.08,465.405216,4.012082400000001,1.6264128000000002,0.0,0.0,0.0,0.0,0.0
9.100000000000001,467.2443792,3.7953696000000003,2.3856696,-0.4599432,0.0,0.0,0.0,0.0
9.120000000000001,469.0021608,3.5240976,4.0663368,-0.6135624,0.0,0.0,0.0,0.0
9.14,470.9922,3.7953696000000003,2.3856696,0.23012400000000002,0.0,0.0,0.0,0.0
9.16,472.9042104,3.578352,3.0361128,-0.30662880000000003,0.0,0.0,0.0,0.0
9.18,474.820488,3.7953696000000003,1.6264128000000002,0.4599432,0.0,0.0,0.0,0.0
9.2,476.6288664,3.4158936000000004,2.548128,-0.996696,0.0,0.0,0.0,0.0
9.219999999999999,478.3960968,3.7953696000000003,1.8434304000000001,0.23012400000000002,0.0,0.0,0.0,0.0
9.24,480.2148384,3.3073848000000003,2.3314152,-0.15331440000000002,0.0,0.0,0.0,0.0
9.26,482.0786904,3.7411152,-0.16276320000000002,-0.6900672,0.0,0.0,0.0,0.0
9.280000000000001,483.8062968,3.578352,1.5182088,-0.5367528,0.0,0.0,0.0,0.0
9.3,485.6296104,4.2291,1.0844784,-0.6135624,0.0,0.0,0.0,0.0
9.32,487.3968408,3.4698432,1.7349216,1.1500104,0.0,0.0,0.0,0.0
9.34,489.2247264,4.0663368,0.4879848,-0.6135624,0.0,0.0,0.0,0.0
9.36,490.9587336,3.4698432,1.3011912,-0.7668768,0.0,0.0,0.0,0.0
9.379999999999999,492.66165120000005,3.3616392,2.4941784,0.4599432,0.0,0.0,0.0,0.0
9.4,494.3569488,3.7953696000000003,1.8434304000000001,0.0,0.0,0.0,0.0,0.0
9.42,496.1741664,3.3073848000000003,2.1143976,-0.30662880000000003,0.0,0.0,0.0,0.0
9.440000000000001,497.9145744,3.6868608000000003,0.8674608,-0.0768096,0.0,0.0,0.0,0.0
9.46,499.6702224,3.7411152,2.3314152,-0.15331440000000002,0.0,0.0,0.0,0.0
9.48,501.4587888,3.6326064,0.8132064000000001,0.8433816000000001,0.0,0.0,0.0,0.0
9.5,503.124216,3.4698432,1.3011912,-0.15331440000000002,0.0,0.0,0.0,0.0
9.52,504.81311280000006,3.3616392,0.8674608,-0.23012400000000002,0.0,0.0,0.0,0.0
9.54,506.4136176,3.5240976,1.030224,-0.23012400000000002,0.0,0.0,0.0,0.0
9.56,508.07752080000006,3.4158936000000004,2.3314152,0.8433816000000001,0.0,0.0,0.0,0.0
9.58,509.7609312,3.198876,1.789176,0.8433816000000001,0.0,0.0,0.0,0.0
9.600000000000001,511.44495120000005,2.9279088,3.4698432,0.3834384,0.0,0.0,0.0,0.0
9.620000000000001,513.1585368,3.4698432,1.1926824,-0.15331440000000002,0.0,0.0,0.0,0.0
9.64,514.7566032000001,3.198876,2.1143976,-0.4599432,0.0,0.0,0.0,0.0
9.66,516.5466936,3.3073848000000003,-0.16276320000000002,-0.3834384,0.0,0.0,0.0,0.0
9.68,518.199624,3.0361128,0.8674608,-0.6135624,0.0,0.0,0.0,0.0
9.7,519.9174768,3.4158936000000004,1.5724632,-0.8433816000000001,0.0,0.0,0.0,0.0
9.719999999999999,521.625576,3.3073848000000003,1.1387328,0.0768096,0.0,0.0,0.0,0.0
9.74,523.3321512,3.0903671999999998,1.5724632,-0.6900672,0.0,0.0,0.0,0.0
9.76,524.862552,2.9818584,2.1143976,-0.996696,0.0,0.0,0.0,0.0
9.780000000000001,526.5423048,3.1446216000000002,2.1686520000000002,-0.15331440000000002,0.0,0.0,0.0,0.0
9.8,528.367752,3.4698432,1.0844784,-0.5367528,0.0,0.0,0.0,0.0
9.82,530.0688408,2.8736544000000004,0.7046976,-0.6135624,0.0,0.0,0.0,0.0
9.84,531.6848904000001,3.1446216000000002,0.9759696,-0.30662880000000003,0.0,0.0,0.0,0.0
9.86,533.3079504,2.9818584,0.8132064000000001,-0.5367528,0.0,0.0,0.0,0.0
9.879999999999999,534.9456408,2.9818584,1.3554456000000001,-0.0768096,0.0,0.0,0.0,0.0
9.9,536.6878776000001,3.0361128,1.0844784,-0.5367528,0.0,0.0,0.0,0.0
9.92,538.2682656000001,2.7651456,0.5964936000000001,0.15331440000000002,0.0,0.0,0.0,0.0
9.940000000000001,539.8849248,2.9818584,0.9217152000000001,-0.0768096,0.0,0.0,0.0,0.0
9.96,541.5466944000001,2.9279088,1.7349216,0.23012400000000002,0.0,0.0,0.0,0.0
9.98,543.0856296000001,2.8736544000000004,1.3554456000000001,-0.5367528,0.0,0.0,0.0,0.0
10.0,544.516056,2.9818584,0.8132064000000001,0.0,0.0,0.0,0.0,0.0
10.02,546.2019048,2.7651456,0.7046976,-0.8433816000000001,0.0,0.0,0.0,0.0
10.04,547.7368776000001,2.7651456,2.1143976,-0.9201912000000001,0.0,0.0,0.0,0.0
10.06,549.273984,2.8194000000000004,0.9759696,-0.5367528,0.0,0.0,0.0,0.0
10.08,550.82694,2.8736544000000004,0.5964936000000001,0.0768096,0.0,0.0,0.0,0.0
10.100000000000001,552.3515496,2.7651456,1.8976848000000002,-0.15331440000000002,0.0,0.0,0.0,0.0
10.120000000000001,553.8676248,2.9279088,0.2170176,-0.8433816000000001,0.0,0.0,0.0,0.0
10.14,555.3157296,2.9818584,0.8132064000000001,-0.6900672,0.0,0.0,0.0,0.0
10.16,556.7802935999999,2.8736544000000004,0.7046976,-0.23012400000000002,0.0,0.0,0.0,0.0
10.18,558.2896632,2.7108912000000003,0.4337304,-0.3834384,0.0,0.0,0.0,0.0
10.2,559.8115296000001,2.7651456,2.3314152,0.0,0.0,0.0,0.0,0.0
10.219999999999999,561.2459184,2.6566368,0.2709672,-0.30662880000000003,0.0,0.0,0.0,0.0
10.24,562.7327328,2.7108912000000003,0.8674608,-0.7668768,0.0,0.0,0.0,0.0
10.26,564.3000144,2.548128,1.4639544,-0.5367528,0.0,0.0,0.0,0.0
10.280000000000001,565.7718936,2.548128,0.5964936000000001,-0.6900672,0.0,0.0,0.0,0.0
10.3,567.3187536,2.548128,0.8132064000000001,-0.15331440000000002,0.0,0.0,0.0,0.0
10.32,568.9277928,2.548128,0.4879848,-0.0768096,0.0,0.0,0.0,0.0
10.34,570.558168,2.7108912000000003,0.7589520000000001,-0.4599432,0.0,0.0,0.0,0.0
10.36,572.1071616,2.6023824,0.4337304,-0.7668768,0.0,0.0,0.0,0.0
10.379999999999999,573.7582632,2.6566368,0.5964936000000001,0.0768096,0.0,0.0,0.0,0.0
10.4,575.3008560000001,2.7108912000000003,1.4097000000000002,0.0,0.0,0.0,0.0,0.0
10.42,576.8330856,2.7108912000000003,1.4097000000000002,-1.0735056,0.0,0.0,0.0,0.0
10.440000000000001,578.2967352000001,2.6023824,0.8674608,-0.30662880000000003,0.0,0.0,0.0,0.0
10.46,579.8429856,2.3314152,1.3554456000000001,-0.3834384,0.0,0.0,0.0,0.0
10.48,581.2752408,2.3856696,0.5422392,-0.23012400000000002,0.0,0.0,0.0,0.0
10.5,582.7413288,2.6023824,1.4097000000000002,-0.4599432,0.0,0.0,0.0,0.0
10.52,584.2397256,2.6023824,0.9759696,-0.23012400000000002,0.0,0.0,0.0,0.0
10.54,585.5777976,2.2229064000000003,1.6806672000000002,-0.7668768,0.0,0.0,0.0,0.0
10.56,587.0758896,2.3314152,1.789176,-0.4599432,0.0,0.0,0.0,0.0
10.58,588.5288712,2.0601432,1.1926824,0.15331440000000002,0.0,0.0,0.0,0.0
10.600000000000001,589.9468008,2.4399240000000004,0.16276320000000002,-0.15331440000000002,0.0,0.0,0.0,0.0
10.620000000000001,591.4519032000001,2.6566368,0.8132064000000001,-0.7668768,0.0,0.0,0.0,0.0
10.64,592.811616,2.4399240000000004,1.1387328,-0.6900672,0.0,0.0,0.0,0.0
10.66,594.2819712,2.1686520000000002,1.3011912,-0.3834384,0.0,0.0,0.0,0.0
10.68,595.6395504,2.1143976,-0.0542544,-1.0735056,0.0,0.0,0.0,0.0
10.7,596.969088,2.3856696,0.650748,-0.6135624,0.0,0.0,0.0,0.0
10.719999999999999,598.3159992000001,2.3314152,1.2469368,-0.6900672,0.0,0.0,0.0,0.0
10.74,599.5985976,2.1686520000000002,0.8674608,-0.3834384,0.0,0.0,0.0,0.0
10.76,601.0256712,2.2771608000000003,1.1926824,-0.15331440000000002,0.0,0.0,0.0,0.0
10.780000000000001,602.371668,2.2771608000000003,1.7349216,-0.30662880000000003,0.0,0.0,0.0,0.0
10.8,603.7606416,2.2229064000000003,1.1387328,0.15331440000000002,0.0,0.0,0.0,0.0
10.82,605.0740248000001,2.2771608000000003,0.650748,-0.3834384,0.0,0.0,0.0,0.0
10.84,606.4605600000001,1.9519392,1.8434304000000001,-1.1500104,0.0,0.0,0.0,0.0
10.86,607.8227112,2.0601432,1.6264128000000002,-0.8433816000000001,0.0,0.0,0.0,0.0
10.879999999999999,609.2031504,2.4399240000000004,0.7046976,-0.6135624,0.0,0.0,0.0,0.0
10.9,610.5796272,2.1686520000000002,0.5422392,-0.30662880000000003,0.0,0.0,0.0,0.0
10.92,612.0127968,1.789176,1.3554456000000001,-0.9201912000000001,0.0,0.0,0.0,0.0
10.940000000000001,613.324656,1.8976848000000002,1.3554456000000001,-0.23012400000000002,0.0,0.0,0.0,0.0
10.96,614.6639472,1.7349216,0.9759696,-0.6135624,0.0,0.0,0.0,0.0
10.98,616.025184,2.1686520000000002,0.0,-0.6900672,0.0,0.0,0.0,0.0
11.0,617.5095600000001,2.0601432,0.9759696,-0.7668768,0.0,0.0,0.0,0.0
11.02,618.9601032,1.9519392,0.7589520000000001,-0.9201912000000001,0.0,0.0,0.0,0.0
11.04,620.3295696,2.1143976,0.9217152000000001,-0.30662880000000003,0.0,0.0,0.0,0.0
11.06,621.727992,1.9519392,1.3011912,-0.7668768,0.0,0.0,0.0,0.0
11.08,623.1517128,2.1143976,0.8132064000000001,-0.6900672,0.0,0.0,0.0,0.0
11.100000000000001,624.6171912000001,2.1143976,0.7046976,-0.15331440000000002,0.0,0.0,0.0,0.0
11.120000000000001,626.0817552000001,1.9519392,1.0844784,-0.23012400000000002,0.0,0.0,0.0,0.0
11.14,627.4448208000001,1.8434304000000001,0.9759696,-0.6135624,0.0,0.0,0.0,0.0
11.16,628.7652144000001,1.9519392,0.650748,-0.15331440000000002,0.0,0.0,0.0,0.0
11.18,629.9688696000001,2.0601432,0.8674608,-0.6900672,0.0,0.0,0.0,0.0
11.2,631.1996520000001,1.6264128000000002,1.4097000000000002,-0.7668768,0.0,0.0,0.0,0.0
11.219999999999999,632.5215696000001,1.789176,1.5724632,0.0,0.0,0.0,0.0,0.0
11.24,633.7938048000001,2.1686520000000002,0.5422392,-0.3834384,0.0,0.0,0.0,0.0
11.26,635.0916432,1.789176,1.030224,-0.5367528,0.0,0.0,0.0,0.0
11.280000000000001,636.3718032000002,2.0601432,1.0844784,-0.23012400000000002,0.0,0.0,0.0,0.0
11.3,637.6239216,1.9519392,0.8674608,-0.4599432,0.0,0.0,0.0,0.0
11.32,638.8921944000001,1.8434304000000001,0.3252216,-0.4599432,0.0,0.0,0.0,0.0
11.34,640.0967640000001,1.8434304000000001,0.9759696,-0.4599432,0.0,0.0,0.0,0.0
11.36,641.2882272000002,1.8434304000000001,0.7589520000000001,-0.3834384,0.0,0.0,0.0,0.0
11.379999999999999,642.5720448000002,2.0061936,1.2469368,-0.0768096,0.0,0.0,0.0,0.0
11.4,643.7964264000001,1.9519392,0.3252216,-0.30662880000000003,0.0,0.0,0.0,0.0
11.42,645.1546152000001,1.789176,0.8132064000000001,0.4599432,0.0,0.0,0.0,0.0
11.440000000000001,646.4128296,1.8434304000000001,1.4097000000000002,-0.6900672,0.0,0.0,0.0,0.0
11.46,647.5875288000001,1.789176,0.16276320000000002,-0.23012400000000002,0.0,0.0,0.0,0.0
11.48,648.7216896000001,2.0601432,0.3252216,-0.30662880000000003,0.0,0.0,0.0,0.0
11.5,649.8040344000001,1.5724632,0.9217152000000001,-0.5367528,0.0,0.0,0.0,0.0
11.52,651.0491424000002,1.7349216,0.1085088,-0.23012400000000002,0.0,0.0,0.0,0.0
11.54,652.2896784000001,1.789176,0.8132064000000001,-0.30662880000000003,0.0,0.0,0.0,0.0
11.56,653.4723024000001,1.8976848000000002,1.1387328,-0.3834384,0.0,0.0,0.0,0.0
11.58,654.6162168000001,1.8976848000000002,0.7046976,-0.23012400000000002,0.0,0.0,0.0,0.0
11.600000000000001,655.9122264000001,1.789176,0.9217152000000001,-0.15331440000000002,0.0,0.0,0.0,0.0
11.620000000000001,657.0232224000001,1.8434304000000001,0.4337304,-0.5367528,0.0,0.0,0.0,0.0
11.64,658.1872536000001,1.5724632,0.5964936000000001,-0.15331440000000002,0.0,0.0,0.0,0.0
11.66,659.3418360000001,1.5724632,0.9217152000000001,-0.15331440000000002,0.0,0.0,0.0,0.0
11.68,660.343104,1.6806672000000002,0.37947600000000004,-0.15331440000000002,0.0,0.0,0.0,0.0
11.7,661.6083288000001,1.4097000000000002,0.9759696,-0.30662880000000003,0.0,0.0,0.0,0.0
11.719999999999999,662.7769320000001,1.6264128000000002,0.7589520000000001,-0.15331440000000002,0.0,0.0,0.0,0.0
11.74,664.0077144,1.8434304000000001,0.4337304,0.0768096,0.0,0.0,0.0,0.0
11.76,665.1388272000002,1.6806672000000002,0.9217152000000001,-0.15331440000000002,0.0,0.0,0.0,0.0
11.780000000000001,666.3668664000002,1.2469368,1.789176,-0.15331440000000002,0.0,0.0,0.0,0.0
11.8,667.6284336000001,1.5724632,0.8132064000000001,-0.30662880000000003,0.0,0.0,0.0,0.0
11.82,668.8643976000002,1.6806672000000002,1.1387328,0.0,0.0,0.0,0.0,0.0
11.84,670.0448880000001,1.3011912,1.5182088,-0.23012400000000002,0.0,0.0,0.0,0.0
11.86,671.2552488000001,1.3011912,0.7589520000000001,0.0,0.0,0.0,0.0,0.0
11.879999999999999,672.3665496000001,1.6806672000000002,0.5964936000000001,0.0768096,0.0,0.0,0.0,0.0
11.9,673.5945888000001,1.4639544,1.030224,-0.15331440000000002,0.0,0.0,0.0,0.0
11.92,674.9052288000001,1.8434304000000001,0.8674608,-0.30662880000000003,0.0,0.0,0.0,0.0
11.940000000000001,676.0512768000001,1.4639544,1.1387328,-0.7668768,0.0,0.0,0.0,0.0
11.96,677.1031416000001,1.2469368,1.2469368,-0.6135624,0.0,0.0,0.0,0.0
11.98,678.2967384000001,1.3554456000000001,0.9217152000000001,-0.4599432,0.0,0.0,0.0,0.0
12.0,679.4336424000002,1.7349216,0.7589520000000001,-0.5367528,0.0,0.0,0.0,0.0
12.02,680.6187048,1.3011912,1.0844784,-0.5367528,0.0,0.0,0.0,0.0
12.04,681.7458552,1.2469368,1.030224,-0.6135624,0.0,0.0,0.0,0.0
12.06,682.7766888000001,1.4097000000000002,0.8674608,-0.3834384,0.0,0.0,0.0,0.0
12.08,683.7578400000001,1.4097000000000002,0.7589520000000001,-0.6135624,0.0,0.0,0.0,0.0
12.100000000000001,684.8587776000002,1.2469368,1.030224,-0.30662880000000003,0.0,0.0,0.0,0.0
12.120000000000001,686.0313432,1.2469368,1.030224,-0.3834384,0.0,0.0,0.0,0.0
12.14,687.1429488000001,1.2469368,1.3554456000000001,-0.15331440000000002,0.0,0.0,0.0,0.0
12.16,688.1649432,1.3011912,0.9759696,-0.6135624,0.0,0.0,0.0,0.0
12.18,689.2847784,1.4097000000000002,0.5422392,-0.23012400000000002,0.0,0.0,0.0,0.0
12.2,690.3107352000001,1.3011912,0.5422392,-0.3834384,0.0,0.0,0.0,0.0
12.219999999999999,691.3339488000001,1.2469368,0.4879848,-0.3834384,0.0,0.0,0.0,0.0
12.24,692.3611248000001,1.3554456000000001,0.37947600000000004,-0.5367528,0.0,0.0,0.0,0.0
12.26,693.4452984000001,1.3011912,0.7589520000000001,-0.0768096,0.0,0.0,0.0,0.0
12.280000000000001,694.5495888,1.1926824,0.5422392,-0.5367528,0.0,0.0,0.0,0.0
12.3,695.5301304000001,1.2469368,0.8132064000000001,-0.6135624,0.0,0.0,0.0,0.0
12.32,696.5862624000001,1.1926824,0.650748,-0.0768096,0.0,0.0,0.0,0.0
12.34,697.5936264000001,1.1926824,1.0844784,-0.30662880000000003,0.0,0.0,0.0,0.0
12.36,698.6954784000001,1.1387328,1.030224,-0.30662880000000003,0.0,0.0,0.0,0.0
12.379999999999999,699.740028,1.3011912,0.7589520000000001,-0.30662880000000003,0.0,0.0,0.0,0.0
12.4,700.7254464000001,1.2469368,0.8132064000000001,0.30662880000000003,0.0,0.0,0.0,0.0
12.42,701.7312864,1.1387328,0.8132064000000001,-0.15331440000000002,0.0,0.0,0.0,0.0
12.440000000000001,702.7276776000001,1.1926824,1.0844784,-0.23012400000000002,0.0,0.0,0.0,0.0
12.46,703.7106576000001,0.9759696,1.0844784,0.0768096,0.0,0.0,0.0,0.0
12.48,704.6442600000001,0.9759696,0.9759696,-0.4599432,0.0,0.0,0.0,0.0
12.5,705.5656704,1.1387328,1.1387328,0.0768096,0.0,0.0,0.0,0.0
12.52,706.6144872000001,0.9759696,1.1926824,-0.3834384,0.0,0.0,0.0,0.0
12.54,707.5173048000001,1.030224,0.4879848,-0.23012400000000002,0.0,0.0,0.0,0.0
12.56,708.5813616,1.030224,0.7046976,-0.5367528,0.0,0.0,0.0,0.0
12.58,709.69632,1.030224,0.9217152000000001,-0.15331440000000002,0.0,0.0,0.0,0.0
12.600000000000001,710.7204480000001,1.0844784,0.7589520000000001,-0.5367528,0.0,0.0,0.0,0.0
12.620000000000001,711.7451856000001,0.9759696,1.0844784,-0.23012400000000002,0.0,0.0,0.0,0.0
12.64,712.7037816000001,1.1387328,1.2469368,-0.3834384,0.0,0.0,0.0,0.0
12.66,713.5867872000001,0.7589520000000001,0.9759696,-0.4599432,0.0,0.0,0.0,0.0
12.68,714.6292032000001,1.030224,0.9217152000000001,-0.6135624,0.0,0.0,0.0,0.0
12.7,715.7237400000001,0.9217152000000001,1.1387328,-0.30662880000000003,0.0,0.0,0.0,0.0
12.719999999999999,716.8024272000001,1.1387328,0.7046976,-0.3834384,0.0,0.0,0.0,0.0
12.739999999999998,717.7951608000001,1.030224,0.7046976,-0.30662880000000003,0.0,0.0,0.0,0.0
12.760000000000002,718.7510136000001,1.1387328,0.37947600000000004,-0.23012400000000002,0.0,0.0,0.0,0.0
12.780000000000001,719.7416136,0.9759696,0.650748,-0.15331440000000002,0.0,0.0,0.0,0.0
12.8,720.7282512,0.9759696,0.9759696,-0.23012400000000002,0.0,0.0,0.0,0.0
12.82,721.7218992000002,1.030224,0.9217152000000001,-0.23012400000000002,0.0,0.0,0.0,0.0
12.84,722.7588288000002,1.030224,0.5964936000000001,-0.30662880000000003,0.0,0.0,0.0,0.0
12.86,723.8009400000001,0.8132064000000001,0.5964936000000001,-0.23012400000000002,0.0,0.0,0.0,0.0
12.879999999999999,724.8107424000001,1.030224,0.8132064000000001,-0.3834384,0.0,0.0,0.0,0.0
12.899999999999999,725.7443448000001,0.9759696,0.650748,-0.23012400000000002,0.0,0.0,0.0,0.0
12.920000000000002,726.6297888,0.9217152000000001,0.5964936000000001,-0.5367528,0.0,0.0,0.0,0.0
12.940000000000001,727.5511992000002,0.8132064000000001,0.9217152000000001,-0.5367528,0.0,0.0,0.0,0.0
12.96,728.3336208000002,0.8674608,0.9759696,-0.4599432,0.0,0.0,0.0,0.0
12.98,729.2592984,0.9759696,0.650748,-0.23012400000000002,0.0,0.0,0.0,0.0
13.0,730.1087760000001,0.8132064000000001,0.7046976,-0.3834384,0.0,0.0,0.0,0.0
13.02,730.9997064,0.8674608,0.8674608,-0.4599432,0.0,0.0,0.0,0.0
13.04,731.7632304000001,0.9217152000000001,0.7046976,-0.4599432,0.0,0.0,0.0,0.0
13.059999999999999,732.6389208000002,0.7046976,1.030224,-0.3834384,0.0,0.0,0.0,0.0
13.080000000000002,733.4954088000001,1.030224,0.4879848,-0.6135624,0.0,0.0,0.0,0.0
13.100000000000001,734.3896920000001,0.8674608,0.5422392,-0.15331440000000002,0.0,0.0,0.0,0.0
13.120000000000001,735.3860832000001,0.7589520000000001,0.8674608,-0.5367528,0.0,0.0,0.0,0.0
13.14,736.2818904000001,0.9759696,0.4337304,-0.15331440000000002,0.0,0.0,0.0,0.0
13.16,737.2078728,0.8132064000000001,0.7046976,-0.6135624,0.0,0.0,0.0,0.0
13.18,738.0695424000002,0.7046976,1.030224,-0.5367528,0.0,0.0,0.0,0.0
13.2,738.8638512,0.8674608,0.7589520000000001,-0.30662880000000003,0.0,0.0,0.0,0.0
13.219999999999999,739.8081216,0.9217152000000001,0.7046976,-0.23012400000000002,0.0,0.0,0.0,0.0
13.239999999999998,740.5874952000001,0.8132064000000001,0.7046976,-0.4599432,0.0,0.0,0.0,0.0
13.260000000000002,741.4064928000001,0.5964936000000001,0.5964936000000001,-0.30662880000000003,0.0,0.0,0.0,0.0
13.280000000000001,742.3263792000001,0.7589520000000001,0.8674608,-0.4599432,0.0,0.0,0.0,0.0
13.3,743.2904616000001,0.650748,0.5422392,-0.30662880000000003,0.0,0.0,0.0,0.0
13.32,744.051852,0.7589520000000001,0.9759696,-0.30662880000000003,0.0,0.0,0.0,0.0
13.34,744.9302856000002,0.7589520000000001,1.0844784,-0.6135624,0.0,0.0,0.0,0.0
13.36,745.7041728,0.650748,0.650748,-0.23012400000000002,0.0,0.0,0.0,0.0
13.379999999999999,746.4545904,0.7589520000000001,0.5422392,-0.3834384,0.0,0.0,0.0,0.0
13.399999999999999,747.2187240000001,0.4879848,0.37947600000000004,-0.3834384,0.0,0.0,0.0,0.0
13.420000000000002,748.0776504000002,0.7046976,0.7046976,-0.3834384,0.0,0.0,0.0,0.0
13.440000000000001,748.8914664000001,0.7046976,0.8132064000000001,-0.5367528,0.0,0.0,0.0,0.0
13.46,749.6955288000001,0.7589520000000001,0.7589520000000001,-0.23012400000000002,0.0,0.0,0.0,0.0
13.48,750.4398504000002,0.7589520000000001,0.3252216,-0.5367528,0.0,0.0,0.0,0.0
13.5,751.1180304000001,0.650748,0.4337304,-0.23012400000000002,0.0,0.0,0.0,0.0
13.52,751.9815288000001,0.7046976,0.5964936000000001,-0.23012400000000002,0.0,0.0,0.0,0.0
13.54,752.6389824,0.7046976,0.8132064000000001,-0.30662880000000003,0.0,0.0,0.0,0.0
13.559999999999999,753.4332912000001,0.8132064000000001,0.4879848,-0.15331440000000002,0.0,0.0,0.0,0.0
13.580000000000002,754.3114200000001,0.7046976,0.5964936000000001,-0.3834384,0.0,0.0,0.0,0.0
13.600000000000001,755.033796,0.7046976,0.4879848,-0.4599432,0.0,0.0,0.0,0.0
13.620000000000001,755.7628776000001,0.650748,0.650748,-0.23012400000000002,0.0,0.0,0.0,0.0
13.64,756.489216,0.5964936000000001,0.4879848,-0.23012400000000002,0.0,0.0,0.0,0.0
13.66,757.1680056000001,0.5422392,0.8674608,-0.3834384,0.0,0.0,0.0,0.0
13.68,757.9159848,0.650748,0.7589520000000001,-0.0768096,0.0,0.0,0.0,0.0
13.7,758.7105984000001,0.650748,0.4337304,-0.23012400000000002,0.0,0.0,0.0,0.0
13.719999999999999,759.5170992000001,0.5422392,0.650748,-0.4599432,0.0,0.0,0.0,0.0
13.739999999999998,760.2787944,0.5964936000000001,0.37947600000000004,-0.0768096,0.0,0.0,0.0,0.0
13.760000000000002,761.0755416000001,0.4879848,0.7046976,-0.15331440000000002,0.0,0.0,0.0,0.0
13.780000000000001,761.8223016000002,0.5964936000000001,0.4879848,-0.30662880000000003,0.0,0.0,0.0,0.0
13.8,762.5233416000001,0.7046976,0.5964936000000001,-0.15331440000000002,0.0,0.0,0.0,0.0
13.82,763.1463528,0.4337304,0.650748,-0.15331440000000002,0.0,0.0,0.0,0.0
13.84,763.9397472,0.5964936000000001,0.7046976,-0.4599432,0.0,0.0,0.0,0.0
13.86,764.6197560000002,0.5422392,0.7589520000000001,-0.4599432,0.0,0.0,0.0,0.0
13.879999999999999,765.5844480000001,0.3252216,0.9759696,-0.15331440000000002,0.0,0.0,0.0,0.0
13.899999999999999,766.4311824,0.4879848,0.2709672,-0.23012400000000002,0.0,0.0,0.0,0.0
13.920000000000002,767.3074824,0.5422392,0.5422392,-0.15331440000000002,0.0,0.0,0.0,0.0
13.940000000000001,768.1715904,0.5422392,0.8674608,-0.15331440000000002,0.0,0.0,0.0,0.0
13.96,768.8540376000001,0.5964936000000001,0.5964936000000001,-0.23012400000000002,0.0,0.0,0.0,0.0
13.98,769.5154536000001,0.4337304,0.650748,-0.23012400000000002,0.0,0.0,0.0,0.0
14.0,770.2817208000001,0.37947600000000004,0.37947600000000004,-0.3834384,0.0,0.0,0.0,0.0
14.02,770.9784936000001,0.37947600000000004,0.7046976,-0.6135624,0.0,0.0,0.0,0.0
14.04,771.6502728,0.5422392,0.4337304,-0.4599432,0.0,0.0,0.0,0.0
14.059999999999999,772.4013,0.4337304,0.4337304,-0.5367528,0.0,0.0,0.0,0.0
14.080000000000002,773.3269776000001,0.5422392,0.650748,-0.5367528,0.0,0.0,0.0,0.0
14.100000000000001,774.0737376000001,0.37947600000000004,0.8132064000000001,-0.5367528,0.0,0.0,0.0,0.0
14.120000000000001,774.7342392,0.4337304,0.5422392,-0.30662880000000003,0.0,0.0,0.0,0.0
14.14,775.3432296000001,0.3252216,0.4337304,-0.3834384,0.0,0.0,0.0,0.0
14.16,775.9601448000002,0.4337304,0.650748,-0.6900672,0.0,0.0,0.0,0.0
14.18,776.5907760000001,0.37947600000000004,0.2709672,-0.3834384,0.0,0.0,0.0,0.0
14.2,777.1866600000001,0.16276320000000002,0.4879848,-0.30662880000000003,0.0,0.0,0.0,0.0
14.219999999999999,777.7389576,0.37947600000000004,0.4879848,-0.15331440000000002,0.0,0.0,0.0,0.0
14.239999999999998,778.4012880000001,0.3252216,0.5422392,-0.30662880000000003,0.0,0.0,0.0,0.0
14.260000000000002,778.9730928000001,0.3252216,0.4337304,-0.4599432,0.0,0.0,0.0,0.0
14.280000000000001,779.5247808,0.2709672,0.7046976,-0.3834384,0.0,0.0,0.0,0.0
14.3,780.1743096000001,0.4337304,0.5422392,-0.23012400000000002,0.0,0.0,0.0,0.0
14.32,780.792444,0.4337304,0.650748,-0.30662880000000003,0.0,0.0,0.0,0.0
14.34,781.4108832000001,0.2170176,0.4337304,-0.3834384,0.0,0.0,0.0,0.0
14.36,781.9936608,0.2709672,0.5964936000000001,-0.0768096,0.0,0.0,0.0,0.0
14.379999999999999,782.5142592000001,0.37947600000000004,0.2709672,-0.15331440000000002,0.0,0.0,0.0,0.0
14.399999999999999,783.1753704,0.2709672,0.9217152000000001,-0.6135624,0.0,0.0,0.0,0.0
14.420000000000002,783.8450160000001,0.37947600000000004,0.4879848,-0.4599432,0.0,0.0,0.0,0.0
14.440000000000001,784.4713800000002,0.16276320000000002,0.8132064000000001,-0.30662880000000003,0.0,0.0,0.0,0.0
14.46,785.1273096000002,0.2170176,0.5422392,-0.23012400000000002,0.0,0.0,0.0,0.0
14.48,785.6960664000002,0.3252216,0.3252216,-0.30662880000000003,0.0,0.0,0.0,0.0
14.5,786.2937792000001,0.0542544,0.4879848,-0.4599432,0.0,0.0,0.0,0.0
14.52,786.9826272000001,0.2170176,0.650748,-0.3834384,0.0,0.0,0.0,0.0
14.54,787.5343152000002,0.0,0.650748,-0.5367528,0.0,0.0,0.0,0.0
14.559999999999999,788.1274560000002,0.0,0.650748,-0.4599432,0.0,0.0,0.0,0.0
14.580000000000002,788.6276328000001,0.2170176,0.5422392,-0.3834384,0.0,0.0,0.0,0.0
14.600000000000001,789.1491456000001,0.2170176,0.5422392,-0.30662880000000003,0.0,0.0,0.0,0.0
14.620000000000001,789.8258016000002,0.16276320000000002,0.5964936000000001,-0.4599432,0.0,0.0,0.0,0.0
14.64,790.4091888,0.16276320000000002,0.7046976,-0.4599432,0.0,0.0,0.0,0.0
14.66,790.9054032000001,0.16276320000000002,0.37947600000000004,-0.3834384,0.0,0.0,0.0,0.0
