time,baro_altitude,accl_x,accl_y,accl_z,gps_altitude,gyro_roll,gyro_pitch,gyro_yaw
0.0,0.0,-10.138867200000002,-1.2469368,0.7668768,0.0,0.0,0.0,0.0
0.019999999999999574,0.049682399999999995,-10.0303584,-1.2469368,0.6900672,0.0,0.0,0.0,0.0
0.040000000000000036,0.15392399999999998,-10.0303584,-1.3554456000000001,0.8433816000000001,0.0,0.0,0.0,0.0
0.05999999999999961,0.14874240000000002,-10.0303584,-1.4639544,0.8433816000000001,0.0,0.0,0.0,0.0
0.08000000000000007,0.2048256,-10.0846128,-1.4097000000000002,0.8433816000000001,0.0,0.0,0.0,0.0
0.09999999999999964,0.1344168,-10.0846128,-1.4097000000000002,0.7668768,0.0,0.0,0.0,0.0
0.1200000000000001,0.15819119999999998,-9.976104,-1.3011912,0.6900672,0.0,0.0,0.0,0.0
0.13999999999999968,0.025298400000000006,-10.0846128,-1.1926824,0.6135624,0.0,0.0,0.0,0.0
0.16000000000000014,-0.0478536,-10.138867200000002,-1.030224,0.6900672,0.0,0.0,0.0,0.0
0.17999999999999972,0.008229600000000007,-10.0846128,-1.0844784,0.6900672,0.0,0.0,0.0,0.0
0.20000000000000018,-0.007315200000000007,-10.138867200000002,-1.1387328,0.7668768,0.0,0.0,0.0,0.0
0.21999999999999975,0.014935199999999997,-10.0846128,-1.3011912,0.8433816000000001,0.0,0.0,0.0,0.0
0.2400000000000002,0.09814560000000001,-10.0846128,-1.3011912,0.8433816000000001,0.0,0.0,0.0,0.0
0.2599999999999998,0.04632960000000001,-10.138867200000002,-1.3554456000000001,0.8433816000000001,0.0,0.0,0.0,0.0
0.28000000000000025,0.21915119999999996,-10.0303584,-1.2469368,0.8433816000000001,0.0,0.0,0.0,0.0
0.2999999999999998,0.39014400000000005,-10.0303584,-1.1387328,0.8433816000000001,0.0,0.0,0.0,0.0
0.3200000000000003,0.1255776,-10.0303584,-1.030224,0.7668768,0.0,0.0,0.0,0.0
0.33999999999999986,0.0780288,-10.0303584,-1.030224,0.8433816000000001,0.0,0.0,0.0,0.0
0.3600000000000003,-0.0277368,-9.976104,-1.1926824,0.6900672,0.0,0.0,0.0,0.0
0.3799999999999999,-0.009448800000000009,-10.138867200000002,-1.2469368,0.6900672,0.0,0.0,0.0,0.0
0.39999999999999947,-0.12100560000000002,-10.0846128,-1.3011912,0.8433816000000001,0.0,0.0,0.0,0.0
0.41999999999999993,-0.140208,-10.0846128,-1.5182088,0.8433816000000001,0.0,0.0,0.0,0.0
0.4399999999999995,-0.20025360000000003,-10.138867200000002,-1.4639544,0.8433816000000001,0.0,0.0,0.0,0.0
0.45999999999999996,-0.07741920000000001,-10.0303584,-1.3554456000000001,0.9201912000000001,0.0,0.0,0.0,0.0
0.47999999999999954,-0.10759439999999999,-10.0846128,-1.4097000000000002,0.6900672,0.0,0.0,0.0,0.0
0.5,0.0362712,-10.0303584,-1.2469368,0.7668768,0.0,0.0,0.0,0.0
0.5199999999999996,-0.1072896,-10.0846128,-1.3011912,0.6135624,0.0,0.0,0.0,0.0
0.54,-0.2221992,-10.0846128,-1.0844784,0.6900672,0.0,0.0,0.0,0.0
0.5599999999999996,-0.1146048,-10.0303584,-1.2469368,0.6900672,0.0,0.0,0.0,0.0
0.5800000000000001,-0.1740408,-10.138867200000002,-1.3554456000000001,0.6135624,0.0,0.0,0.0,0.0
0.5999999999999996,-0.11765280000000002,-10.138867200000002,-1.4639544,0.7668768,0.0,0.0,0.0,0.0
0.6200000000000001,0.025908000000000007,-10.0303584,-1.4639544,0.8433816000000001,0.0,0.0,0.0,0.0
0.6399999999999997,0.10668000000000001,-10.0303584,-1.2469368,0.6900672,0.0,0.0,0.0,0.0
0.6600000000000001,-0.0161544,-10.0303584,-1.1387328,0.7668768,0.0,0.0,0.0,0.0
0.6799999999999997,-0.16245840000000003,-10.138867200000002,-1.1387328,0.7668768,0.0,0.0,0.0,0.0
0.7000000000000002,0.0176784,-10.193121600000001,-0.9759696,0.6900672,0.0,0.0,0.0,0.0
0.7199999999999998,0.0627888,-10.0303584,-1.030224,0.7668768,0.0,0.0,0.0,0.0
0.7400000000000002,-0.0356616,-10.0846128,-0.9759696,0.8433816000000001,0.0,0.0,0.0,0.0
0.7599999999999998,-0.19537680000000002,-10.0846128,-1.1926824,0.8433816000000001,0.0,0.0,0.0,0.0
0.7800000000000002,-0.1453896,-10.0303584,-1.2469368,0.996696,0.0,0.0,0.0,0.0
0.7999999999999998,-0.1834896,-10.0303584,-1.3554456000000001,0.9201912000000001,0.0,0.0,0.0,0.0
0.8200000000000003,-0.0627888,-10.0303584,-1.3554456000000001,0.8433816000000001,0.0,0.0,0.0,0.0
0.8399999999999999,-0.262128,-10.0846128,-1.3011912,0.9201912000000001,0.0,0.0,0.0,0.0
0.8600000000000003,-0.222504,-10.138867200000002,-1.2469368,0.8433816000000001,0.0,0.0,0.0,0.0
0.8799999999999999,0.041452800000000005,-10.0846128,-1.1926824,0.8433816000000001,0.0,0.0,0.0,0.0
0.8999999999999999,0.1368552,-10.138867200000002,-1.030224,0.6900672,0.0,0.0,0.0,0.0
0.9199999999999999,-0.0536448,-10.138867200000002,-1.030224,0.7668768,0.0,0.0,0.0,0.0
0.94,-0.0460248,-10.0846128,-1.3011912,0.8433816000000001,0.0,0.0,0.0,0.0
0.96,-0.1709928,-10.0303584,-1.3554456000000001,0.6900672,0.0,0.0,0.0,0.0
0.98,-0.039319200000000006,-10.0846128,-1.4097000000000002,0.7668768,0.0,0.0,0.0,0.0
1.0,0.0158496,-10.0303584,-1.4639544,0.8433816000000001,0.0,0.0,0.0,0.0
1.02,0.14081760000000001,-10.0846128,-1.4097000000000002,0.8433816000000001,0.0,0.0,0.0,0.0
1.04,0.33345119999999995,-10.0303584,-1.2469368,0.5367528,0.0,0.0,0.0,0.0
1.06,0.34686239999999996,-10.138867200000002,-1.1387328,0.6135624,0.0,0.0,0.0,0.0
1.08,0.35082480000000005,-10.138867200000002,-1.030224,0.6900672,0.0,0.0,0.0,0.0
1.1,0.5541264,-9.976104,-1.0844784,0.6135624,0.0,0.0,0.0,0.0
1.12,0.46085760000000003,-10.0846128,-1.3011912,0.8433816000000001,0.0,0.0,0.0,0.0
1.1399999999999997,0.3624072,-10.0846128,-1.4097000000000002,0.9201912000000001,0.0,0.0,0.0,0.0
1.1599999999999997,0.0987552,-10.0303584,-1.4639544,0.9201912000000001,0.0,0.0,0.0,0.0
1.1799999999999997,0.0649224,-9.976104,-1.4097000000000002,0.9201912000000001,0.0,0.0,0.0,0.0
1.1999999999999997,0.022860000000000005,-10.0303584,-1.1387328,0.8433816000000001,0.0,0.0,0.0,0.0
1.2199999999999998,0.12161519999999999,-10.0303584,-1.1387328,0.8433816000000001,0.0,0.0,0.0,0.0
1.2399999999999998,0.006400800000000006,-10.138867200000002,-1.030224,0.7668768,0.0,0.0,0.0,0.0
1.2599999999999998,-0.22738080000000002,-10.138867200000002,-1.030224,0.6900672,0.0,0.0,0.0,0.0
1.2799999999999998,-0.307848,-10.138867200000002,-1.2469368,0.8433816000000001,0.0,0.0,0.0,0.0
1.2999999999999998,-0.1947672,-10.0846128,-1.1926824,0.8433816000000001,0.0,0.0,0.0,0.0
1.3199999999999998,-0.3270504,-10.0303584,-1.4639544,0.9201912000000001,0.0,0.0,0.0,0.0
1.3399999999999999,-0.24262080000000003,-10.0303584,-1.3554456000000001,0.8433816000000001,0.0,0.0,0.0,0.0
1.3599999999999999,-0.050901600000000005,-9.976104,-1.4097000000000002,0.9201912000000001,0.0,0.0,0.0,0.0
1.38,0.150876,-10.0303584,-1.2469368,0.9201912000000001,0.0,0.0,0.0,0.0
1.4,0.2441448,-10.138867200000002,-1.2469368,0.7668768,0.0,0.0,0.0,0.0
1.42,0.15270479999999997,-9.9218496,-1.1387328,0.6135624,0.0,0.0,0.0,0.0
1.44,0.15819119999999998,-10.138867200000002,-1.030224,0.5367528,0.0,0.0,0.0,0.0
1.46,0.2090928,-10.0846128,-1.3011912,0.6135624,0.0,0.0,0.0,0.0
1.48,0.1801368,-10.0846128,-1.3011912,0.6900672,0.0,0.0,0.0,0.0
1.5,0.233172,-9.976104,-1.4097000000000002,0.6900672,0.0,0.0,0.0,0.0
1.52,0.1740408,-10.138867200000002,-1.2469368,0.9201912000000001,0.0,0.0,0.0,0.0
1.54,0.2709672,-9.976104,-1.1926824,0.996696,0.0,0.0,0.0,0.0
1.56,0.2599944,-10.0303584,-1.3554456000000001,0.8433816000000001,0.0,0.0,0.0,0.0
1.58,0.14904720000000002,-9.976104,-1.3011912,0.7668768,0.0,0.0,0.0,0.0
1.6,0.14051280000000002,-10.0846128,-1.3011912,0.7668768,0.0,0.0,0.0,0.0
1.62,-0.0445008,-10.0846128,-1.1926824,0.6900672,0.0,0.0,0.0,0.0
1.6399999999999997,-0.0954024,-10.0846128,-1.1926824,0.7668768,0.0,0.0,0.0,0.0
1.6599999999999997,-0.17434560000000002,-10.138867200000002,-1.2469368,0.9201912000000001,0.0,0.0,0.0,0.0
1.6799999999999997,-0.28376880000000004,-10.0846128,-1.1926824,0.9201912000000001,0.0,0.0,0.0,0.0
1.6999999999999997,-0.21671280000000004,-10.0846128,-1.1926824,0.9201912000000001,0.0,0.0,0.0,0.0
1.7199999999999998,-0.1392936,-10.0846128,-1.4097000000000002,0.8433816000000001,0.0,0.0,0.0,0.0
1.7399999999999998,-0.0557784,-9.976104,-1.3011912,0.7668768,0.0,0.0,0.0,0.0
1.7599999999999998,0.015239999999999997,-10.0846128,-1.3011912,0.7668768,0.0,0.0,0.0,0.0
1.7799999999999998,0.07650479999999998,-9.976104,-1.3011912,0.7668768,0.0,0.0,0.0,0.0
1.7999999999999998,0.0850392,-10.138867200000002,-1.2469368,0.7668768,0.0,0.0,0.0,0.0
1.8199999999999998,0.0399288,-10.0303584,-1.1387328,0.8433816000000001,0.0,0.0,0.0,0.0
1.8399999999999999,0.024079200000000005,-10.0303584,-1.1387328,0.7668768,0.0,0.0,0.0,0.0
1.8599999999999999,0.1380744,-10.0846128,-1.1926824,0.6900672,0.0,0.0,0.0,0.0
1.88,0.1252728,-10.0303584,-1.2469368,0.6900672,0.0,0.0,0.0,0.0
1.9,0.3395472,-10.138867200000002,-1.3554456000000001,0.6135624,0.0,0.0,0.0,0.0
1.92,0.3264408,-10.0846128,-1.4097000000000002,0.6900672,0.0,0.0,0.0,0.0
1.94,0.19659600000000002,-10.0846128,-1.3011912,0.6900672,0.0,0.0,0.0,0.0
1.96,0.15148560000000003,-10.0846128,-1.1926824,0.7668768,0.0,0.0,0.0,0.0
1.98,0.1664208,-10.0303584,-1.1387328,0.7668768,0.0,0.0,0.0,0.0
2.0,0.19202399999999997,-10.0846128,-1.3011912,0.8433816000000001,0.0,0.0,0.0,0.0
2.02,0.3895344,-10.0303584,-1.1387328,0.5367528,0.0,0.0,0.0,0.0
2.04,0.3416808,-10.0303584,-1.1387328,0.7668768,0.0,0.0,0.0,0.0
2.06,0.3654552,-10.0303584,-1.3554456000000001,0.7668768,0.0,0.0,0.0,0.0
2.08,0.2465832,-10.0303584,-1.3554456000000001,0.8433816000000001,0.0,0.0,0.0,0.0
2.1,0.1331976,-9.976104,-1.4097000000000002,0.7668768,0.0,0.0,0.0,0.0
2.12,-0.1490472,-10.138867200000002,-1.2469368,0.9201912000000001,0.0,0.0,0.0,0.0
2.1399999999999997,0.07284720000000001,-10.0846128,-1.3011912,0.996696,0.0,0.0,0.0,0.0
2.1599999999999997,0.1886712,-10.0303584,-1.2469368,0.8433816000000001,0.0,0.0,0.0,0.0
2.1799999999999997,0.23256239999999997,-10.138867200000002,-1.1387328,0.6900672,0.0,0.0,0.0,0.0
2.1999999999999997,0.2170176,-10.0846128,-1.1926824,0.6900672,0.0,0.0,0.0,0.0
2.2199999999999998,0.10637520000000002,-10.0303584,-1.2469368,0.8433816000000001,0.0,0.0,0.0,0.0
2.2399999999999998,0.0009144000000000009,-10.0303584,-1.3554456000000001,0.7668768,0.0,0.0,0.0,0.0
2.26,0.15148560000000003,-10.138867200000002,-1.2469368,0.7668768,0.0,0.0,0.0,0.0
2.28,0.1588008,-10.138867200000002,-1.3554456000000001,0.8433816000000001,0.0,0.0,0.0,0.0
2.3,0.13228320000000002,-9.976104,-1.3011912,0.8433816000000001,0.0,0.0,0.0,0.0
2.32,0.1969008,-10.138867200000002,-1.2469368,0.7668768,0.0,0.0,0.0,0.0
2.34,0.11429999999999998,-10.0846128,-1.1926824,0.6900672,0.0,0.0,0.0,0.0
2.36,0.1947672,-10.193121600000001,-1.3011912,0.6135624,0.0,0.0,0.0,0.0
2.38,0.1947672,-10.0846128,-1.3011912,0.6900672,0.0,0.0,0.0,0.0
2.4,0.134112,-10.0846128,-1.3011912,0.6900672,0.0,0.0,0.0,0.0
2.42,0.2289048,-10.0303584,-1.2469368,0.7668768,0.0,0.0,0.0,0.0
2.44,0.36667439999999996,-10.0846128,-1.3011912,0.8433816000000001,0.0,0.0,0.0,0.0
2.46,0.27584400000000003,-9.9218496,-1.3554456000000001,0.8433816000000001,0.0,0.0,0.0,0.0
2.48,0.15270479999999997,-9.976104,-1.1926824,0.9201912000000001,0.0,0.0,0.0,0.0
2.5,0.2502408,-9.976104,-1.3011912,0.7668768,0.0,0.0,0.0,0.0
2.52,0.3087624,-10.0846128,-1.3011912,0.7668768,0.0,0.0,0.0,0.0
2.54,0.2889504,-10.138867200000002,-1.2469368,0.7668768,0.0,0.0,0.0,0.0
2.56,0.15514319999999998,-10.0846128,-1.1926824,0.9201912000000001,0.0,0.0,0.0,0.0
2.58,0.0204216,-10.0303584,-1.2469368,0.7668768,0.0,0.0,0.0,0.0
2.6,0.009448799999999992,-10.0303584,-1.1387328,0.7668768,0.0,0.0,0.0,0.0
2.62,0.008229600000000007,-10.138867200000002,-1.2469368,0.8433816000000001,0.0,0.0,0.0,0.0
2.6399999999999997,-0.0536448,-10.0303584,-1.3554456000000001,0.8433816000000001,0.0,0.0,0.0,0.0
2.6599999999999997,-0.03352800000000001,-9.976104,-1.4097000000000002,0.7668768,0.0,0.0,0.0,0.0
2.6799999999999997,0.0368808,-10.138867200000002,-1.2469368,0.7668768,0.0,0.0,0.0,0.0
2.6999999999999997,-0.06461760000000001,-10.0303584,-1.2469368,0.7668768,0.0,0.0,0.0,0.0
2.7199999999999998,-0.19507200000000002,-10.138867200000002,-1.1387328,0.7668768,0.0,0.0,0.0,0.0
2.7399999999999998,-0.0268224,-10.138867200000002,-1.1387328,0.7668768,0.0,0.0,0.0,0.0
2.76,0.126492,-10.138867200000002,-1.2469368,0.7668768,0.0,0.0,0.0,0.0
2.78,0.0347472,-10.0846128,-1.1926824,0.6900672,0.0,0.0,0.0,0.0
2.8,0.010667999999999993,-10.0846128,-1.4097000000000002,0.6900672,0.0,0.0,0.0,0.0
2.82,-0.1216152,-10.0846128,-1.3011912,0.6900672,0.0,0.0,0.0,0.0
2.84,-0.011887199999999994,-10.138867200000002,-1.3554456000000001,0.6135624,0.0,0.0,0.0,0.0
2.86,-0.0832104,-10.0846128,-1.3011912,0.7668768,0.0,0.0,0.0,0.0
2.88,-0.17495520000000003,-9.976104,-1.1926824,0.8433816000000001,0.0,0.0,0.0,0.0
2.9,-0.37216080000000007,-9.976104,-1.1926824,0.8433816000000001,0.0,0.0,0.0,0.0
2.92,-0.34015680000000004,-10.0303584,-1.1387328,0.8433816000000001,0.0,0.0,0.0,0.0
2.94,-0.21183600000000002,-10.0846128,-1.3011912,0.8433816000000001,0.0,0.0,0.0,0.0
2.96,-0.12192000000000001,-9.976104,-1.1926824,0.8433816000000001,0.0,0.0,0.0,0.0
2.98,0.11460479999999999,-10.0846128,-1.1926824,0.9201912000000001,0.0,0.0,0.0,0.0
3.0,0.3310128,-10.0303584,-1.3554456000000001,0.8433816000000001,0.0,0.0,0.0,0.0
3.0199999999999996,0.14904720000000002,-10.0303584,-1.2469368,0.996696,0.0,0.0,0.0,0.0
3.04,0.132588,-10.0846128,-1.1926824,0.8433816000000001,0.0,0.0,0.0,0.0
3.0599999999999996,0.060655200000000006,-10.138867200000002,-1.2469368,0.9201912000000001,0.0,0.0,0.0,0.0
3.08,0.1837944,-9.976104,-1.1926824,0.8433816000000001,0.0,0.0,0.0,0.0
3.0999999999999996,0.0780288,-10.138867200000002,-1.2469368,0.6900672,0.0,0.0,0.0,0.0
3.12,-0.0252984,-10.0846128,-1.1926824,0.6900672,0.0,0.0,0.0,0.0
3.1399999999999997,-0.1606296,-10.0846128,-1.3011912,0.7668768,0.0,0.0,0.0,0.0
3.16,-0.0643128,-9.976104,-1.3011912,0.7668768,0.0,0.0,0.0,0.0
3.1799999999999997,0.060045600000000005,-10.0303584,-1.2469368,0.7668768,0.0,0.0,0.0,0.0
3.2,0.15819119999999998,-10.193121600000001,-1.3011912,0.7668768,0.0,0.0,0.0,0.0
3.2199999999999998,0.15453359999999997,-10.0846128,-1.3011912,0.8433816000000001,0.0,0.0,0.0,0.0
3.24,0.0164592,-10.0846128,-1.3011912,0.6900672,0.0,0.0,0.0,0.0
3.26,-0.0798576,-10.0846128,-1.3011912,0.6900672,0.0,0.0,0.0,0.0
3.28,-0.181356,-10.0846128,-1.3011912,0.6135624,0.0,0.0,0.0,0.0
3.3,-0.0643128,-10.0303584,-1.3554456000000001,0.7668768,0.0,0.0,0.0,0.0
3.32,-0.1840992,-10.0303584,-1.3554456000000001,0.7668768,0.0,0.0,0.0,0.0
3.34,-0.2593848,-10.0303584,-1.3554456000000001,0.8433816000000001,0.0,0.0,0.0,0.0
3.36,-0.1816608,-10.0846128,-1.3011912,0.9201912000000001,0.0,0.0,0.0,0.0
3.38,-0.22860000000000003,-10.0303584,-1.2469368,0.9201912000000001,0.0,0.0,0.0,0.0
3.4,0.014020799999999996,-10.138867200000002,-1.3554456000000001,0.8433816000000001,0.0,0.0,0.0,0.0
3.42,0.16123919999999997,-10.0846128,-1.4097000000000002,0.8433816000000001,0.0,0.0,0.0,0.0
3.44,0.19202399999999997,-10.0846128,-1.3011912,0.7668768,0.0,0.0,0.0,0.0
3.46,0.115824,-10.193121600000001,-1.3011912,0.7668768,0.0,0.0,0.0,0.0
3.48,0.32430719999999996,-10.0846128,-1.3011912,0.8433816000000001,0.0,0.0,0.0,0.0
3.5,0.3054096,-9.976104,-1.1926824,0.8433816000000001,0.0,0.0,0.0,0.0
3.5199999999999996,0.3127248,-10.0846128,-1.3011912,0.9201912000000001,0.0,0.0,0.0,0.0
3.54,0.219456,-10.0846128,-1.1926824,0.7668768,0.0,0.0,0.0,0.0
3.5599999999999996,0.08595359999999999,-10.0303584,-1.2469368,0.7668768,0.0,0.0,0.0,0.0
3.58,-0.024079200000000005,-10.0846128,-1.3011912,0.8433816000000001,0.0,0.0,0.0,0.0
3.5999999999999996,-0.0749808,-10.0846128,-1.3011912,0.8433816000000001,0.0,0.0,0.0,0.0
3.62,-0.077724,-10.0846128,-1.3011912,0.6900672,0.0,0.0,0.0,0.0
3.6399999999999997,-0.048158400000000004,-10.138867200000002,-1.2469368,0.7668768,0.0,0.0,0.0,0.0
3.66,0.04541520000000001,-10.0846128,-1.1926824,0.6900672,0.0,0.0,0.0,0.0
3.6799999999999997,0.10393680000000001,-10.138867200000002,-1.2469368,0.7668768,0.0,0.0,0.0,0.0
3.7,-0.12405360000000001,-10.0846128,-1.4097000000000002,0.6900672,0.0,0.0,0.0,0.0
3.7199999999999998,-0.2231136,-10.0303584,-1.3554456000000001,0.7668768,0.0,0.0,0.0,0.0
3.74,-0.24688800000000002,-10.0846128,-1.4097000000000002,0.6900672,0.0,0.0,0.0,0.0
3.76,-0.1267968,-10.0303584,-1.3554456000000001,0.6900672,0.0,0.0,0.0,0.0
3.78,-0.1405128,-10.138867200000002,-1.2469368,0.8433816000000001,0.0,0.0,0.0,0.0
3.8,-0.0344424,-10.0846128,-1.3011912,0.8433816000000001,0.0,0.0,0.0,0.0
3.82,0.0024384000000000025,-10.0846128,-1.1926824,0.8433816000000001,0.0,0.0,0.0,0.0
3.84,0.033223199999999994,-10.0303584,-1.1387328,0.9201912000000001,0.0,0.0,0.0,0.0
3.86,0.07162800000000001,-10.0846128,-1.3011912,0.7668768,0.0,0.0,0.0,0.0
3.88,0.10088880000000001,-10.0846128,-1.3011912,0.7668768,0.0,0.0,0.0,0.0
3.9,0.28072080000000005,-10.0303584,-1.2469368,0.8433816000000001,0.0,0.0,0.0,0.0
3.92,0.2060448,-10.0303584,-1.2469368,0.8433816000000001,0.0,0.0,0.0,0.0
3.94,0.0432816,-9.976104,-1.3011912,0.7668768,0.0,0.0,0.0,0.0
3.96,0.010667999999999993,-10.0303584,-1.1387328,0.8433816000000001,0.0,0.0,0.0,0.0
3.98,-0.1155192,-9.976104,-1.1926824,0.7668768,0.0,0.0,0.0,0.0
4.0,-0.1298448,-10.0303584,-1.2469368,0.8433816000000001,0.0,0.0,0.0,0.0
4.02,0.009753599999999992,-10.0846128,-1.1926824,0.7668768,0.0,0.0,0.0,0.0
4.04,-0.011582399999999994,-10.0303584,-1.1387328,0.8433816000000001,0.0,0.0,0.0,0.0
4.06,0.0201168,-10.0846128,-1.1926824,0.6900672,0.0,0.0,0.0,0.0
4.08,0.1938528,-10.0846128,-1.3011912,0.6900672,0.0,0.0,0.0,0.0
4.1,0.1969008,-10.0846128,-1.1926824,0.8433816000000001,0.0,0.0,0.0,0.0
4.12,-0.013106399999999995,-10.0846128,-1.3011912,0.8433816000000001,0.0,0.0,0.0,0.0
4.14,0.0932688,-10.0846128,-1.1926824,0.6900672,0.0,0.0,0.0,0.0
4.16,0.17861280000000004,-10.0846128,-1.3011912,0.6900672,0.0,0.0,0.0,0.0
4.18,0.14325600000000002,-10.0303584,-1.2469368,0.6900672,0.0,0.0,0.0,0.0
4.2,-0.0161544,-10.0846128,-1.3011912,0.6900672,0.0,0.0,0.0,0.0
4.22,-0.089916,-10.0303584,-1.3554456000000001,0.7668768,0.0,0.0,0.0,0.0
4.24,-0.08503920000000001,-10.0846128,-1.3011912,0.6900672,0.0,0.0,0.0,0.0
4.26,0.021031200000000003,-10.0846128,-1.3011912,0.7668768,0.0,0.0,0.0,0.0
4.28,0.04480560000000001,-10.0303584,-1.3554456000000001,0.9201912000000001,0.0,0.0,0.0,0.0
4.3,-0.05273040000000001,-10.193121600000001,-1.1926824,0.8433816000000001,0.0,0.0,0.0,0.0
4.32,-0.09753600000000001,-10.0303584,-1.2469368,0.8433816000000001,0.0,0.0,0.0,0.0
4.34,-0.062484000000000005,-10.0846128,-1.3011912,0.7668768,0.0,0.0,0.0,0.0
4.359999999999999,0.0643128,-10.0846128,-1.3011912,0.7668768,0.0,0.0,0.0,0.0
4.38,0.0024384000000000025,-10.0303584,-1.2469368,0.8433816000000001,0.0,0.0,0.0,0.0
4.4,-0.16245840000000003,-10.0303584,-1.2469368,0.8433816000000001,0.0,0.0,0.0,0.0
4.42,-0.18836640000000002,-10.138867200000002,-1.2469368,0.8433816000000001,0.0,0.0,0.0,0.0
4.4399999999999995,-0.0923544,-10.0846128,-1.1926824,0.8433816000000001,0.0,0.0,0.0,0.0
4.46,-0.048463200000000005,-10.138867200000002,-1.2469368,0.8433816000000001,0.0,0.0,0.0,0.0
4.4799999999999995,-0.1444752,-9.976104,-1.1926824,0.8433816000000001,0.0,0.0,0.0,0.0
4.5,-0.16672560000000003,-10.193121600000001,-1.1926824,0.7668768,0.0,0.0,0.0,0.0
4.52,-0.1167384,-10.0846128,-1.3011912,0.6900672,0.0,0.0,0.0,0.0
4.54,-0.1383792,-10.0846128,-1.3011912,0.6135624,0.0,0.0,0.0,0.0
4.56,-0.15575280000000002,-10.138867200000002,-1.2469368,0.6900672,0.0,0.0,0.0,0.0
4.58,-0.070104,-10.138867200000002,-1.3554456000000001,0.7668768,0.0,0.0,0.0,0.0
4.6,0.014020799999999996,-9.976104,-1.3011912,0.8433816000000001,0.0,0.0,0.0,0.0
4.62,-0.1027176,-10.0846128,-1.3011912,0.6900672,0.0,0.0,0.0,0.0
4.64,0.1481328,-10.0846128,-1.3011912,0.7668768,0.0,0.0,0.0,0.0
4.66,0.3435096,-10.0303584,-1.3554456000000001,0.7668768,0.0,0.0,0.0,0.0
4.68,0.3904488,-10.0303584,-1.2469368,0.8433816000000001,0.0,0.0,0.0,0.0
4.7,0.3553968,-10.0303584,-1.2469368,0.8433816000000001,0.0,0.0,0.0,0.0
4.72,0.2508504,-10.138867200000002,-1.2469368,0.7668768,0.0,0.0,0.0,0.0
4.74,0.29047439999999997,-10.138867200000002,-1.2469368,0.9201912000000001,0.0,0.0,0.0,0.0
4.76,0.28742639999999997,-10.0303584,-1.1387328,0.8433816000000001,0.0,0.0,0.0,0.0
4.78,0.1304544,-9.976104,-1.3011912,0.9201912000000001,0.0,0.0,0.0,0.0
4.8,0.21854159999999997,-7.970215200000001,-4.933797600000001,13.418210400000001,0.0,0.0,0.0,0.0
4.82,0.0856488,-9.976104,-0.650748,-0.5367528,0.0,0.0,0.0,0.0
4.84,-0.033832799999999996,-10.193121600000001,-1.3011912,0.9201912000000001,0.0,0.0,0.0,0.0
4.86,-0.1594104,-10.5183432,-0.5422392,0.15331440000000002,0.0,0.0,0.0,0.0
4.88,-0.0880872,-9.7051368,-1.5724632,1.8400776,0.0,0.0,0.0,0.0
4.8999999999999995,-0.04206240000000001,-10.5183432,-0.9759696,-0.6900672,0.0,0.0,0.0,0.0
4.92,-0.08473440000000002,-10.138867200000002,-1.030224,1.0735056,0.0,0.0,0.0,0.0
4.9399999999999995,-0.0295656,-10.681106400000001,-2.1143976,-0.7668768,0.0,0.0,0.0,0.0
4.96,0.06675120000000001,-14.8016976,-2.3314152,3.2970216000000003,0.0,0.0,0.0,0.0
4.9799999999999995,0.6056376000000001,-51.019557600000006,-4.0663368,0.30662880000000003,0.0,0.0,0.0,0.0
5.0,1.475232,-68.2608744,6.777228,20.7026256,0.0,0.0,0.0,0.0
5.02,3.4311336,-67.555872,-9.7593912,-1.5334488,0.0,0.0,0.0,0.0
5.04,6.7933824000000005,-84.5262216,-12.958267200000002,-3.9870888,0.0,0.0,0.0,0.0
5.06,10.629900000000001,-95.8038216,-12.6327408,-4.984089600000001,0.0,0.0,0.0,0.0
5.08,13.819632000000002,-106.75589520000001,-1.1387328,-4.6006512,0.0,0.0,0.0,0.0
5.1,15.477439200000001,-109.57529520000001,-5.476036800000001,-1.3036296,0.0,0.0,0.0,0.0
5.12,16.4476176,-78.3997416,-28.518916800000003,4.2937176,0.0,0.0,0.0,0.0
5.14,17.003268,-59.8026744,-3.0903671999999998,0.6135624,0.0,0.0,0.0,0.0
5.16,16.8914064,-36.597336,-2.2229064000000003,-4.370527200000001,0.0,0.0,0.0,0.0
5.18,16.483888800000003,-43.4830728,-3.1446216000000002,-2.6069544000000002,0.0,0.0,0.0,0.0
5.2,16.258032000000004,-38.6035296,-2.7108912000000003,1.5334488,0.0,0.0,0.0,0.0
5.22,15.8416752,-36.6515904,-1.9519392,1.6102584000000002,0.0,0.0,0.0,0.0
5.24,15.3637488,-34.53719280000001,-2.6566368,2.683764,0.0,0.0,0.0,0.0
5.26,14.6864832,-34.5911424,-2.3856696,0.8433816000000001,0.0,0.0,0.0,0.0
5.28,14.046403200000002,-33.127492800000006,-3.0903671999999998,1.3801344,0.0,0.0,0.0,0.0
5.3,13.4938008,-32.8019664,0.0542544,3.1437072,0.0,0.0,0.0,0.0
5.32,13.054888800000002,-29.711599200000002,-4.445812800000001,1.9936968000000002,0.0,0.0,0.0,0.0
5.34,12.638227200000001,-32.693762400000004,-2.9818584,-0.5367528,0.0,0.0,0.0,0.0
5.359999999999999,12.214860000000002,-34.428684000000004,-2.2229064000000003,-0.996696,0.0,0.0,0.0,0.0
5.38,11.906402400000001,-30.6875688,-2.3856696,1.1500104,0.0,0.0,0.0,0.0
5.4,11.731752000000002,-28.3018992,-3.578352,0.9201912000000001,0.0,0.0,0.0,0.0
5.42,11.6430552,-29.7658536,-2.6566368,0.6135624,0.0,0.0,0.0,0.0
5.4399999999999995,11.55192,-29.2778688,-2.4941784,0.8433816000000001,0.0,0.0,0.0,0.0
5.46,11.618976,-29.2778688,-2.2771608000000003,0.8433816000000001,0.0,0.0,0.0,0.0
5.4799999999999995,11.811914400000001,-29.440632,-1.1387328,1.4569440000000002,0.0,0.0,0.0,0.0
5.5,12.148108800000001,-29.061156,-1.6264128000000002,1.8400776,0.0,0.0,0.0,0.0
5.52,12.46632,-28.518916800000003,-1.9519392,1.2268200000000002,0.0,0.0,0.0,0.0
5.54,12.942722400000001,-28.518916800000003,-1.9519392,1.5334488,0.0,0.0,0.0,0.0
5.56,13.5282432,-29.2778688,-1.3011912,1.6102584000000002,0.0,0.0,0.0,0.0
5.58,14.1893544,-29.820108,-0.5422392,0.8433816000000001,0.0,0.0,0.0,0.0
5.6,14.922703200000003,-29.874362400000003,-0.4879848,1.4569440000000002,0.0,0.0,0.0,0.0
5.62,15.7203648,-29.16936,-1.3011912,0.996696,0.0,0.0,0.0,0.0
5.64,16.554907200000002,-29.7658536,-2.548128,1.4569440000000002,0.0,0.0,0.0,0.0
5.66,17.378172,-29.440632,-1.789176,1.6867632000000001,0.0,0.0,0.0,0.0
5.68,18.2761128,-28.898392800000003,-2.4399240000000004,1.6867632000000001,0.0,0.0,0.0,0.0
5.7,19.1265048,-28.789884,-2.8736544000000004,2.9135831999999997,0.0,0.0,0.0,0.0
5.72,20.008900800000003,-29.711599200000002,-1.1926824,3.2205168000000004,0.0,0.0,0.0,0.0
5.74,20.830032000000003,-29.928616800000004,-2.1686520000000002,1.6102584000000002,0.0,0.0,0.0,0.0
5.76,21.626169600000004,-28.3018992,-2.2771608000000003,0.996696,0.0,0.0,0.0,0.0
5.78,22.489363200000003,-27.5972016,-2.2229064000000003,3.2205168000000004,0.0,0.0,0.0,0.0
5.8,23.322686400000002,-26.5127232,-2.2229064000000003,1.8400776,0.0,0.0,0.0,0.0
5.82,24.135588000000002,-28.0851864,-1.7349216,0.3834384,0.0,0.0,0.0,0.0
5.84,24.918619200000002,-28.518916800000003,-1.5182088,-0.6900672,0.0,0.0,0.0,0.0
5.859999999999999,25.727253600000004,-26.4042144,-2.9818584,0.30662880000000003,0.0,0.0,0.0,0.0
5.88,26.363371200000007,-26.837944800000002,-1.789176,0.996696,0.0,0.0,0.0,0.0
5.9,27.030883200000005,-27.8681688,-3.578352,2.223516,0.0,0.0,0.0,0.0
5.92,27.627376800000004,-29.16936,-3.2531304000000003,-0.15331440000000002,0.0,0.0,0.0,0.0
5.9399999999999995,28.247949600000002,-25.9162296,-3.4698432,-0.5367528,0.0,0.0,0.0,0.0
5.96,28.7920176,-26.4042144,-0.9217152000000001,0.0768096,0.0,0.0,0.0,0.0
5.98,29.378148000000003,-29.494886400000002,-3.2531304000000003,-3.1437072,0.0,0.0,0.0,0.0
6.0,29.951781600000004,-29.440632,-1.030224,-5.060594400000001,0.0,0.0,0.0,0.0
6.02,30.531206400000002,-26.729740800000002,-1.3554456000000001,0.7668768,0.0,0.0,0.0,0.0
6.04,31.233160800000004,-26.0789928,-1.1387328,1.5334488,0.0,0.0,0.0,0.0
6.06,31.8979296,-26.0789928,-1.8976848000000002,1.5334488,0.0,0.0,0.0,0.0
6.08,32.482840800000005,-27.759660000000004,-1.4097000000000002,1.2268200000000002,0.0,0.0,0.0,0.0
6.1,33.0948792,-27.109216800000002,-1.7349216,0.6900672,0.0,0.0,0.0,0.0
6.12,33.7675728,-26.1875016,-4.0663368,0.996696,0.0,0.0,0.0,0.0
6.14,34.38509760000001,-25.157277600000004,-2.7108912000000003,2.5304496,0.0,0.0,0.0,0.0
6.16,35.07364080000001,-25.970484,-2.7651456,0.996696,0.0,0.0,0.0,0.0
6.18,35.7173784,-24.181307999999998,-2.2771608000000003,1.9936968000000002,0.0,0.0,0.0,0.0
6.2,36.276076800000006,-24.3983256,-1.8434304000000001,1.6102584000000002,0.0,0.0,0.0,0.0
6.22,36.8469672,-23.5308648,-0.7589520000000001,1.6867632000000001,0.0,0.0,0.0,0.0
6.24,37.53551040000001,-23.2053384,-1.3011912,3.450336,0.0,0.0,0.0,0.0
6.26,38.24295120000001,-24.7778016,-2.548128,1.6102584000000002,0.0,0.0,0.0,0.0
6.279999999999999,38.90619600000001,-24.3983256,-0.9759696,2.0702016,0.0,0.0,0.0,0.0
6.3,39.602664000000004,-24.7778016,-0.2709672,2.6069544000000002,0.0,0.0,0.0,0.0
6.32,40.314067200000004,-23.5308648,-2.4941784,1.6867632000000001,0.0,0.0,0.0,0.0
6.34,41.1260544,-24.181307999999998,-1.6264128000000002,2.0702016,0.0,0.0,0.0,0.0
6.359999999999999,41.9368224,-24.45258,-1.5724632,1.6102584000000002,0.0,0.0,0.0,0.0
6.38,42.781118400000004,-23.422356,-3.6868608000000003,1.5334488,0.0,0.0,0.0,0.0
6.4,43.58152320000001,-23.368101600000003,-2.548128,1.7635728,0.0,0.0,0.0,0.0
6.42,44.5681608,-23.422356,-3.578352,0.23012400000000002,0.0,0.0,0.0,0.0
6.4399999999999995,45.4859136,-23.04288,-3.8496240000000004,2.1470112,0.0,0.0,0.0,0.0
6.46,46.4490816,-23.747577600000003,-3.3616392,2.6069544000000002,0.0,0.0,0.0,0.0
6.48,47.413468800000004,-23.584814400000003,-2.3314152,1.0735056,0.0,0.0,0.0,0.0
6.5,48.412908,-21.904147200000004,-2.4941784,1.8400776,0.0,0.0,0.0,0.0
6.52,49.38979200000001,-21.958401600000002,-1.030224,2.223516,0.0,0.0,0.0,0.0
6.54,50.298705600000005,-21.361908,-2.9279088,2.3003256,0.0,0.0,0.0,0.0
6.56,51.26675040000001,-22.2836232,-2.4399240000000004,1.7635728,0.0,0.0,0.0,0.0
6.58,52.150975200000005,-22.609149600000002,-2.0061936,1.1500104,0.0,0.0,0.0,0.0
6.6,53.093112000000005,-22.609149600000002,-0.16276320000000002,2.8370784000000002,0.0,0.0,0.0,0.0
6.62,54.05018400000001,-21.904147200000004,-3.3616392,1.9168872,0.0,0.0,0.0,0.0
6.64,54.921607200000004,-22.337877600000002,-3.578352,0.9201912000000001,0.0,0.0,0.0,0.0
6.66,55.68513120000001,-21.0366864,-3.9035736000000005,3.2970216000000003,0.0,0.0,0.0,0.0
6.68,56.54497200000001,-22.5548952,-2.8194000000000004,1.3801344,0.0,0.0,0.0,0.0
6.7,57.53557200000001,-22.5548952,-1.5182088,0.6900672,0.0,0.0,0.0,0.0
6.72,58.39023120000001,-22.5006408,-2.8736544000000004,2.4536400000000005,0.0,0.0,0.0,0.0
6.74,59.3031072,-23.801832,-1.1387328,1.2268200000000002,0.0,0.0,0.0,0.0
6.76,60.2434152,-22.771608,-2.6023824,1.6102584000000002,0.0,0.0,0.0,0.0
6.779999999999999,61.193172000000004,-24.1270536,-0.37947600000000004,0.30662880000000003,0.0,0.0,0.0,0.0
6.8,62.21120400000001,-23.6933232,-2.4399240000000004,0.7668768,0.0,0.0,0.0,0.0
6.82,63.23838,-23.4766104,-0.8132064000000001,3.5271456,0.0,0.0,0.0,0.0
6.84,64.2743952,-22.392132000000004,-1.6806672000000002,1.7635728,0.0,0.0,0.0,0.0
6.859999999999999,65.51736960000001,-17.40408,-4.7170848,0.0,0.0,0.0,0.0,0.0
6.88,66.49425360000001,-3.957828,-0.8132064000000001,1.6867632000000001,0.0,0.0,0.0,0.0
6.9,67.3111176,0.0,1.0844784,1.8400776,0.0,0.0,0.0,0.0
6.92,67.8725592,-0.16276320000000002,1.8976848000000002,-0.4599432,0.0,0.0,0.0,0.0
6.9399999999999995,68.1935136,15.1269192,9.9218496,-4.984089600000001,0.0,0.0,0.0,0.0
6.96,68.20570560000002,4.5000672,3.4158936000000004,-6.364224,0.0,0.0,0.0,0.0
6.98,67.920108,10.0303584,1.789176,-1.0735056,0.0,0.0,0.0,0.0
7.0,67.68998400000001,7.970215200000001,5.0423064,2.3768304000000002,0.0,0.0,0.0,0.0
7.02,67.4208456,5.3132736,3.3616392,-8.5109304,0.0,0.0,0.0,0.0
7.04,67.037712,-1.4097000000000002,4.012082400000001,5.2907184,0.0,0.0,0.0,0.0
7.0600000000000005,66.7691832,1.2469368,-0.7046976,0.4599432,0.0,0.0,0.0,0.0
7.08,66.40921440000001,2.548128,2.7651456,-1.3801344,0.0,0.0,0.0,0.0
7.1,66.11203440000001,-5.5302912,0.8674608,-2.9903928,0.0,0.0,0.0,0.0
7.12,65.999868,-44.5132968,27.380184,3.3738312000000006,0.0,0.0,0.0,0.0
7.14,65.92092480000001,-25.3200408,-14.0424408,-8.5109304,0.0,0.0,0.0,0.0
7.16,66.0922224,5.5302912,-13.012521600000001,-0.30662880000000003,0.0,0.0,0.0,0.0
7.18,66.43451280000001,-7.6989432,-4.7713392,8.2811112,0.0,0.0,0.0,0.0
7.199999999999999,66.68353440000001,-0.8674608,-1.0844784,-1.1500104,0.0,0.0,0.0,0.0
7.22,66.98650560000002,-5.205069600000001,-0.5422392,2.3003256,0.0,0.0,0.0,0.0
7.24,67.3355016,-5.7470040000000004,0.4337304,2.3768304000000002,0.0,0.0,0.0,0.0
7.26,67.839336,-5.801258400000001,-1.4639544,-2.1470112,0.0,0.0,0.0,0.0
7.279999999999999,68.30903280000001,-4.0663368,-0.9217152000000001,0.8433816000000001,0.0,0.0,0.0,0.0
7.3,68.8531008,-4.2833544,-0.16276320000000002,1.7635728,0.0,0.0,0.0,0.0
7.32,69.4569096,-3.7953696000000003,-3.4698432,-1.4569440000000002,0.0,0.0,0.0,0.0
7.34,70.1338704,-8.295436800000001,-2.0061936,1.4569440000000002,0.0,0.0,0.0,0.0
7.359999999999999,70.78309440000001,-5.3132736,-1.1926824,1.3801344,0.0,0.0,0.0,0.0
7.38,71.4271368,-5.367528,-0.4879848,0.8433816000000001,0.0,0.0,0.0,0.0
7.4,72.09556320000002,-5.3132736,0.1085088,1.4569440000000002,0.0,0.0,0.0,0.0
7.42,72.7944696,-5.1508152,2.1143976,-0.23012400000000002,0.0,0.0,0.0,0.0
7.4399999999999995,73.3708464,-5.205069600000001,0.7589520000000001,0.5367528,0.0,0.0,0.0,0.0
7.46,74.1328464,-5.5845456,0.9217152000000001,0.30662880000000003,0.0,0.0,0.0,0.0
7.48,74.77140240000001,-4.608576,-0.37947600000000004,1.1500104,0.0,0.0,0.0,0.0
7.5,75.37856400000001,-4.8795432000000005,-0.3252216,0.996696,0.0,0.0,0.0,0.0
7.52,75.814428,-3.9035736000000005,-0.7589520000000001,1.2268200000000002,0.0,0.0,0.0,0.0
7.54,76.30180320000001,-4.1748456,-1.2469368,0.4599432,0.0,0.0,0.0,0.0
7.5600000000000005,76.8224016,-4.1748456,-1.5724632,1.2268200000000002,0.0,0.0,0.0,0.0
7.58,77.16926400000001,-3.957828,-1.4639544,-0.6135624,0.0,0.0,0.0,0.0
7.6,77.71851360000001,-3.5240976,-1.3554456000000001,1.2268200000000002,0.0,0.0,0.0,0.0
7.62,78.0793968,-3.8496240000000004,-0.9217152000000001,1.0735056,0.0,0.0,0.0,0.0
7.64,78.5353776,-3.578352,-1.4097000000000002,0.996696,0.0,0.0,0.0,0.0
7.66,78.9669744,-4.2291,-0.2170176,0.6135624,0.0,0.0,0.0,0.0
7.68,79.4531304,-3.957828,-0.2709672,1.6102584000000002,0.0,0.0,0.0,0.0
7.699999999999999,79.86461039999999,-4.554321600000001,0.2170176,1.1500104,0.0,0.0,0.0,0.0
7.72,80.3535096,-4.445812800000001,0.2170176,0.9201912000000001,0.0,0.0,0.0,0.0
7.74,80.72140320000001,-4.2291,0.4337304,1.2268200000000002,0.0,0.0,0.0,0.0
7.76,81.101184,-4.3915584,-0.0542544,0.0768096,0.0,0.0,0.0,0.0
7.779999999999999,81.53064719999999,-4.012082400000001,0.2170176,1.1500104,0.0,0.0,0.0,0.0
7.8,81.8762904,-3.8496240000000004,0.16276320000000002,0.7668768,0.0,0.0,0.0,0.0
7.82,82.28777039999999,-3.3073848000000003,-0.16276320000000002,0.6135624,0.0,0.0,0.0,0.0
7.84,82.6303656,-3.2531304000000003,-0.650748,0.5367528,0.0,0.0,0.0,0.0
7.859999999999999,82.972656,-3.0903671999999998,-0.7046976,0.30662880000000003,0.0,0.0,0.0,0.0
7.88,83.25612,-3.3073848000000003,-0.9217152000000001,0.4599432,0.0,0.0,0.0,0.0
7.9,83.62187999999999,-3.3073848000000003,-0.5964936000000001,0.996696,0.0,0.0,0.0,0.0
7.92,83.9528928,-3.0903671999999998,-1.2469368,0.4599432,0.0,0.0,0.0,0.0
7.9399999999999995,84.3393792,-3.7411152,-0.5964936000000001,0.8433816000000001,0.0,0.0,0.0,0.0
7.96,84.86393999999999,-2.8736544000000004,-0.4879848,1.2268200000000002,0.0,0.0,0.0,0.0
7.98,85.1845896,-3.0903671999999998,-0.7046976,0.4599432,0.0,0.0,0.0,0.0
8.0,85.5134688,-2.6023824,-0.5422392,0.9201912000000001,0.0,0.0,0.0,0.0
8.02,85.8661224,-3.1446216000000002,-0.650748,0.3834384,0.0,0.0,0.0,0.0
8.04,86.3093016,-3.0361128,-0.4337304,0.3834384,0.0,0.0,0.0,0.0
8.06,86.6290368,-2.3314152,-0.4879848,0.6135624,0.0,0.0,0.0,0.0
8.08,86.9033568,-2.1143976,-0.7046976,0.5367528,0.0,0.0,0.0,0.0
8.1,87.35141279999999,-2.3856696,-0.650748,0.30662880000000003,0.0,0.0,0.0,0.0
8.120000000000001,87.7720368,-2.4941784,-0.650748,0.6900672,0.0,0.0,0.0,0.0
8.14,88.21582559999999,-2.7651456,0.16276320000000002,1.3036296,0.0,0.0,0.0,0.0
8.16,88.66753920000001,-2.6566368,-0.0542544,1.3036296,0.0,0.0,0.0,0.0
8.18,89.00647679999999,-2.4941784,-0.2170176,0.8433816000000001,0.0,0.0,0.0,0.0
8.2,89.4508752,-2.3856696,-0.3252216,0.5367528,0.0,0.0,0.0,0.0
8.219999999999999,89.8294368,-2.2771608000000003,-0.1085088,0.3834384,0.0,0.0,0.0,0.0
8.24,90.2153136,-2.3314152,-0.0542544,0.30662880000000003,0.0,0.0,0.0,0.0
8.26,90.5670528,-2.3314152,0.0542544,0.6135624,0.0,0.0,0.0,0.0
8.28,90.97792319999999,-2.6023824,0.650748,0.30662880000000003,0.0,0.0,0.0,0.0
8.3,91.36319040000001,-2.2771608000000003,0.0,0.4599432,0.0,0.0,0.0,0.0
8.32,91.7393136,-2.3314152,-0.4879848,0.3834384,0.0,0.0,0.0,0.0
8.34,92.05020959999999,-1.8976848000000002,-0.16276320000000002,0.15331440000000002,0.0,0.0,0.0,0.0
8.36,92.4833304,-1.789176,-0.2709672,0.4599432,0.0,0.0,0.0,0.0
8.379999999999999,92.8798752,-2.0601432,-0.3252216,0.15331440000000002,0.0,0.0,0.0,0.0
8.4,93.2404536,-1.3011912,-0.1085088,0.3834384,0.0,0.0,0.0,0.0
8.42,93.6808896,-1.6264128000000002,-0.4337304,0.5367528,0.0,0.0,0.0,0.0
8.44,94.05853679999998,-1.4097000000000002,-0.5422392,0.6900672,0.0,0.0,0.0,0.0
8.46,94.4029608,-1.5182088,-0.650748,0.5367528,0.0,0.0,0.0,0.0
8.48,94.8180984,-1.789176,-0.4879848,0.4599432,0.0,0.0,0.0,0.0
8.5,95.1503304,-1.6264128000000002,-0.650748,0.6900672,0.0,0.0,0.0,0.0
8.52,95.2518288,-1.7349216,-0.4337304,0.6900672,0.0,0.0,0.0,0.0
8.54,94.76384399999999,-1.4097000000000002,0.0,0.9201912000000001,0.0,0.0,0.0,0.0
8.56,93.2142408,-0.2170176,0.1085088,0.996696,0.0,0.0,0.0,0.0
8.58,93.1048176,6.9942456,24.1270536,43.7820816,0.0,0.0,0.0,0.0
8.6,92.9591232,39.3624816,71.1345288,156.9561504,0.0,0.0,0.0,0.0
8.620000000000001,92.7774624,67.5019224,-12.8497584,-2.9903928,0.0,0.0,0.0,0.0
8.64,92.5598352,38.549275200000004,-107.18962560000001,-7.6675488,0.0,0.0,0.0,0.0
8.66,92.45894639999999,1.8434304000000001,4.7713392,-2.1470112,0.0,0.0,0.0,0.0
8.68,92.2144968,32.530999200000004,-40.8806904,14.108277600000001,0.0,0.0,0.0,0.0
8.7,92.3089848,11.873788800000002,10.789310400000002,-1.6102584000000002,0.0,0.0,0.0,0.0
8.719999999999999,92.39158559999998,-4.933797600000001,35.6213664,29.7503088,0.0,0.0,0.0,0.0
8.74,92.38853759999999,-52.916937600000004,60.9414072,52.0631928,0.0,0.0,0.0,0.0
8.76,92.2105344,-23.6390688,20.711464799999998,-56.1270912,0.0,0.0,0.0,0.0
8.78,92.5714176,25.86228,28.030932000000004,18.939052800000002,0.0,0.0,0.0,0.0
8.8,92.8621968,-123.4007184,3.6868608000000003,-59.65423680000001,0.0,0.0,0.0,0.0
8.82,93.0944544,12.0908064,46.1397096,121.3018656,0.0,0.0,0.0,0.0
8.84,93.3096432,98.026728,123.9429576,156.9561504,0.0,0.0,0.0,0.0
8.86,93.562932,-102.8520168,119.2261776,-101.1359928,0.0,0.0,0.0,0.0
8.879999999999999,93.9238152,-0.9759696,10.4098344,0.8433816000000001,0.0,0.0,0.0,0.0
8.899999999999999,94.2542184,46.085455200000006,42.8323248,65.40489840000001,0.0,0.0,0.0,0.0
8.92,94.51634639999999,-11.0605824,46.193964,48.61285680000001,0.0,0.0,0.0,0.0
8.94,94.7479944,2.6566368,1.3554456000000001,3.68046,0.0,0.0,0.0,0.0
8.96,95.1384432,1.3011912,6.2892432000000005,-3.910584,0.0,0.0,0.0,0.0
8.98,95.4920112,-3.4158936000000004,4.3915584,-1.3036296,0.0,0.0,0.0,0.0
9.0,95.7242688,-8.566404,17.2413168,-14.0317728,0.0,0.0,0.0,0.0
9.02,95.95347840000001,-13.988186400000002,16.0486344,9.584436,0.0,0.0,0.0,0.0
9.04,96.19701359999999,2.6023824,5.421782400000001,-3.6036504000000003,0.0,0.0,0.0,0.0
9.059999999999999,96.47255279999999,4.3376088,0.4337304,-1.4569440000000002,0.0,0.0,0.0,0.0
9.08,96.7721712,36.2721144,0.5964936000000001,6.2109096,0.0,0.0,0.0,0.0
9.1,97.09251599999999,7.4822304,4.8795432000000005,8.2043016,0.0,0.0,0.0,0.0
9.120000000000001,97.4128608,17.0788584,6.668719200000001,11.501323200000002,0.0,0.0,0.0,0.0
9.14,97.76886719999999,16.590873600000002,1.3011912,1.0735056,0.0,0.0,0.0,0.0
9.16,98.19162479999999,12.199010400000002,16.319601600000002,0.6900672,0.0,0.0,0.0,0.0
9.18,98.5317816,-13.7172192,49.935079200000004,-10.1979984,0.0,0.0,0.0,0.0
9.2,98.819208,0.16276320000000002,9.1628976,-2.3003256,0.0,0.0,0.0,0.0
9.219999999999999,99.11029199999999,-2.7651456,11.2230408,9.1244928,0.0,0.0,0.0,0.0
9.24,99.3696768,7.6446888,-12.199010400000002,-0.7668768,0.0,0.0,0.0,0.0
9.26,99.5745024,-12.416028,-3.957828,-2.9135831999999997,0.0,0.0,0.0,0.0
9.280000000000001,99.864672,1.789176,-7.6446888,-4.677156,0.0,0.0,0.0,0.0
9.3,100.1685576,1.6806672000000002,1.1387328,-1.5334488,0.0,0.0,0.0,0.0
9.32,100.480368,0.0,9.6508824,13.341705600000001,0.0,0.0,0.0,0.0
9.34,100.846128,-0.7589520000000001,3.2531304000000003,-0.15331440000000002,0.0,0.0,0.0,0.0
9.36,101.1472704,0.0,0.2170176,1.0735056,0.0,0.0,0.0,0.0
9.379999999999999,101.4752352,5.964021600000001,2.7108912000000003,7.6675488,0.0,0.0,0.0,0.0
9.399999999999999,101.755956,-9.2714064,19.572732000000002,4.370527200000001,0.0,0.0,0.0,0.0
9.42,101.9513328,1.6264128000000002,1.8434304000000001,-1.1500104,0.0,0.0,0.0,0.0
9.44,102.149148,0.7589520000000001,1.5182088,1.2268200000000002,0.0,0.0,0.0,0.0
9.46,102.324408,0.8132064000000001,0.8132064000000001,2.5304496,0.0,0.0,0.0,0.0
9.48,102.5024112,3.7953696000000003,0.7589520000000001,3.0672024,0.0,0.0,0.0,0.0
9.5,102.6877296,-0.8132064000000001,0.4879848,1.6102584000000002,0.0,0.0,0.0,0.0
9.52,102.90108959999999,-1.2469368,0.8132064000000001,1.4569440000000002,0.0,0.0,0.0,0.0
9.54,103.0946376,0.0,1.1926824,4.2172128,0.0,0.0,0.0,0.0
9.559999999999999,103.27264079999999,-0.4879848,0.9217152000000001,0.9201912000000001,0.0,0.0,0.0,0.0
9.58,103.45795919999999,-0.0542544,1.2469368,1.6867632000000001,0.0,0.0,0.0,0.0
9.6,103.62498959999999,-0.16276320000000002,0.9217152000000001,1.6102584000000002,0.0,0.0,0.0,0.0
9.620000000000001,103.77677999999999,0.0,0.650748,1.0735056,0.0,0.0,0.0,0.0
9.64,103.91546400000001,0.4879848,0.5964936000000001,0.996696,0.0,0.0,0.0,0.0
9.66,104.0629872,0.8674608,1.1926824,0.4599432,0.0,0.0,0.0,0.0
9.68,104.1977088,-3.1446216000000002,2.0601432,-3.1437072,0.0,0.0,0.0,0.0
9.7,104.34401279999999,-0.8674608,-1.0844784,-3.9870888,0.0,0.0,0.0,0.0
9.719999999999999,104.5366464,-0.1085088,0.1085088,-1.2268200000000002,0.0,0.0,0.0,0.0
9.74,104.6905704,-0.650748,1.7349216,0.996696,0.0,0.0,0.0,0.0
9.76,104.84236080000001,-0.37947600000000004,0.5964936000000001,1.1500104,0.0,0.0,0.0,0.0
9.780000000000001,105.7476168,-0.2709672,0.8132064000000001,0.6135624,0.0,0.0,0.0,0.0
9.8,106.4934624,-0.2170176,0.8674608,0.3834384,0.0,0.0,0.0,0.0
9.82,107.2258968,-0.4879848,0.8132064000000001,0.4599432,0.0,0.0,0.0,0.0
9.84,107.8065408,-0.1085088,0.1085088,-0.4599432,0.0,0.0,0.0,0.0
9.86,108.3237864,-0.4879848,0.2709672,0.30662880000000003,0.0,0.0,0.0,0.0
9.879999999999999,108.7706232,-0.5964936000000001,0.37947600000000004,-0.9201912000000001,0.0,0.0,0.0,0.0
9.899999999999999,109.0708512,-0.7046976,0.8132064000000001,0.7668768,0.0,0.0,0.0,0.0
9.92,109.1942952,-0.1085088,0.0,0.23012400000000002,0.0,0.0,0.0,0.0
9.94,109.1772264,-0.1085088,0.650748,0.23012400000000002,0.0,0.0,0.0,0.0
9.96,109.066584,0.5964936000000001,0.16276320000000002,-0.6135624,0.0,0.0,0.0,0.0
9.98,109.0205592,0.2709672,0.0542544,-0.7668768,0.0,0.0,0.0,0.0
10.0,109.0080624,0.2170176,0.1085088,-0.8433816000000001,0.0,0.0,0.0,0.0
10.02,109.05256320000001,-0.0542544,0.37947600000000004,0.4599432,0.0,0.0,0.0,0.0
10.04,109.07603280000001,-0.4337304,0.8674608,0.3834384,0.0,0.0,0.0,0.0
10.059999999999999,109.1525376,-0.1085088,0.8674608,2.0702016,0.0,0.0,0.0,0.0
10.08,109.3936344,0.0542544,2.548128,1.2268200000000002,0.0,0.0,0.0,0.0
10.1,109.478064,-0.3252216,0.7589520000000001,0.6900672,0.0,0.0,0.0,0.0
10.120000000000001,109.5475584,-0.5964936000000001,-0.9217152000000001,-1.9168872,0.0,0.0,0.0,0.0
10.14,109.4396592,-0.5964936000000001,1.5724632,0.23012400000000002,0.0,0.0,0.0,0.0
10.16,109.3113384,-1.7349216,2.7108912000000003,0.5367528,0.0,0.0,0.0,0.0
10.18,109.1589384,-0.5964936000000001,1.2469368,-0.30662880000000003,0.0,0.0,0.0,0.0
10.2,109.10651279999999,-1.1387328,1.6806672000000002,-0.7668768,0.0,0.0,0.0,0.0
10.219999999999999,108.9516744,-0.4337304,2.0601432,0.996696,0.0,0.0,0.0,0.0
10.24,108.8635872,-0.8674608,1.9519392,0.6900672,0.0,0.0,0.0,0.0
10.26,108.7611744,-1.1926824,1.5182088,0.0768096,0.0,0.0,0.0,0.0
10.280000000000001,108.6791832,-0.9217152000000001,1.789176,0.6900672,0.0,0.0,0.0,0.0
10.3,108.55848239999999,-0.4337304,1.4097000000000002,0.0,0.0,0.0,0.0,0.0
10.32,108.62310000000001,-1.7349216,0.5422392,0.0768096,0.0,0.0,0.0,0.0
10.34,108.6889368,-2.2771608000000003,0.0,-0.9201912000000001,0.0,0.0,0.0,0.0
10.36,108.568236,-3.1446216000000002,0.650748,-0.8433816000000001,0.0,0.0,0.0,0.0
10.379999999999999,108.5645784,-3.7953696000000003,1.6264128000000002,-0.3834384,0.0,0.0,0.0,0.0
10.399999999999999,108.58621919999999,-2.8194000000000004,1.8434304000000001,0.0768096,0.0,0.0,0.0,0.0
10.42,108.52343040000001,-1.7349216,1.5182088,0.9201912000000001,0.0,0.0,0.0,0.0
10.44,108.20034240000001,-1.789176,0.2709672,-0.6135624,0.0,0.0,0.0,0.0
10.46,108.0406272,-1.3011912,-0.8674608,-0.5367528,0.0,0.0,0.0,0.0
10.48,107.91474480000001,-0.5964936000000001,-0.2709672,0.23012400000000002,0.0,0.0,0.0,0.0
10.5,107.8781688,0.16276320000000002,-0.16276320000000002,0.9201912000000001,0.0,0.0,0.0,0.0
10.52,108.1040256,0.3252216,0.650748,1.6867632000000001,0.0,0.0,0.0,0.0
10.54,108.2259456,10.193121600000001,13.446252000000001,15.1817832,0.0,0.0,0.0,0.0
10.559999999999999,108.23905199999999,1.1926824,-2.2771608000000003,1.0735056,0.0,0.0,0.0,0.0
10.58,108.11499839999999,2.8194000000000004,-1.3011912,4.2937176,0.0,0.0,0.0,0.0
10.6,108.0061848,3.6326064,-2.8736544000000004,1.5334488,0.0,0.0,0.0,0.0
10.620000000000001,107.94522479999999,2.4399240000000004,0.5964936000000001,0.5367528,0.0,0.0,0.0,0.0
10.64,107.8635384,1.9519392,1.5182088,-0.9201912000000001,0.0,0.0,0.0,0.0
10.66,107.8019688,32.964729600000005,-60.399168,17.5589184,0.0,0.0,0.0,0.0
10.68,107.8425072,-2.7108912000000003,1.1926824,0.9201912000000001,0.0,0.0,0.0,0.0
10.7,107.81416080000001,-1.3011912,1.1926824,0.30662880000000003,0.0,0.0,0.0,0.0
10.719999999999999,107.7568584,-0.3252216,1.1926824,-1.9936968000000002,0.0,0.0,0.0,0.0
10.74,107.582208,-1.5182088,0.3252216,-9.1244928,0.0,0.0,0.0,0.0
10.76,107.4660792,-1.789176,-2.6566368,0.9201912000000001,0.0,0.0,0.0,0.0
10.780000000000001,107.20669439999999,-2.0061936,0.8132064000000001,1.9168872,0.0,0.0,0.0,0.0
10.8,107.0494176,-8.1326736,4.120591200000001,5.750661600000001,0.0,0.0,0.0,0.0
10.82,107.1076344,-13.1207256,4.2291,-2.223516,0.0,0.0,0.0,0.0
10.84,107.01954719999999,-1.9519392,-10.0846128,-2.3768304000000002,0.0,0.0,0.0,0.0
10.86,106.6897536,3.957828,-0.5964936000000001,-1.2268200000000002,0.0,0.0,0.0,0.0
10.879999999999999,106.3367952,7.1024496,2.3314152,-0.4599432,0.0,0.0,0.0,0.0
10.899999999999999,106.0396152,4.5000672,5.259324,0.9201912000000001,0.0,0.0,0.0,0.0
10.92,105.6586152,-14.1509496,9.0543888,-1.6102584000000002,0.0,0.0,0.0,0.0
10.94,105.09138239999999,-7.3737216000000005,6.1807343999999995,12.651638400000001,0.0,0.0,0.0,0.0
10.96,104.60736,-1.1926824,9.6508824,4.0638984,0.0,0.0,0.0,0.0
10.98,104.1754584,2.3314152,12.958267200000002,-4.6006512,0.0,0.0,0.0,0.0
11.0,103.9694136,5.8555128,6.7229735999999995,-9.2013024,0.0,0.0,0.0,0.0
11.02,104.003856,-23.368101600000003,123.1297512,14.645030400000001,0.0,0.0,0.0,0.0
11.04,104.01726719999999,-0.1085088,7.807452,4.677156,0.0,0.0,0.0,0.0
11.059999999999999,104.31993360000001,4.445812800000001,4.554321600000001,24.6132096,0.0,0.0,0.0,0.0
11.08,104.71099199999999,1.5182088,13.8799824,1.2268200000000002,0.0,0.0,0.0,0.0
11.1,104.9234376,3.3073848000000003,5.5845456,5.2907184,0.0,0.0,0.0,0.0
11.120000000000001,105.3736272,18.5967624,-11.440058400000002,4.7539656,0.0,0.0,0.0,0.0
11.14,105.5699184,-0.9759696,4.2291,2.8370784000000002,0.0,0.0,0.0,0.0
11.16,105.5025576,1.1387328,-3.0903671999999998,5.903976000000001,0.0,0.0,0.0,0.0
11.18,105.732072,-0.8674608,1.0844784,3.7572696000000003,0.0,0.0,0.0,0.0
11.2,105.489756,2.3856696,-2.7108912000000003,3.2970216000000003,0.0,0.0,0.0,0.0
11.219999999999999,105.0551112,2.0601432,-6.2892432000000005,-0.6135624,0.0,0.0,0.0,0.0
11.24,104.80944240000001,-0.2709672,0.4879848,1.1500104,0.0,0.0,0.0,0.0
11.26,104.2089864,5.638800000000001,1.8434304000000001,3.910584,0.0,0.0,0.0,0.0
11.280000000000001,103.7155152,-11.7110256,32.639508,18.3254904,0.0,0.0,0.0,0.0
11.3,103.603044,7.753197600000001,9.2714064,-0.8433816000000001,0.0,0.0,0.0,0.0
11.32,103.12481279999999,12.7412496,-18.9222888,-25.303276800000003,0.0,0.0,0.0,0.0
11.34,102.5648952,-0.2170176,1.4097000000000002,-15.565221600000001,0.0,0.0,0.0,0.0
11.36,101.99644319999999,0.650748,0.650748,2.9135831999999997,0.0,0.0,0.0,0.0
11.379999999999999,101.714808,-6.9399912,-6.397752,-14.72184,0.0,0.0,0.0,0.0
11.399999999999999,101.61056640000001,2.0061936,-2.3314152,4.677156,0.0,0.0,0.0,0.0
11.42,101.70414,1.789176,0.8132064000000001,5.5205376,0.0,0.0,0.0,0.0
11.44,101.7745488,1.8434304000000001,-2.1686520000000002,-0.9201912000000001,0.0,0.0,0.0,0.0
11.46,101.9650488,0.8132064000000001,1.6806672000000002,-13.111581600000001,0.0,0.0,0.0,0.0
11.48,101.64318,2.8736544000000004,4.0663368,0.3834384,0.0,0.0,0.0,0.0
11.5,100.9899936,15.4521408,-12.958267200000002,3.9870888,0.0,0.0,0.0,0.0
11.52,100.547424,6.777228,11.2230408,-4.6006512,0.0,0.0,0.0,0.0
11.54,99.6705144,18.6510168,-8.8919304,-16.945356,0.0,0.0,0.0,0.0
11.559999999999999,98.8585272,-6.9399912,7.807452,0.0768096,0.0,0.0,0.0,0.0
11.58,98.41656719999999,-0.8674608,3.3616392,1.3801344,0.0,0.0,0.0,0.0
11.6,98.1068904,0.0,1.5182088,3.2970216000000003,0.0,0.0,0.0,0.0
11.620000000000001,98.32969920000001,9.7051368,-7.1024496,4.370527200000001,0.0,0.0,0.0,0.0
11.64,98.8612704,12.4702824,1.7349216,4.677156,0.0,0.0,0.0,0.0
11.66,99.2127048,-22.7173536,-3.7411152,-79.0532328,0.0,0.0,0.0,0.0
11.68,99.450144,1.6264128000000002,8.6749128,2.0702016,0.0,0.0,0.0,0.0
11.7,99.3367584,6.2892432000000005,13.771473600000002,10.5046272,0.0,0.0,0.0,0.0
11.719999999999999,99.5001312,-1.2469368,4.933797600000001,5.9807856,0.0,0.0,0.0,0.0
11.74,99.0795072,-0.7046976,0.37947600000000004,2.1470112,0.0,0.0,0.0,0.0
11.76,98.63937600000001,6.2349888,11.76528,7.5142344,0.0,0.0,0.0,0.0
11.780000000000001,98.5043496,5.638800000000001,3.0361128,2.9903928,0.0,0.0,0.0,0.0
11.8,98.8408488,15.560649600000001,-1.2469368,1.4569440000000002,0.0,0.0,0.0,0.0
11.82,99.156012,-6.8314824000000005,19.7354952,7.130796,0.0,0.0,0.0,0.0
11.84,99.4794048,1.0844784,8.241182400000001,8.2811112,0.0,0.0,0.0,0.0
11.86,99.59187600000001,-2.0601432,10.4098344,10.657941600000001,0.0,0.0,0.0,0.0
11.879999999999999,99.3020112,-25.591008,37.7360688,24.766524,0.0,0.0,0.0,0.0
11.899999999999999,99.05238,-36.976812,-12.5787912,3.7572696000000003,0.0,0.0,0.0,0.0
11.92,99.4574592,4.2291,-3.4698432,-6.6708528000000005,0.0,0.0,0.0,0.0
11.94,99.1782624,11.8195344,-8.4582,7.9744824,0.0,0.0,0.0,0.0
11.96,98.3751144,12.3075192,-2.0061936,1.6867632000000001,0.0,0.0,0.0,0.0
11.98,97.68169439999998,-3.4158936000000004,7.753197600000001,-3.1437072,0.0,0.0,0.0,0.0
12.0,96.89683439999999,1.2469368,5.5845456,2.1470112,0.0,0.0,0.0,0.0
12.02,95.80290719999999,1.3554456000000001,6.4520064,1.9936968000000002,0.0,0.0,0.0,0.0
12.04,94.6120536,-2.1686520000000002,9.108643200000001,-0.5367528,0.0,0.0,0.0,0.0
12.059999999999999,94.0756056,-6.397752,9.5423736,7.130796,0.0,0.0,0.0,0.0
12.08,94.2264816,-2.0061936,2.7651456,7.591044000000001,0.0,0.0,0.0,0.0
12.1,94.19691599999999,-1.8434304000000001,1.4097000000000002,3.8337744,0.0,0.0,0.0,0.0
12.120000000000001,94.1996592,5.421782400000001,-1.9519392,3.2970216000000003,0.0,0.0,0.0,0.0
12.14,94.1262024,0.0,9.976104,5.597347200000001,0.0,0.0,0.0,0.0
12.16,94.19691599999999,3.4698432,2.6023824,-1.5334488,0.0,0.0,0.0,0.0
12.18,94.1859432,-45.2179944,39.796212000000004,-14.0317728,0.0,0.0,0.0,0.0
12.2,94.0667664,-5.638800000000001,9.867595200000002,-0.30662880000000003,0.0,0.0,0.0,0.0
12.219999999999999,94.1042568,4.445812800000001,3.9035736000000005,1.7635728,0.0,0.0,0.0,0.0
12.24,94.25178,42.39859440000001,-32.4224904,-10.888065600000001,0.0,0.0,0.0,0.0
12.26,94.2758592,24.7778016,-7.8617064,6.9009768,0.0,0.0,0.0,0.0
12.280000000000001,94.4578248,11.4943128,2.3856696,0.3834384,0.0,0.0,0.0,0.0
12.3,93.89638319999999,4.2291,2.8194000000000004,-5.9807856,0.0,0.0,0.0,0.0
12.32,93.93509279999999,9.488119200000002,7.3194672,1.1500104,0.0,0.0,0.0,0.0
12.34,93.3471336,7.6989432,12.5787912,-0.3834384,0.0,0.0,0.0,0.0
12.36,91.91670719999999,2.9818584,6.1267848,3.7572696000000003,0.0,0.0,0.0,0.0
12.379999999999999,90.6270984,11.277295200000001,-6.2892432000000005,5.750661600000001,0.0,0.0,0.0,0.0
12.399999999999999,89.99585760000001,4.6628304,8.1326736,18.708928800000002,0.0,0.0,0.0,0.0
12.42,90.4716504,11.5485672,-4.3915584,8.2811112,0.0,0.0,0.0,0.0
12.44,90.8895312,-1.789176,7.5364848,-3.910584,0.0,0.0,0.0,0.0
12.46,90.9194016,-3.5240976,12.958267200000002,11.8847616,0.0,0.0,0.0,0.0
12.48,90.96359759999999,-1.5182088,7.6989432,8.050987200000002,0.0,0.0,0.0,0.0
12.5,90.6563592,7.1024496,-5.1508152,-0.3834384,0.0,0.0,0.0,0.0
12.52,89.856564,5.9097672,-4.5000672,-7.2841104,0.0,0.0,0.0,0.0
12.54,89.015316,6.1807343999999995,3.2531304000000003,-7.8208632,0.0,0.0,0.0,0.0
12.559999999999999,88.355424,2.3856696,10.626852000000001,-3.2970216000000003,0.0,0.0,0.0,0.0
12.58,88.2453912,4.7170848,4.7170848,-12.7281432,0.0,0.0,0.0,0.0
12.6,88.17284880000001,-0.650748,7.3737216000000005,-2.223516,0.0,0.0,0.0,0.0
12.620000000000001,88.64894639999999,3.6868608000000003,5.964021600000001,2.1470112,0.0,0.0,0.0,0.0
12.64,89.1579624,2.3856696,10.0846128,5.750661600000001,0.0,0.0,0.0,0.0
12.66,89.55450719999999,-32.5852536,63.1643136,-3.450336,0.0,0.0,0.0,0.0
12.68,89.2740912,-0.2709672,-2.3314152,-11.271504,0.0,0.0,0.0,0.0
12.7,88.1957088,-5.7470040000000004,10.735360799999999,-2.5304496,0.0,0.0,0.0,0.0
12.719999999999999,87.0862368,10.952073600000002,-15.181173600000001,-21.0092544,0.0,0.0,0.0,0.0
12.74,87.395304,6.9399912,9.5423736,14.951964,0.0,0.0,0.0,0.0
12.76,86.9051856,54.652164000000006,-2.1686520000000002,-48.842676000000004,0.0,0.0,0.0,0.0
12.780000000000001,87.1426248,-11.006328,15.6691584,-43.4754528,0.0,0.0,0.0,0.0
12.8,86.4467664,15.7234128,11.6028216,-13.9549632,0.0,0.0,0.0,0.0
12.82,85.37356559999999,19.247510400000003,-5.0423064,-18.4023,0.0,0.0,0.0,0.0
12.84,84.1632048,4.3915584,7.6446888,10.3513128,0.0,0.0,0.0,0.0
12.86,83.4566784,1.1926824,6.397752,-2.0702016,0.0,0.0,0.0,0.0
12.879999999999999,82.80257759999999,0.1085088,13.446252000000001,2.8370784000000002,0.0,0.0,0.0,0.0
12.899999999999999,82.3810392,-5.259324,7.970215200000001,0.0,0.0,0.0,0.0,0.0
12.919999999999998,82.1487816,-9.6508824,-0.3252216,1.1500104,0.0,0.0,0.0,0.0
12.940000000000001,81.9238392,-2.1686520000000002,-1.6264128000000002,1.1500104,0.0,0.0,0.0,0.0
12.96,81.7159656,-12.3075192,3.8496240000000004,0.9201912000000001,0.0,0.0,0.0,0.0
12.98,81.4017168,-10.193121600000001,9.7593912,4.8304704,0.0,0.0,0.0,0.0
13.0,80.80705199999998,-12.144756000000001,8.566404,8.1277968,0.0,0.0,0.0,0.0
13.02,80.18282159999998,-22.9886256,11.8195344,7.130796,0.0,0.0,0.0,0.0
13.04,79.4967168,-5.5845456,-2.0061936,-1.9168872,0.0,0.0,0.0,0.0
13.059999999999999,79.12333679999999,30.7418232,-26.9464536,-59.1939888,0.0,0.0,0.0,0.0
13.079999999999998,78.7341072,9.596628,15.994380000000001,5.137404,0.0,0.0,0.0,0.0
13.100000000000001,77.5889736,-1.5724632,0.2709672,-20.625816,0.0,0.0,0.0,0.0
13.120000000000001,77.400912,10.138867200000002,-16.8618408,-40.254936,0.0,0.0,0.0,0.0
13.14,78.2333208,-29.006901600000003,28.247644800000003,15.565221600000001,0.0,0.0,0.0,0.0
13.16,78.6286464,9.5423736,8.024164800000001,4.4473368,0.0,0.0,0.0,0.0
13.18,78.88071599999999,15.560649600000001,2.2229064000000003,7.2076056,0.0,0.0,0.0,0.0
13.2,79.0815792,18.1087776,-17.5668432,23.0029512,0.0,0.0,0.0,0.0
13.219999999999999,79.92496080000001,-0.2170176,5.205069600000001,23.539704000000004,0.0,0.0,0.0,0.0
13.239999999999998,80.331564,-46.51918560000001,48.037394400000004,-3.2205168000000004,0.0,0.0,0.0,0.0
13.260000000000002,79.8752784,13.1207256,22.1211648,2.8370784000000002,0.0,0.0,0.0,0.0
13.280000000000001,79.3741872,-22.337877600000002,199.74031680000002,-86.7975912,0.0,0.0,0.0,0.0
13.3,78.5106888,1.5182088,1.4097000000000002,7.9744824,0.0,0.0,0.0,0.0
13.32,76.96474320000002,5.476036800000001,7.5364848,10.9645704,0.0,0.0,0.0,0.0
13.34,75.33772080000001,-0.8674608,0.2170176,8.971178400000001,0.0,0.0,0.0,0.0
13.36,73.965816,-0.8674608,2.1686520000000002,15.335402400000001,0.0,0.0,0.0,0.0
13.379999999999999,73.2912936,8.0784192,11.982297599999999,9.584436,0.0,0.0,0.0,0.0
13.399999999999999,73.2150936,15.4521408,8.94588,7.6675488,0.0,0.0,0.0,0.0
13.419999999999998,72.1632288,-0.9217152000000001,10.8978192,1.3801344,0.0,0.0,0.0,0.0
13.440000000000001,71.1153264,-6.343497600000001,34.7539056,-9.737750400000001,0.0,0.0,0.0,0.0
13.46,70.03999200000001,0.8132064000000001,-16.645128,-34.6575888,0.0,0.0,0.0,0.0
13.48,70.1073528,34.1031576,-5.9097672,12.958267200000002,0.0,0.0,0.0,0.0
13.5,70.1460624,19.789749600000004,-16.2113976,-11.8082568,0.0,0.0,0.0,0.0
13.52,70.21433760000001,23.747577600000003,23.856086400000002,3.0672024,0.0,0.0,0.0,0.0
13.54,71.0449176,-34.157412,53.350668,-3.0672024,0.0,0.0,0.0,0.0
13.559999999999999,71.0699112,-1.5182088,8.6749128,28.1400504,0.0,0.0,0.0,0.0
13.579999999999998,71.18604,14.0424408,-16.645128,1.9936968000000002,0.0,0.0,0.0,0.0
13.600000000000001,71.18421120000001,1.789176,4.2833544,110.0303616,0.0,0.0,0.0,0.0
13.620000000000001,71.0528424,-33.181747200000004,16.482364800000003,16.101974400000003,0.0,0.0,0.0,0.0
13.64,70.8026016,7.8617064,-16.2113976,15.335402400000001,0.0,0.0,0.0,0.0
13.66,70.53285360000001,0.4879848,27.9224232,32.203948800000006,0.0,0.0,0.0,0.0
13.68,70.6392288,6.018276,5.6930544,13.341705600000001,0.0,0.0,0.0,0.0
13.7,70.38594,-61.591850400000006,66.6884112,59.5774272,0.0,0.0,0.0,0.0
13.719999999999999,70.22805360000001,-134.8950312,36.326368800000004,2.8370784000000002,0.0,0.0,0.0,0.0
13.739999999999998,70.0296288,-6.506260800000001,-18.1087776,10.428122400000001,0.0,0.0,0.0,0.0
13.760000000000002,69.687948,-55.7363376,-65.38722,-135.7935816,0.0,0.0,0.0,0.0
13.780000000000001,67.9356528,-19.6269864,-7.4822304,3.910584,0.0,0.0,0.0,0.0
13.8,65.719452,36.0008424,-32.747712,3.68046,0.0,0.0,0.0,0.0
13.82,64.44965520000001,-16.970349600000002,2.2229064000000003,5.060594400000001,0.0,0.0,0.0,0.0
13.84,64.264032,-2.7651456,-0.7046976,23.9231424,0.0,0.0,0.0,0.0
13.86,65.5917408,-11.873788800000002,20.3319888,7.8976728000000005,0.0,0.0,0.0,0.0
13.879999999999999,66.32874720000001,-16.2653472,-8.3496912,5.903976000000001,0.0,0.0,0.0,0.0
13.899999999999999,66.4826712,-12.0908064,21.090940800000002,10.5046272,0.0,0.0,0.0,0.0
13.919999999999998,65.7904704,-9.488119200000002,0.7046976,-8.6645496,0.0,0.0,0.0,0.0
13.940000000000001,62.88786000000001,-12.3075192,10.789310400000002,-16.0254696,0.0,0.0,0.0,0.0
13.96,60.2214696,-5.8555128,8.6749128,-8.58774,0.0,0.0,0.0,0.0
13.98,57.616344000000005,24.9945144,-26.621232000000003,-57.04728240000001,0.0,0.0,0.0,0.0
14.0,54.0635952,5.638800000000001,13.446252000000001,-7.2841104,0.0,0.0,0.0,0.0
14.02,49.8018816,-1.6264128000000002,23.6390688,11.4248184,0.0,0.0,0.0,0.0
14.04,47.5250256,-27.976677600000002,17.8920648,17.8655472,0.0,0.0,0.0,0.0
14.059999999999999,45.6892152,-6.2349888,54.380892,9.5079312,0.0,0.0,0.0,0.0
14.079999999999998,44.317310400000004,-8.4582,14.6389344,4.2172128,0.0,0.0,0.0,0.0
14.100000000000001,43.1179224,-22.609149600000002,-1.6806672000000002,11.194694400000001,0.0,0.0,0.0,0.0
14.120000000000001,42.10324320000001,-25.753771200000003,-21.5246712,-46.4658456,0.0,0.0,0.0,0.0
14.14,41.3580072,13.771473600000002,4.6628304,26.223163200000002,0.0,0.0,0.0,0.0
14.16,40.8392376,-13.446252000000001,0.3252216,-4.4473368,0.0,0.0,0.0,0.0
14.18,40.4015448,-1.8976848000000002,15.235428,41.328441600000005,0.0,0.0,0.0,0.0
14.2,40.16227680000001,5.964021600000001,13.1207256,7.5142344,0.0,0.0,0.0,0.0
14.219999999999999,39.9778728,-29.223614400000002,13.7172192,-4.523841600000001,0.0,0.0,0.0,0.0
14.239999999999998,39.8184624,-9.596628,14.909901600000001,13.111581600000001,0.0,0.0,0.0,0.0
14.260000000000002,39.89923440000001,-18.8680344,15.3978864,19.5523104,0.0,0.0,0.0,0.0
14.280000000000001,40.0449288,-18.7595256,9.867595200000002,13.0350768,0.0,0.0,0.0,0.0
14.3,40.19641440000001,-14.259458400000002,-5.367528,17.6354232,0.0,0.0,0.0,0.0
14.32,40.3229064,-8.94588,-12.8497584,4.2172128,0.0,0.0,0.0,0.0
14.34,40.505786400000005,-18.9222888,26.0789928,16.4086032,0.0,0.0,0.0,0.0
14.36,40.6978104,-2.548128,10.5725976,12.8817624,0.0,0.0,0.0,0.0
14.379999999999999,40.9736544,-15.777667200000002,13.825728,11.3480088,0.0,0.0,0.0,0.0
14.399999999999999,41.2711392,-32.5852536,-147.3110592,40.1016216,0.0,0.0,0.0,0.0
14.419999999999998,41.4445704,-11.006328,0.0542544,4.2172128,0.0,0.0,0.0,0.0
14.440000000000001,41.5177224,-0.4879848,-5.9097672,-1.9936968000000002,0.0,0.0,0.0,0.0
14.46,41.7447984,61.3751376,33.5069688,-12.651638400000001,0.0,0.0,0.0,0.0
14.48,42.033444,38.1697992,-183.79988640000002,48.076104,0.0,0.0,0.0,0.0
14.5,42.223944,-3.198876,0.2709672,11.8847616,0.0,0.0,0.0,0.0
14.52,42.378477600000004,0.2709672,26.0789928,26.453287200000002,0.0,0.0,0.0,0.0
14.54,42.44644800000001,0.7046976,23.584814400000003,81.5836824,0.0,0.0,0.0,0.0
14.559999999999999,42.619574400000005,5.801258400000001,7.210958400000001,12.651638400000001,0.0,0.0,0.0,0.0
14.579999999999998,42.807026400000005,18.2715408,-2.0061936,-1.6102584000000002,0.0,0.0,0.0,0.0
14.600000000000001,43.06275360000001,8.566404,7.5904344,-0.7668768,0.0,0.0,0.0,0.0
14.620000000000001,43.168214400000004,37.0310664,-7.427976000000001,13.725144,0.0,0.0,0.0,0.0
14.64,43.130419200000006,-12.036552,36.21786,-78.0565368,0.0,0.0,0.0,0.0
14.66,43.025568,29.9825664,12.524536800000002,4.370527200000001,0.0,0.0,0.0,0.0
14.68,43.459908000000006,32.1515232,10.138867200000002,10.9645704,0.0,0.0,0.0,0.0
14.7,43.87199760000001,14.58468,-14.1509496,-6.6708528000000005,0.0,0.0,0.0,0.0
14.719999999999999,44.053048800000006,38.4407664,-32.260032,3.450336,0.0,0.0,0.0,0.0
14.739999999999998,44.20575360000001,-14.1509496,-18.5967624,-25.916534400000003,0.0,0.0,0.0,0.0
14.760000000000002,44.3679072,-19.7354952,56.7123072,51.756564000000004,0.0,0.0,0.0,0.0
14.780000000000001,44.56176000000001,-31.3922664,13.0664712,8.2811112,0.0,0.0,0.0,0.0
14.8,44.676974400000006,-27.8139144,17.40408,24.6897144,0.0,0.0,0.0,0.0
14.82,44.6321688,84.6889848,-103.773732,-47.2324176,0.0,0.0,0.0,0.0
14.84,44.4044832,12.958267200000002,-2.7651456,-1.6867632000000001,0.0,0.0,0.0,0.0
14.86,44.182284,5.476036800000001,-3.7411152,-14.798649600000001,0.0,0.0,0.0,0.0
14.879999999999999,43.89059040000001,1.6806672000000002,-5.1508152,1.6867632000000001,0.0,0.0,0.0,0.0
14.899999999999999,43.9363104,16.482364800000003,-12.795504,-3.2205168000000004,0.0,0.0,0.0,0.0
