time,baro_altitude,accl_x,accl_y,accl_z,gps_altitude,gyro_roll,gyro_pitch,gyro_yaw
0.0,0.0,-6.9942456,8.5121496,2.223516,0.0,0.0,0.0,0.0
0.019999999999999574,-0.05760719999999998,-6.885736800000001,8.5121496,2.3003256,0.0,0.0,0.0,0.0
0.040000000000000036,0.011277600000000011,-6.777228,8.6206584,2.3768304000000002,0.0,0.0,0.0,0.0
0.05999999999999961,0.05273040000000002,-6.885736800000001,8.4039456,2.223516,0.0,0.0,0.0,0.0
0.08000000000000007,0.0027432000000000025,-6.885736800000001,8.5121496,2.3768304000000002,0.0,0.0,0.0,0.0
0.09999999999999964,-0.10058399999999999,-6.8314824000000005,8.566404,2.3768304000000002,0.0,0.0,0.0,0.0
0.11999999999999966,-0.050596799999999977,-6.885736800000001,8.4039456,2.3003256,0.0,0.0,0.0,0.0
0.13999999999999968,0.03992880000000002,-6.777228,8.5121496,2.3003256,0.0,0.0,0.0,0.0
0.1599999999999997,0.09601200000000003,-6.8314824000000005,8.566404,2.3768304000000002,0.0,0.0,0.0,0.0
0.17999999999999972,0.13776960000000002,-6.885736800000001,8.4039456,2.3003256,0.0,0.0,0.0,0.0
0.19999999999999973,0.15057120000000002,-6.8314824000000005,8.4582,2.223516,0.0,0.0,0.0,0.0
0.21999999999999975,0.1929384,-6.885736800000001,8.5121496,2.3768304000000002,0.0,0.0,0.0,0.0
0.23999999999999977,0.1578864,-6.9399912,8.4582,2.223516,0.0,0.0,0.0,0.0
0.2599999999999998,0.2569464,-6.885736800000001,8.5121496,2.3768304000000002,0.0,0.0,0.0,0.0
0.2799999999999998,0.20055840000000003,-6.885736800000001,8.6206584,2.3768304000000002,0.0,0.0,0.0,0.0
0.2999999999999998,0.44561760000000006,-6.9399912,8.4582,2.0702016,0.0,0.0,0.0,0.0
0.31999999999999984,0.48463200000000006,-6.9399912,8.566404,2.223516,0.0,0.0,0.0,0.0
0.33999999999999986,0.3136392,-6.777228,8.6206584,2.3768304000000002,0.0,0.0,0.0,0.0
0.35999999999999943,0.36728400000000005,-6.8314824000000005,8.566404,2.3003256,0.0,0.0,0.0,0.0
0.37999999999999945,0.38922960000000006,-6.8314824000000005,8.4582,2.3003256,0.0,0.0,0.0,0.0
0.39999999999999947,0.1597152,-6.777228,8.729167200000001,2.3768304000000002,0.0,0.0,0.0,0.0
0.4199999999999995,0.15453360000000002,-6.9399912,8.4582,2.3768304000000002,0.0,0.0,0.0,0.0
0.4399999999999995,0.16794480000000003,-6.8314824000000005,8.566404,2.3003256,0.0,0.0,0.0,0.0
0.4599999999999995,0.16520160000000003,-6.777228,8.5121496,2.4536400000000005,0.0,0.0,0.0,0.0
0.47999999999999954,0.08290560000000001,-6.9399912,8.4582,2.3768304000000002,0.0,0.0,0.0,0.0
0.49999999999999956,-0.09174479999999999,-6.885736800000001,8.5121496,2.3003256,0.0,0.0,0.0,0.0
0.5199999999999996,0.08412480000000001,-6.777228,8.5121496,2.3768304000000002,0.0,0.0,0.0,0.0
0.5399999999999996,0.17861280000000004,-6.885736800000001,8.5121496,2.3003256,0.0,0.0,0.0,0.0
0.5599999999999996,-0.004572000000000004,-6.777228,8.5121496,2.3003256,0.0,0.0,0.0,0.0
0.5799999999999996,0.09753600000000003,-6.777228,8.6206584,2.3768304000000002,0.0,0.0,0.0,0.0
0.5999999999999996,0.21457920000000003,-6.9399912,8.4582,2.223516,0.0,0.0,0.0,0.0
0.6199999999999997,0.38709600000000005,-6.8314824000000005,8.566404,2.1470112,0.0,0.0,0.0,0.0
0.6399999999999997,0.43982640000000006,-6.885736800000001,8.6206584,2.3768304000000002,0.0,0.0,0.0,0.0
0.6599999999999997,0.2322576,-6.9942456,8.5121496,2.223516,0.0,0.0,0.0,0.0
0.6799999999999997,0.11521440000000001,-6.8314824000000005,8.566404,2.223516,0.0,0.0,0.0,0.0
0.6999999999999997,-0.009753599999999975,-6.9399912,8.4582,2.3768304000000002,0.0,0.0,0.0,0.0
0.7199999999999998,0.07254240000000002,-6.9399912,8.4582,2.223516,0.0,0.0,0.0,0.0
0.7399999999999998,0.09144000000000002,-6.885736800000001,8.5121496,2.3003256,0.0,0.0,0.0,0.0
0.7599999999999998,0.030175200000000013,-6.9399912,8.566404,2.3003256,0.0,0.0,0.0,0.0
0.7799999999999998,0.17769840000000003,-6.885736800000001,8.5121496,2.3768304000000002,0.0,0.0,0.0,0.0
0.7999999999999998,0.26334720000000006,-6.885736800000001,8.5121496,2.3768304000000002,0.0,0.0,0.0,0.0
0.8199999999999998,0.34533840000000005,-6.885736800000001,8.6206584,2.3003256,0.0,0.0,0.0,0.0
0.8399999999999999,0.21122640000000004,-6.9942456,8.5121496,2.3768304000000002,0.0,0.0,0.0,0.0
0.8599999999999994,0.2334768,-6.777228,8.5121496,2.3003256,0.0,0.0,0.0,0.0
0.8799999999999994,0.26578560000000007,-6.9942456,8.5121496,2.3003256,0.0,0.0,0.0,0.0
0.8999999999999995,0.24140160000000002,-6.885736800000001,8.5121496,2.3003256,0.0,0.0,0.0,0.0
0.9199999999999995,0.2682240000000001,-6.7229735999999995,8.566404,2.3768304000000002,0.0,0.0,0.0,0.0
0.9399999999999995,0.18989040000000001,-6.8314824000000005,8.566404,2.3003256,0.0,0.0,0.0,0.0
0.9599999999999995,0.11338560000000002,-6.9399912,8.566404,2.1470112,0.0,0.0,0.0,0.0
0.9799999999999995,0.09997440000000003,-6.8314824000000005,8.566404,2.3003256,0.0,0.0,0.0,0.0
0.9999999999999996,0.1411224,-6.885736800000001,8.5121496,2.3003256,0.0,0.0,0.0,0.0
1.0199999999999996,0.06065520000000002,-6.8314824000000005,8.4582,2.3003256,0.0,0.0,0.0,0.0
1.0399999999999996,0.14478000000000002,-6.885736800000001,8.4039456,2.3003256,0.0,0.0,0.0,0.0
1.0599999999999996,0.13350240000000002,-6.9399912,8.566404,2.1470112,0.0,0.0,0.0,0.0
1.0799999999999996,0.09326880000000003,-6.885736800000001,8.6206584,2.3768304000000002,0.0,0.0,0.0,0.0
1.0999999999999996,0.1450848,-6.885736800000001,8.4039456,2.3003256,0.0,0.0,0.0,0.0
1.1199999999999997,0.2828544,-6.9942456,8.5121496,2.223516,0.0,0.0,0.0,0.0
1.1399999999999997,0.34259520000000004,-6.8314824000000005,8.566404,2.3768304000000002,0.0,0.0,0.0,0.0
1.1599999999999997,0.17586960000000004,-6.8314824000000005,8.4582,2.4536400000000005,0.0,0.0,0.0,0.0
1.1799999999999997,0.05638800000000002,-6.885736800000001,8.5121496,2.3003256,0.0,0.0,0.0,0.0
1.1999999999999997,-0.018897599999999983,-6.8314824000000005,8.6749128,2.3003256,0.0,0.0,0.0,0.0
1.2199999999999998,0.16794480000000003,-6.885736800000001,8.5121496,2.4536400000000005,0.0,0.0,0.0,0.0
1.2399999999999998,0.07467600000000002,-6.9399912,8.566404,2.3003256,0.0,0.0,0.0,0.0
1.2599999999999998,0.06675120000000001,-6.8314824000000005,8.566404,2.3003256,0.0,0.0,0.0,0.0
1.2799999999999998,0.11216640000000003,-6.9942456,8.6206584,2.4536400000000005,0.0,0.0,0.0,0.0
1.2999999999999998,0.14965680000000003,-6.9399912,8.4582,2.3003256,0.0,0.0,0.0,0.0
1.3199999999999998,0.32491680000000006,-6.777228,8.6206584,2.3003256,0.0,0.0,0.0,0.0
1.3399999999999999,0.4599432,-6.885736800000001,8.5121496,2.3768304000000002,0.0,0.0,0.0,0.0
1.3599999999999994,0.3331464,-6.9399912,8.4582,2.223516,0.0,0.0,0.0,0.0
1.3799999999999994,0.32552640000000005,-6.777228,8.5121496,2.223516,0.0,0.0,0.0,0.0
1.3999999999999995,0.3148584,-6.7229735999999995,8.6749128,2.3768304000000002,0.0,0.0,0.0,0.0
1.4199999999999995,0.28712160000000003,-6.8314824000000005,8.4582,2.3003256,0.0,0.0,0.0,0.0
1.4399999999999995,0.313944,-6.9399912,8.566404,2.223516,0.0,0.0,0.0,0.0
1.4599999999999995,0.21793200000000004,-6.7229735999999995,8.6749128,2.3768304000000002,0.0,0.0,0.0,0.0
1.4799999999999995,0.239268,-6.9942456,8.5121496,2.4536400000000005,0.0,0.0,0.0,0.0
1.4999999999999996,0.3209544,-6.9942456,8.5121496,2.223516,0.0,0.0,0.0,0.0
1.5199999999999996,0.3194304,-6.8314824000000005,8.566404,2.3768304000000002,0.0,0.0,0.0,0.0
1.5399999999999996,0.31668720000000006,-6.777228,8.4039456,2.3003256,0.0,0.0,0.0,0.0
1.5599999999999996,0.344424,-6.9942456,8.4039456,2.223516,0.0,0.0,0.0,0.0
1.5799999999999996,0.44653200000000004,-6.8314824000000005,8.6749128,2.3768304000000002,0.0,0.0,0.0,0.0
1.5999999999999996,0.3944112,-6.777228,8.6206584,2.4536400000000005,0.0,0.0,0.0,0.0
1.6199999999999997,0.43251120000000004,-6.9942456,8.5121496,2.3768304000000002,0.0,0.0,0.0,0.0
1.6399999999999997,0.4599432,-6.8314824000000005,8.566404,2.3768304000000002,0.0,0.0,0.0,0.0
1.6599999999999997,0.46268640000000005,-6.8314824000000005,8.6749128,2.223516,0.0,0.0,0.0,0.0
1.6799999999999997,0.46085760000000003,-6.9942456,8.5121496,2.3003256,0.0,0.0,0.0,0.0
1.6999999999999997,0.3258312,-6.885736800000001,8.5121496,2.223516,0.0,0.0,0.0,0.0
1.7199999999999998,0.38221920000000004,-6.7229735999999995,8.6749128,2.3003256,0.0,0.0,0.0,0.0
1.7399999999999998,0.44226480000000007,-7.048500000000001,8.4582,2.3768304000000002,0.0,0.0,0.0,0.0
1.7599999999999998,0.4895088000000001,-6.9942456,8.5121496,2.1470112,0.0,0.0,0.0,0.0
1.7799999999999998,0.44409360000000003,-6.777228,8.6206584,2.3768304000000002,0.0,0.0,0.0,0.0
1.7999999999999998,0.40599360000000007,-6.777228,8.4039456,2.4536400000000005,0.0,0.0,0.0,0.0
1.8199999999999998,0.277368,-6.9942456,8.5121496,2.223516,0.0,0.0,0.0,0.0
1.8399999999999999,0.35600640000000006,-6.7229735999999995,8.6749128,2.4536400000000005,0.0,0.0,0.0,0.0
1.8599999999999994,0.48615600000000003,-6.9399912,8.566404,2.3768304000000002,0.0,0.0,0.0,0.0
1.8799999999999994,0.361188,-7.048500000000001,8.4582,2.223516,0.0,0.0,0.0,0.0
1.8999999999999995,0.39288720000000005,-6.8314824000000005,8.566404,2.4536400000000005,0.0,0.0,0.0,0.0
1.9199999999999995,0.43494960000000005,-6.885736800000001,8.5121496,2.3003256,0.0,0.0,0.0,0.0
1.9399999999999995,0.3380232,-6.9942456,8.5121496,2.223516,0.0,0.0,0.0,0.0
1.9599999999999995,0.18074640000000003,-6.777228,8.5121496,2.3003256,0.0,0.0,0.0,0.0
1.9799999999999995,0.14173200000000002,-6.885736800000001,8.5121496,2.3003256,0.0,0.0,0.0,0.0
1.9999999999999996,0.05120640000000001,-6.9942456,8.5121496,2.223516,0.0,0.0,0.0,0.0
2.0199999999999996,0.14843760000000003,-6.614769600000001,8.6749128,2.3768304000000002,0.0,0.0,0.0,0.0
2.0399999999999996,0.29657040000000007,-6.8314824000000005,8.4582,2.3768304000000002,0.0,0.0,0.0,0.0
2.0599999999999996,0.2188464,-6.9942456,8.4039456,2.223516,0.0,0.0,0.0,0.0
2.0799999999999996,0.07924800000000003,-6.777228,8.6206584,2.223516,0.0,0.0,0.0,0.0
2.0999999999999996,0.16733520000000002,-6.885736800000001,8.5121496,2.3768304000000002,0.0,0.0,0.0,0.0
2.1199999999999997,0.2737104,-6.9399912,8.566404,2.3003256,0.0,0.0,0.0,0.0
2.1399999999999997,0.2279904,-6.8314824000000005,8.6749128,2.3768304000000002,0.0,0.0,0.0,0.0
2.1599999999999997,0.11216640000000003,-6.9399912,8.566404,2.3003256,0.0,0.0,0.0,0.0
2.1799999999999997,0.07071360000000002,-6.9942456,8.5121496,2.223516,0.0,0.0,0.0,0.0
2.1999999999999997,0.17068800000000003,-6.9399912,8.566404,2.3768304000000002,0.0,0.0,0.0,0.0
2.2199999999999998,0.04206240000000002,-6.7229735999999995,8.4582,2.3768304000000002,0.0,0.0,0.0,0.0
2.2399999999999993,-0.04206240000000001,-6.9399912,8.566404,2.223516,0.0,0.0,0.0,0.0
2.26,0.18714720000000004,-6.8314824000000005,8.566404,2.3768304000000002,0.0,0.0,0.0,0.0
2.2799999999999994,0.17556480000000002,-6.885736800000001,8.5121496,2.3768304000000002,0.0,0.0,0.0,0.0
2.3,0.15118080000000003,-6.9399912,8.3496912,2.3003256,0.0,0.0,0.0,0.0
2.3199999999999994,0.033528000000000016,-6.885736800000001,8.6206584,2.3768304000000002,0.0,0.0,0.0,0.0
2.34,0.08778240000000001,-6.8314824000000005,8.566404,2.3768304000000002,0.0,0.0,0.0,0.0
2.3599999999999994,0.06736080000000001,-6.9942456,8.4039456,2.3003256,0.0,0.0,0.0,0.0
2.38,0.06797040000000001,-6.885736800000001,8.5121496,2.3003256,0.0,0.0,0.0,0.0
2.3999999999999995,0.2654808,-6.9399912,8.566404,2.223516,0.0,0.0,0.0,0.0
2.42,0.3048,-6.9399912,8.4582,2.3768304000000002,0.0,0.0,0.0,0.0
2.4399999999999995,0.17160240000000002,-6.8314824000000005,8.4582,2.223516,0.0,0.0,0.0,0.0
2.46,0.25603200000000004,-6.777228,8.5121496,2.3768304000000002,0.0,0.0,0.0,0.0
2.4799999999999995,0.14295120000000003,-6.777228,8.5121496,2.3003256,0.0,0.0,0.0,0.0
2.4999999999999996,0.21396960000000004,-6.8314824000000005,8.566404,2.3003256,0.0,0.0,0.0,0.0
2.5199999999999996,0.22158960000000003,-6.8314824000000005,8.566404,2.3003256,0.0,0.0,0.0,0.0
2.5399999999999996,0.19232880000000002,-6.8314824000000005,8.566404,2.3768304000000002,0.0,0.0,0.0,0.0
2.5599999999999996,0.28133040000000004,-6.9399912,8.4582,2.3003256,0.0,0.0,0.0,0.0
2.5799999999999996,0.2212848,-6.777228,8.6206584,2.3768304000000002,0.0,0.0,0.0,0.0
2.5999999999999996,0.28437840000000003,-6.8314824000000005,8.566404,2.4536400000000005,0.0,0.0,0.0,0.0
2.6199999999999997,0.3005328,-6.885736800000001,8.5121496,2.3768304000000002,0.0,0.0,0.0,0.0
2.6399999999999997,0.42367200000000005,-6.8314824000000005,8.566404,2.3768304000000002,0.0,0.0,0.0,0.0
2.6599999999999997,0.37124640000000003,-6.777228,8.6206584,2.3768304000000002,0.0,0.0,0.0,0.0
2.6799999999999997,0.1481328,-6.9942456,8.4039456,2.4536400000000005,0.0,0.0,0.0,0.0
2.6999999999999997,0.3136392,-6.9942456,8.4039456,2.0702016,0.0,0.0,0.0,0.0
2.7199999999999998,0.44348400000000004,-6.777228,8.729167200000001,2.4536400000000005,0.0,0.0,0.0,0.0
2.7399999999999993,0.3959352,-6.9399912,8.4582,2.4536400000000005,0.0,0.0,0.0,0.0
2.76,0.3380232,-6.9942456,8.295436800000001,2.0702016,0.0,0.0,0.0,0.0
2.7799999999999994,0.2913888,-6.8314824000000005,8.6749128,2.223516,0.0,0.0,0.0,0.0
2.8,0.1551432,-6.8314824000000005,8.566404,2.3768304000000002,0.0,0.0,0.0,0.0
2.8199999999999994,0.21183600000000002,-7.156704,8.3496912,2.0702016,0.0,0.0,0.0,0.0
2.84,0.1944624,-6.668719200000001,8.729167200000001,2.3003256,0.0,0.0,0.0,0.0
2.8599999999999994,0.3773424,-6.8314824000000005,8.566404,2.5304496,0.0,0.0,0.0,0.0
2.88,0.23042880000000002,-7.1024496,8.4039456,2.1470112,0.0,0.0,0.0,0.0
2.8999999999999995,0.21153120000000003,-6.777228,8.729167200000001,2.3003256,0.0,0.0,0.0,0.0
2.92,0.26182320000000003,-6.7229735999999995,8.4582,2.6069544000000002,0.0,0.0,0.0,0.0
2.9399999999999995,0.27310080000000003,-6.9942456,8.4039456,2.1470112,0.0,0.0,0.0,0.0
2.96,0.31242,-6.7229735999999995,8.6749128,2.3768304000000002,0.0,0.0,0.0,0.0
2.9799999999999995,0.18135600000000004,-6.777228,8.5121496,2.6069544000000002,0.0,0.0,0.0,0.0
2.9999999999999996,0.30876240000000005,-7.048500000000001,8.4582,2.223516,0.0,0.0,0.0,0.0
3.0199999999999996,0.13228320000000002,-6.7229735999999995,8.6749128,2.3768304000000002,0.0,0.0,0.0,0.0
3.0399999999999996,0.17404080000000002,-6.7229735999999995,8.4582,2.5304496,0.0,0.0,0.0,0.0
3.0599999999999996,0.17495520000000003,-6.9399912,8.4582,2.0702016,0.0,0.0,0.0,0.0
3.0799999999999996,0.14630400000000002,-6.777228,8.6206584,2.3768304000000002,0.0,0.0,0.0,0.0
3.0999999999999996,0.22402800000000003,-7.6989432,8.1326736,1.9168872,0.0,0.0,0.0,0.0
3.1199999999999997,0.14081760000000001,-6.343497600000001,8.6206584,2.4536400000000005,0.0,0.0,0.0,0.0
3.1399999999999997,-0.006400799999999972,-6.9399912,8.7834216,2.3768304000000002,0.0,0.0,0.0,0.0
3.1599999999999997,-0.020116799999999987,-6.5605152,8.6206584,2.3768304000000002,0.0,0.0,0.0,0.0
3.1799999999999997,-0.026822399999999993,-7.048500000000001,8.3496912,2.1470112,0.0,0.0,0.0,0.0
3.1999999999999997,0.07040880000000002,-6.777228,8.729167200000001,2.5304496,0.0,0.0,0.0,0.0
3.2199999999999998,0.05303520000000002,-6.9399912,8.6749128,2.5304496,0.0,0.0,0.0,0.0
3.2399999999999998,0.13929360000000002,-6.9942456,8.4039456,2.223516,0.0,0.0,0.0,0.0
3.26,0.0627888,-6.8314824000000005,8.4582,2.223516,0.0,0.0,0.0,0.0
3.28,0.1975104,-6.7229735999999995,8.566404,2.4536400000000005,0.0,0.0,0.0,0.0
3.3,0.1578864,-6.9399912,8.4582,2.3768304000000002,0.0,0.0,0.0,0.0
3.3199999999999994,0.09235440000000002,-6.9399912,8.566404,2.3768304000000002,0.0,0.0,0.0,0.0
3.34,0.26761440000000003,-6.9399912,8.566404,2.3768304000000002,0.0,0.0,0.0,0.0
3.3599999999999994,0.41910000000000003,-7.048500000000001,8.566404,2.3768304000000002,0.0,0.0,0.0,0.0
3.38,0.27584400000000003,-6.777228,8.5121496,2.3768304000000002,0.0,0.0,0.0,0.0
3.3999999999999995,0.318516,-6.885736800000001,8.5121496,2.3003256,0.0,0.0,0.0,0.0
3.4199999999999995,0.3160776,-6.9942456,8.5121496,2.3003256,0.0,0.0,0.0,0.0
3.4399999999999995,0.1956816,-6.9942456,8.5121496,2.3003256,0.0,0.0,0.0,0.0
3.4599999999999995,0.21336000000000002,-6.668719200000001,8.6206584,2.3003256,0.0,0.0,0.0,0.0
3.4799999999999995,0.33832799999999996,-7.1024496,8.5121496,2.3768304000000002,0.0,0.0,0.0,0.0
3.4999999999999996,0.1932432,-6.8314824000000005,8.566404,2.3003256,0.0,0.0,0.0,0.0
3.5199999999999996,0.1591056,-6.614769600000001,8.566404,2.3003256,0.0,0.0,0.0,0.0
3.5399999999999996,-0.06065519999999999,-7.048500000000001,8.566404,2.3003256,0.0,0.0,0.0,0.0
3.5599999999999996,0.07589520000000002,-6.885736800000001,8.5121496,2.3003256,0.0,0.0,0.0,0.0
3.5799999999999996,0.13837920000000004,-6.9942456,8.4039456,2.3768304000000002,0.0,0.0,0.0,0.0
3.5999999999999996,0.22463760000000005,-6.8314824000000005,8.4582,2.3768304000000002,0.0,0.0,0.0,0.0
3.6199999999999997,0.26029920000000006,-6.8314824000000005,8.566404,2.3768304000000002,0.0,0.0,0.0,0.0
3.6399999999999997,0.33528,-6.9942456,8.5121496,2.3003256,0.0,0.0,0.0,0.0
3.6599999999999997,0.3441192,-6.885736800000001,8.6206584,2.4536400000000005,0.0,0.0,0.0,0.0
3.6799999999999997,0.16946880000000003,-6.9399912,8.566404,2.3003256,0.0,0.0,0.0,0.0
3.6999999999999997,0.17495520000000003,-6.8314824000000005,8.566404,2.3003256,0.0,0.0,0.0,0.0
3.7199999999999998,0.13136880000000004,-6.885736800000001,8.6206584,2.223516,0.0,0.0,0.0,0.0
3.7399999999999998,0.11521440000000001,-6.8314824000000005,8.566404,2.3768304000000002,0.0,0.0,0.0,0.0
3.76,0.15331440000000002,-6.777228,8.5121496,2.3768304000000002,0.0,0.0,0.0,0.0
3.78,0.1530096,-6.9399912,8.566404,2.4536400000000005,0.0,0.0,0.0,0.0
3.8,0.23439120000000002,-6.885736800000001,8.5121496,2.3003256,0.0,0.0,0.0,0.0
3.8199999999999994,0.265176,-6.777228,8.5121496,2.223516,0.0,0.0,0.0,0.0
3.84,0.07833360000000002,-7.048500000000001,8.566404,2.3003256,0.0,0.0,0.0,0.0
3.8599999999999994,0.02956560000000001,-6.9399912,8.3496912,2.3003256,0.0,0.0,0.0,0.0
3.8799999999999994,0.07376160000000002,-6.885736800000001,8.5121496,2.3003256,0.0,0.0,0.0,0.0
3.8999999999999995,0.06400800000000001,-6.885736800000001,8.5121496,2.3768304000000002,0.0,0.0,0.0,0.0
3.9199999999999995,0.09022080000000002,-6.8314824000000005,8.3496912,2.3768304000000002,0.0,0.0,0.0,0.0
3.9399999999999995,0.09631680000000002,-6.885736800000001,8.5121496,2.3003256,0.0,0.0,0.0,0.0
3.9599999999999995,0.07132320000000002,-6.9942456,8.6206584,2.3768304000000002,0.0,0.0,0.0,0.0
3.9799999999999995,-0.045415199999999975,-6.8314824000000005,8.4582,2.223516,0.0,0.0,0.0,0.0
3.9999999999999996,0.15849600000000003,-6.9942456,8.729167200000001,2.3768304000000002,0.0,0.0,0.0,0.0
4.02,0.1901952,-7.048500000000001,8.6749128,2.3768304000000002,0.0,0.0,0.0,0.0
4.04,0.13289280000000003,-6.9942456,8.6206584,2.4536400000000005,0.0,0.0,0.0,0.0
4.06,0.15057120000000002,-6.885736800000001,8.729167200000001,2.3003256,0.0,0.0,0.0,0.0
4.08,0.18196560000000003,-6.614769600000001,8.6749128,2.3003256,0.0,0.0,0.0,0.0
4.1,0.23622,-6.7229735999999995,8.566404,2.3003256,0.0,0.0,0.0,0.0
4.119999999999999,0.09936480000000003,-6.5605152,8.4039456,2.1470112,0.0,0.0,0.0,0.0
4.14,0.18562320000000002,-6.5605152,8.4039456,2.0702016,0.0,0.0,0.0,0.0
4.159999999999999,0.1542288,-6.777228,8.5121496,2.3768304000000002,0.0,0.0,0.0,0.0
4.18,0.09662160000000003,-7.210958400000001,8.6206584,2.3003256,0.0,0.0,0.0,0.0
4.199999999999999,0.03627120000000002,-77.6947392,79.1044392,16.7920416,0.0,0.0,0.0,0.0
4.22,-0.3496056,-43.80829440000001,141.6183096,150.0554784,0.0,0.0,0.0,0.0
4.239999999999999,-1.3118591999999998,-49.880824800000006,123.07549680000001,129.6594816,0.0,0.0,0.0,0.0
4.26,-2.2927056,-44.5132968,116.18976,131.6531784,0.0,0.0,0.0,0.0
4.279999999999999,-3.2022288000000003,-43.5373272,120.3103512,142.541244,0.0,0.0,0.0,0.0
4.3,-4.31292,-43.5373272,121.6115424,143.53794000000002,0.0,0.0,0.0,0.0
4.319999999999999,-5.529072,-31.5550296,122.7502752,147.2184,0.0,0.0,0.0,0.0
4.34,-6.486144,-44.0795664,127.14183360000001,147.29520960000002,0.0,0.0,0.0,0.0
4.359999999999999,-7.10946,-39.1997184,123.1297512,145.3015128,0.0,0.0,0.0,0.0
4.38,-7.5745848,-47.549409600000004,130.2864552,156.9561504,0.0,0.0,0.0,0.0
4.3999999999999995,-7.4746104,-46.736203200000006,124.1599752,156.9561504,0.0,0.0,0.0,0.0
4.42,-7.2325992,-44.404788,123.45497280000001,156.4962072,0.0,0.0,0.0,0.0
4.4399999999999995,-7.069226400000001,-43.266055200000004,124.05146640000001,152.7389376,0.0,0.0,0.0,0.0
4.46,-6.8403216,-43.37456400000001,121.449084,156.34289280000002,0.0,0.0,0.0,0.0
4.4799999999999995,-7.1905368,-45.9229968,120.5273688,156.9561504,0.0,0.0,0.0,0.0
4.5,-8.1494376,-42.5071032,115.2680448,153.7359384,0.0,0.0,0.0,0.0
4.52,-10.0559616,-50.043588,122.91273360000001,150.36210720000003,0.0,0.0,0.0,0.0
4.54,-12.898831200000002,-46.844712,128.4972792,151.5121176,0.0,0.0,0.0,0.0
4.56,-16.2726624,-43.37456400000001,119.8223664,148.9819728,0.0,0.0,0.0,0.0
4.58,-19.9305672,-39.9047208,112.0149144,147.2184,0.0,0.0,0.0,0.0
4.6,-23.7341664,-46.573440000000005,120.41886000000001,147.2184,0.0,0.0,0.0,0.0
4.619999999999999,-27.2972784,-49.880824800000006,120.798336,145.5316368,0.0,0.0,0.0,0.0
4.64,-30.6174648,-39.4709904,111.90671040000001,146.9117712,0.0,0.0,0.0,0.0
4.66,-33.490814400000005,-36.163605600000004,109.2497688,141.5442432,0.0,0.0,0.0,0.0
4.68,-35.8816656,-39.8504664,107.4063384,143.0011872,0.0,0.0,0.0,0.0
4.699999999999999,-37.7116848,-35.567112,114.8343144,146.0683896,0.0,0.0,0.0,0.0
4.72,-39.036650400000006,-38.8744968,111.0931992,145.3780176,0.0,0.0,0.0,0.0
4.739999999999999,-39.7166592,-42.0733728,112.77417120000001,148.82865840000002,0.0,0.0,0.0,0.0
4.76,-39.8526,-41.422929599999996,108.761784,137.7104688,0.0,0.0,0.0,0.0
4.779999999999999,-39.42588,-36.3806232,105.0209736,132.4197504,0.0,0.0,0.0,0.0
4.8,-38.4919728,-37.0310664,100.0326168,128.1260328,0.0,0.0,0.0,0.0
4.819999999999999,-37.0624608,-38.9287512,102.14731920000001,132.49656000000002,0.0,0.0,0.0,0.0
4.84,-35.2970592,-35.7298752,100.6833648,130.1197296,0.0,0.0,0.0,0.0
4.859999999999999,-33.1619352,-34.2659208,100.30388880000001,129.35285280000002,0.0,0.0,0.0,0.0
4.88,-30.505907999999998,-38.9287512,101.06284080000002,130.8863016,0.0,0.0,0.0,0.0
4.8999999999999995,-27.354885600000003,-36.0550968,97.75545600000001,128.43266160000002,0.0,0.0,0.0,0.0
4.92,-23.6735112,-33.452714400000005,97.75545600000001,127.51247040000001,0.0,0.0,0.0,0.0
4.9399999999999995,-19.5105528,-34.049208,98.78568000000001,126.5157744,0.0,0.0,0.0,0.0
4.96,-15.169591200000001,-32.205777600000005,94.55658000000001,124.138944,0.0,0.0,0.0,0.0
4.9799999999999995,-10.2863904,-33.2356968,96.12904320000001,122.45187600000001,0.0,0.0,0.0,0.0
5.0,-5.367223200000001,-32.4224904,94.44837600000001,120.61179840000001,0.0,0.0,0.0,0.0
5.02,-0.2237232,-31.284062400000003,92.008452,118.9247304,0.0,0.0,0.0,0.0
5.039999999999999,4.8975264,-34.916668800000004,90.7615152,117.69791040000001,0.0,0.0,0.0,0.0
5.06,9.8688144,-33.7236816,91.1952456,116.7012144,0.0,0.0,0.0,0.0
5.08,15.158923200000002,-32.205777600000005,87.83360640000001,116.0111472,0.0,0.0,0.0,0.0
5.1,20.6712312,-32.747712,87.9421152,112.86744000000002,0.0,0.0,0.0,0.0
5.119999999999999,26.171347200000003,-31.121299200000003,84.2552544,111.410496,0.0,0.0,0.0,0.0
5.14,31.654394400000005,-29.874362400000003,83.442048,111.870744,0.0,0.0,0.0,0.0
5.16,37.2258336,-29.440632,83.22503040000001,111.64062,0.0,0.0,0.0,0.0
5.18,42.970704,-28.4646624,82.1408568,109.0336656,0.0,0.0,0.0,0.0
5.199999999999999,48.572013600000005,-31.717792800000005,81.1648872,110.183676,0.0,0.0,0.0,0.0
5.22,54.140404800000006,-33.5612232,80.9478696,108.34359840000002,0.0,0.0,0.0,0.0
5.239999999999999,59.81913360000001,-31.6635384,85.231224,108.34359840000002,0.0,0.0,0.0,0.0
5.26,65.6094192,-29.440632,74.0078784,100.9058688,0.0,0.0,0.0,0.0
5.279999999999999,71.5795368,-27.325929600000002,69.1825896,90.7078704,0.0,0.0,0.0,0.0
5.3,77.8632936,-24.669292800000004,61.8631224,83.1171312,0.0,0.0,0.0,0.0
5.319999999999999,83.9943456,-19.464223200000003,54.8146224,77.5962888,0.0,0.0,0.0,0.0
5.34,90.3357096,-18.434304,49.880824800000006,68.3184816,0.0,0.0,0.0,0.0
5.359999999999999,96.42805200000001,-17.0788584,44.404788,56.203596000000005,0.0,0.0,0.0,0.0
5.38,102.82488959999999,-16.2113976,37.248084,48.6893616,0.0,0.0,0.0,0.0
5.3999999999999995,109.21197360000001,-11.006328,28.4646624,40.8684984,0.0,0.0,0.0,0.0
5.42,115.51889519999999,-11.006328,23.368101600000003,30.7473096,0.0,0.0,0.0,0.0
5.4399999999999995,121.92213360000001,-8.241182400000001,15.614904,21.0092544,0.0,0.0,0.0,0.0
5.46,128.5301976,-4.1748456,6.777228,13.571829600000001,0.0,0.0,0.0,0.0
5.4799999999999995,134.90021280000002,-3.4158936000000004,2.6566368,3.7572696000000003,0.0,0.0,0.0,0.0
5.5,141.1608048,-0.3252216,-0.650748,-1.6102584000000002,0.0,0.0,0.0,0.0
5.52,147.6810864,-10.355580000000002,-7.3194672,0.0,0.0,0.0,0.0,0.0
5.539999999999999,154.1760696,-1.9519392,-8.4582,0.15331440000000002,0.0,0.0,0.0,0.0
5.56,160.74847200000005,5.0423064,-4.5000672,-3.3738312000000006,0.0,0.0,0.0,0.0
5.58,167.39555040000005,4.2291,2.8194000000000004,-7.36092,0.0,0.0,0.0,0.0
5.6,173.96734320000002,2.0061936,11.76528,-7.2841104,0.0,0.0,0.0,0.0
5.619999999999999,180.18252000000004,24.235562400000003,24.018849600000003,-22.4661984,0.0,0.0,0.0,0.0
5.64,185.9206848,15.2896824,2.2771608000000003,-10.044684,0.0,0.0,0.0,0.0
5.66,191.7060936,16.1571432,19.0847472,-4.8304704,0.0,0.0,0.0,0.0
5.68,197.14311600000002,22.5548952,21.0366864,5.750661600000001,0.0,0.0,0.0,0.0
5.699999999999999,201.99644640000002,27.8139144,17.40408,-6.6708528000000005,0.0,0.0,0.0,0.0
5.72,206.56753200000003,21.4161624,13.174980000000001,-7.130796,0.0,0.0,0.0,0.0
5.739999999999999,210.6326496,19.7354952,19.4102736,5.903976000000001,0.0,0.0,0.0,0.0
5.76,214.34724720000003,24.723547200000002,17.8920648,6.594043200000001,0.0,0.0,0.0,0.0
5.779999999999999,217.94266800000003,21.1451952,17.024604,8.6645496,0.0,0.0,0.0,0.0
5.8,221.33417760000003,20.1692256,16.1571432,4.8304704,0.0,0.0,0.0,0.0
5.819999999999999,224.53122480000002,20.22348,15.1269192,4.2937176,0.0,0.0,0.0,0.0
5.84,227.56794720000002,20.22348,15.1269192,5.750661600000001,0.0,0.0,0.0,0.0
5.859999999999999,230.49524640000004,20.765719200000003,15.018410400000002,4.984089600000001,0.0,0.0,0.0,0.0
5.88,233.32379040000004,19.844004,15.181173600000001,4.984089600000001,0.0,0.0,0.0,0.0
5.8999999999999995,236.107224,20.1692256,15.506395200000002,4.907280000000001,0.0,0.0,0.0,0.0
5.92,238.86779760000002,20.1692256,14.6389344,4.984089600000001,0.0,0.0,0.0,0.0
5.9399999999999995,241.87221120000004,19.952208,14.964156000000001,3.910584,0.0,0.0,0.0,0.0
5.96,244.9756848,19.6812408,14.8016976,4.523841600000001,0.0,0.0,0.0,0.0
5.9799999999999995,248.18187600000002,19.1390016,15.4521408,4.8304704,0.0,0.0,0.0,0.0
6.0,251.563632,19.464223200000003,15.343632000000001,4.677156,0.0,0.0,0.0,0.0
6.02,254.66497200000003,18.054828,16.2113976,3.910584,0.0,0.0,0.0,0.0
6.039999999999999,257.5627056,19.3560192,14.476171200000001,4.2172128,0.0,0.0,0.0,0.0
6.06,260.0483496,18.976543200000002,15.181173600000001,4.6006512,0.0,0.0,0.0,0.0
6.08,262.44651600000003,18.3800496,13.825728,4.1404032,0.0,0.0,0.0,0.0
6.1,264.72611520000004,18.5967624,12.7412496,3.9870888,0.0,0.0,0.0,0.0
6.119999999999999,266.77589520000004,19.3560192,14.1509496,3.9870888,0.0,0.0,0.0,0.0
6.14,268.8592032,18.976543200000002,12.9040128,4.523841600000001,0.0,0.0,0.0,0.0
6.16,270.7117776,17.512588800000003,14.58468,3.6036504000000003,0.0,0.0,0.0,0.0
6.18,272.6332368,18.488558400000002,14.1509496,4.370527200000001,0.0,0.0,0.0,0.0
6.199999999999999,274.5205584,17.6750472,13.554456,3.8337744,0.0,0.0,0.0,0.0
6.22,276.5337624,18.000573600000003,13.446252000000001,4.0638984,0.0,0.0,0.0,0.0
6.24,278.5707408,17.458334400000002,13.446252000000001,4.2172128,0.0,0.0,0.0,0.0
6.26,280.67233680000004,16.6993824,13.988186400000002,4.523841600000001,0.0,0.0,0.0,0.0
6.279999999999999,282.80045040000005,16.6993824,13.554456,3.3738312000000006,0.0,0.0,0.0,0.0
6.3,285.0285384,17.1331128,13.012521600000001,3.7572696000000003,0.0,0.0,0.0,0.0
6.32,287.2630272,17.1870624,13.3919976,5.2907184,0.0,0.0,0.0,0.0
6.34,289.6139496,15.8858712,12.7412496,3.8337744,0.0,0.0,0.0,0.0
6.359999999999999,291.81216720000003,16.5366192,12.524536800000002,3.2205168000000004,0.0,0.0,0.0,0.0
6.379999999999999,293.97868560000006,16.102888800000002,11.76528,2.8370784000000002,0.0,0.0,0.0,0.0
6.3999999999999995,296.10649440000003,16.6993824,12.036552,4.2172128,0.0,0.0,0.0,0.0
6.42,298.2989208,16.2653472,11.928043200000001,4.4473368,0.0,0.0,0.0,0.0
6.4399999999999995,300.61814400000003,16.0486344,13.012521600000001,3.910584,0.0,0.0,0.0,0.0
6.459999999999999,303.08001360000003,15.994380000000001,12.7412496,4.7539656,0.0,0.0,0.0,0.0
6.4799999999999995,305.4473952,15.4521408,12.199010400000002,2.4536400000000005,0.0,0.0,0.0,0.0
6.5,307.788564,16.645128,12.199010400000002,4.8304704,0.0,0.0,0.0,0.0
6.52,310.069992,16.2653472,11.7110256,2.7602688,0.0,0.0,0.0,0.0
6.539999999999999,312.35964960000007,15.181173600000001,11.7110256,3.9870888,0.0,0.0,0.0,0.0
6.56,314.59261440000006,15.506395200000002,12.9040128,4.2937176,0.0,0.0,0.0,0.0
6.58,316.8368568,14.909901600000001,10.681106400000001,3.8337744,0.0,0.0,0.0,0.0
6.6,319.0993872,14.747443200000001,13.012521600000001,4.2937176,0.0,0.0,0.0,0.0
6.619999999999999,321.3305232000001,14.58468,10.681106400000001,3.6036504000000003,0.0,0.0,0.0,0.0
6.64,323.65188000000006,15.343632000000001,12.0908064,3.910584,0.0,0.0,0.0,0.0
6.66,325.97628480000003,14.367967200000002,11.982297599999999,4.370527200000001,0.0,0.0,0.0,0.0
6.68,328.336656,15.018410400000002,10.0303584,2.683764,0.0,0.0,0.0,0.0
6.699999999999999,330.73848000000004,13.229234400000001,10.5183432,3.2205168000000004,0.0,0.0,0.0,0.0
6.72,333.0165552,14.0424408,11.440058400000002,4.0638984,0.0,0.0,0.0,0.0
6.74,335.17575840000006,14.476171200000001,10.355580000000002,3.7572696000000003,0.0,0.0,0.0,0.0
6.76,337.3407528,14.1509496,10.8978192,4.7539656,0.0,0.0,0.0,0.0
6.779999999999999,339.69015120000006,12.795504,11.1690912,5.137404,0.0,0.0,0.0,0.0
6.8,341.9801136,14.0424408,10.789310400000002,2.8370784000000002,0.0,0.0,0.0,0.0
6.82,344.33926560000003,14.205204,10.5183432,0.996696,0.0,0.0,0.0,0.0
6.84,346.57436400000006,13.9342368,11.982297599999999,2.8370784000000002,0.0,0.0,0.0,0.0
6.859999999999999,348.81251040000006,13.0664712,10.4640888,2.683764,0.0,0.0,0.0,0.0
6.879999999999999,350.9808576,13.3377432,10.843564800000001,3.7572696000000003,0.0,0.0,0.0,0.0
6.8999999999999995,353.3046528,12.416028,9.9218496,2.223516,0.0,0.0,0.0,0.0
6.92,355.53396000000004,12.5787912,10.3013256,2.9135831999999997,0.0,0.0,0.0,0.0
6.9399999999999995,357.730044,13.446252000000001,10.0846128,3.8337744,0.0,0.0,0.0,0.0
6.959999999999999,359.88680880000004,12.7412496,9.7051368,3.0672024,0.0,0.0,0.0,0.0
6.9799999999999995,361.96097280000004,12.3075192,9.9218496,2.683764,0.0,0.0,0.0,0.0
7.0,363.99185520000003,13.0664712,10.355580000000002,2.223516,0.0,0.0,0.0,0.0
7.02,365.98707600000006,12.686995200000002,9.7593912,3.910584,0.0,0.0,0.0,0.0
7.039999999999999,368.0639832,12.144756000000001,9.7593912,2.3003256,0.0,0.0,0.0,0.0
7.06,370.1756376,12.8497584,9.488119200000002,2.3003256,0.0,0.0,0.0,0.0
7.08,372.4018968,12.3075192,10.355580000000002,2.9135831999999997,0.0,0.0,0.0,0.0
7.1,374.57207280000006,11.76528,10.0303584,2.7602688,0.0,0.0,0.0,0.0
7.119999999999999,376.88550480000004,11.928043200000001,8.4582,1.7635728,0.0,0.0,0.0,0.0
7.14,379.27513680000004,12.416028,9.9218496,2.6069544000000002,0.0,0.0,0.0,0.0
7.16,381.64251840000003,11.6028216,10.3013256,2.7602688,0.0,0.0,0.0,0.0
7.18,384.0495240000001,11.440058400000002,9.596628,3.1437072,0.0,0.0,0.0,0.0
7.199999999999999,386.42726880000004,11.440058400000002,9.1628976,3.2205168000000004,0.0,0.0,0.0,0.0
7.22,388.8284832,11.76528,8.295436800000001,3.3738312000000006,0.0,0.0,0.0,0.0
7.24,391.1638608,10.681106400000001,9.379915200000001,2.4536400000000005,0.0,0.0,0.0,0.0
7.26,393.6821184,11.1148368,9.1628976,2.3003256,0.0,0.0,0.0,0.0
7.279999999999999,396.15922800000004,10.843564800000001,8.7834216,1.7635728,0.0,0.0,0.0,0.0
7.3,398.6265840000001,11.385804,9.4338648,2.9903928,0.0,0.0,0.0,0.0
7.32,400.99548960000004,11.6028216,8.566404,2.4536400000000005,0.0,0.0,0.0,0.0
7.34,403.30495920000004,11.0605824,8.566404,1.9168872,0.0,0.0,0.0,0.0
7.359999999999999,405.4669056000001,11.1148368,8.729167200000001,1.9936968000000002,0.0,0.0,0.0,0.0
7.379999999999999,407.5736832,10.247376,8.729167200000001,2.5304496,0.0,0.0,0.0,0.0
7.3999999999999995,409.6374840000001,10.5725976,8.837676,1.9936968000000002,0.0,0.0,0.0,0.0
7.42,411.7622448000001,10.138867200000002,8.0784192,2.683764,0.0,0.0,0.0,0.0
7.4399999999999995,413.89371120000004,10.355580000000002,8.295436800000001,2.3003256,0.0,0.0,0.0,0.0
7.459999999999999,415.98372480000006,10.3013256,7.915960800000001,1.6102584000000002,0.0,0.0,0.0,0.0
7.4799999999999995,417.90853680000004,10.5725976,8.837676,2.9135831999999997,0.0,0.0,0.0,0.0
7.5,419.9942832,10.355580000000002,8.729167200000001,2.683764,0.0,0.0,0.0,0.0
7.52,422.068752,10.4640888,8.0784192,2.6069544000000002,0.0,0.0,0.0,0.0
7.539999999999999,424.2675792,10.4098344,8.024164800000001,2.6069544000000002,0.0,0.0,0.0,0.0
7.56,426.48774240000006,9.867595200000002,8.241182400000001,2.7602688,0.0,0.0,0.0,0.0
7.58,428.7487488,10.5183432,8.1326736,1.9936968000000002,0.0,0.0,0.0,0.0
7.6,430.9042944,10.0303584,7.753197600000001,2.683764,0.0,0.0,0.0,0.0
7.619999999999999,433.01412000000005,10.193121600000001,7.915960800000001,1.3036296,0.0,0.0,0.0,0.0
7.64,435.175152,10.138867200000002,7.8617064,1.8400776,0.0,0.0,0.0,0.0
7.66,437.57057520000006,9.3256608,8.4582,2.683764,0.0,0.0,0.0,0.0
7.68,439.73069280000004,9.108643200000001,8.1326736,2.683764,0.0,0.0,0.0,0.0
7.699999999999999,441.83503200000007,9.7593912,8.566404,2.7602688,0.0,0.0,0.0,0.0
7.72,444.0137424,9.2714064,8.0784192,2.8370784000000002,0.0,0.0,0.0,0.0
7.74,446.1354552,9.1628976,8.4039456,2.5304496,0.0,0.0,0.0,0.0
7.76,448.19651280000005,8.837676,7.753197600000001,2.5304496,0.0,0.0,0.0,0.0
7.779999999999999,450.2557416000001,9.108643200000001,7.915960800000001,2.3003256,0.0,0.0,0.0,0.0
7.8,452.42104080000007,8.837676,7.6446888,2.3768304000000002,0.0,0.0,0.0,0.0
7.82,454.42906320000003,9.0001344,7.6989432,2.1470112,0.0,0.0,0.0,0.0
7.84,456.49408320000003,8.7834216,7.807452,2.5304496,0.0,0.0,0.0,0.0
7.859999999999999,458.513688,9.0543888,7.5364848,2.1470112,0.0,0.0,0.0,0.0
7.879999999999999,460.6741104000001,8.6206584,6.885736800000001,2.3768304000000002,0.0,0.0,0.0,0.0
7.8999999999999995,462.6949344,9.1628976,7.6446888,2.5304496,0.0,0.0,0.0,0.0
7.92,464.8465176,8.3496912,7.4822304,2.223516,0.0,0.0,0.0,0.0
7.9399999999999995,467.05448880000006,8.4582,7.048500000000001,2.3768304000000002,0.0,0.0,0.0,0.0
7.959999999999999,469.33225920000007,8.6749128,6.7229735999999995,1.3801344,0.0,0.0,0.0,0.0
7.9799999999999995,471.64386240000005,7.8617064,7.427976000000001,1.5334488,0.0,0.0,0.0,0.0
8.0,473.81434320000005,7.6989432,7.048500000000001,0.996696,0.0,0.0,0.0,0.0
8.02,475.86138000000005,7.915960800000001,7.048500000000001,2.3003256,0.0,0.0,0.0,0.0
8.04,477.8404464,8.241182400000001,7.156704,1.7635728,0.0,0.0,0.0,0.0
8.059999999999999,479.7850704,7.8617064,6.9942456,1.6867632000000001,0.0,0.0,0.0,0.0
8.08,481.8135144000001,7.970215200000001,7.1024496,1.7635728,0.0,0.0,0.0,0.0
8.1,484.1546832,7.5904344,6.2892432000000005,1.7635728,0.0,0.0,0.0,0.0
8.12,486.3199824,7.6989432,6.7229735999999995,1.6867632000000001,0.0,0.0,0.0,0.0
8.14,488.4508392,7.807452,6.1807343999999995,1.6102584000000002,0.0,0.0,0.0,0.0
8.16,490.52774640000007,7.807452,6.7229735999999995,1.6867632000000001,0.0,0.0,0.0,0.0
8.18,492.69030240000006,7.5904344,6.7229735999999995,2.0702016,0.0,0.0,0.0,0.0
8.2,494.6623584000001,7.5364848,6.5605152,1.1500104,0.0,0.0,0.0,0.0
8.219999999999999,496.65544560000006,8.186928,7.1024496,1.5334488,0.0,0.0,0.0,0.0
8.239999999999998,498.7274760000001,7.8617064,6.5605152,1.2268200000000002,0.0,0.0,0.0,0.0
8.26,500.8281576,7.210958400000001,6.343497600000001,1.3801344,0.0,0.0,0.0,0.0
8.28,502.8864720000001,7.3194672,6.4520064,1.6102584000000002,0.0,0.0,0.0,0.0
8.3,504.92040240000006,7.1024496,6.2349888,1.7635728,0.0,0.0,0.0,0.0
8.32,506.96652480000006,7.3194672,6.777228,1.7635728,0.0,0.0,0.0,0.0
8.34,508.9050528,7.210958400000001,6.5605152,1.9936968000000002,0.0,0.0,0.0,0.0
8.36,510.727452,7.156704,6.506260800000001,2.223516,0.0,0.0,0.0,0.0
8.379999999999999,512.769612,6.8314824000000005,6.1807343999999995,1.4569440000000002,0.0,0.0,0.0,0.0
8.399999999999999,514.6968624000001,7.1024496,6.343497600000001,2.0702016,0.0,0.0,0.0,0.0
8.42,516.6622128,6.777228,6.343497600000001,1.3801344,0.0,0.0,0.0,0.0
8.44,518.5001568,6.7229735999999995,6.397752,1.4569440000000002,0.0,0.0,0.0,0.0
8.46,520.2478800000001,6.777228,6.018276,1.1500104,0.0,0.0,0.0,0.0
8.48,522.1473936000001,6.668719200000001,6.5605152,1.9936968000000002,0.0,0.0,0.0,0.0
8.5,523.879572,6.777228,5.9097672,1.3801344,0.0,0.0,0.0,0.0
8.52,525.4319184,6.777228,6.2349888,1.3036296,0.0,0.0,0.0,0.0
8.54,526.9705488,6.885736800000001,5.801258400000001,0.9201912000000001,0.0,0.0,0.0,0.0
8.559999999999999,528.648168,6.885736800000001,5.5845456,1.6867632000000001,0.0,0.0,0.0,0.0
8.58,530.2651320000001,6.9399912,5.5302912,1.4569440000000002,0.0,0.0,0.0,0.0
8.6,532.0171224000001,6.4520064,5.6930544,1.7635728,0.0,0.0,0.0,0.0
8.62,533.7032760000001,6.9399912,5.8555128,2.1470112,0.0,0.0,0.0,0.0
8.64,535.568652,6.018276,5.6930544,0.7668768,0.0,0.0,0.0,0.0
8.66,537.3794688,6.397752,5.5302912,1.6102584000000002,0.0,0.0,0.0,0.0
8.68,539.2674000000001,6.343497600000001,5.476036800000001,1.3801344,0.0,0.0,0.0,0.0
8.7,541.0849224,6.397752,5.638800000000001,1.0735056,0.0,0.0,0.0,0.0
8.719999999999999,542.8155768,6.1267848,5.5845456,0.6135624,0.0,0.0,0.0,0.0
8.739999999999998,544.564824,6.0725304,5.7470040000000004,1.1500104,0.0,0.0,0.0,0.0
8.76,546.2787144000001,5.6930544,5.476036800000001,1.2268200000000002,0.0,0.0,0.0,0.0
8.78,548.033448,5.638800000000001,5.638800000000001,1.3036296,0.0,0.0,0.0,0.0
8.8,549.6467544000001,5.7470040000000004,5.964021600000001,1.8400776,0.0,0.0,0.0,0.0
8.82,551.2984656,6.018276,5.476036800000001,1.9168872,0.0,0.0,0.0,0.0
8.84,552.9453,5.801258400000001,5.476036800000001,1.3801344,0.0,0.0,0.0,0.0
8.86,554.5683600000001,5.638800000000001,5.7470040000000004,1.3801344,0.0,0.0,0.0,0.0
8.879999999999999,556.1935536000001,5.801258400000001,5.5845456,1.3036296,0.0,0.0,0.0,0.0
8.899999999999999,557.8742208,5.1508152,5.259324,0.6135624,0.0,0.0,0.0,0.0
8.92,559.586892,5.801258400000001,5.5845456,0.996696,0.0,0.0,0.0,0.0
8.94,561.3525984,5.421782400000001,5.421782400000001,1.6102584000000002,0.0,0.0,0.0,0.0
8.96,563.0802048,5.476036800000001,5.1508152,1.3801344,0.0,0.0,0.0,0.0
8.98,564.7998864,5.421782400000001,5.096560800000001,1.2268200000000002,0.0,0.0,0.0,0.0
9.0,566.5680312000001,5.5302912,4.988052,1.1500104,0.0,0.0,0.0,0.0
9.02,568.3248984,5.259324,4.8252888,1.2268200000000002,0.0,0.0,0.0,0.0
9.04,570.1027968,5.5302912,4.988052,0.7668768,0.0,0.0,0.0,0.0
9.059999999999999,571.8755136,5.3132736,5.205069600000001,1.0735056,0.0,0.0,0.0,0.0
9.08,573.8829264,5.6930544,4.933797600000001,1.3801344,0.0,0.0,0.0,0.0
9.1,575.7553128000001,4.933797600000001,5.367528,1.4569440000000002,0.0,0.0,0.0,0.0
9.12,577.58838,5.0423064,4.933797600000001,0.7668768,0.0,0.0,0.0,0.0
9.14,579.4275432000001,5.096560800000001,4.988052,0.996696,0.0,0.0,0.0,0.0
9.16,581.3736912,4.988052,5.096560800000001,1.1500104,0.0,0.0,0.0,0.0
9.18,583.21194,4.5000672,5.0423064,1.3036296,0.0,0.0,0.0,0.0
9.2,584.9861808,4.988052,4.7713392,0.7668768,0.0,0.0,0.0,0.0
9.219999999999999,586.7070816,4.933797600000001,5.0423064,1.6102584000000002,0.0,0.0,0.0,0.0
9.239999999999998,588.4432224,4.7170848,5.0423064,1.2268200000000002,0.0,0.0,0.0,0.0
9.26,590.1561984000001,4.933797600000001,5.259324,1.6867632000000001,0.0,0.0,0.0,0.0
9.28,591.8594208000001,4.8795432000000005,5.096560800000001,0.7668768,0.0,0.0,0.0,0.0
9.3,593.5915992,4.988052,4.6628304,1.1500104,0.0,0.0,0.0,0.0
9.32,595.2457488,4.5000672,4.3915584,0.7668768,0.0,0.0,0.0,0.0
9.34,596.8041912,4.8252888,4.7170848,0.6135624,0.0,0.0,0.0,0.0
9.36,598.3943328,4.7713392,4.8795432000000005,0.8433816000000001,0.0,0.0,0.0,0.0
9.379999999999999,600.0335472,4.5000672,4.933797600000001,1.1500104,0.0,0.0,0.0,0.0
9.399999999999999,601.6410624000001,4.1748456,4.933797600000001,1.1500104,0.0,0.0,0.0,0.0
9.42,603.2293752,4.7170848,5.0423064,1.3801344,0.0,0.0,0.0,0.0
9.44,604.8292704,4.3376088,4.445812800000001,0.6900672,0.0,0.0,0.0,0.0
9.46,606.4584264,4.3915584,4.3915584,0.8433816000000001,0.0,0.0,0.0,0.0
9.48,608.0229648000001,4.608576,4.8252888,1.2268200000000002,0.0,0.0,0.0,0.0
9.5,609.7027176,4.3915584,4.2833544,0.4599432,0.0,0.0,0.0,0.0
9.52,611.2721328,4.1748456,4.608576,0.996696,0.0,0.0,0.0,0.0
9.54,612.9076896,4.445812800000001,4.2291,0.6900672,0.0,0.0,0.0,0.0
9.559999999999999,614.3115984000001,3.9035736000000005,4.3376088,0.5367528,0.0,0.0,0.0,0.0
9.58,615.7740288000001,4.1748456,4.608576,0.9201912000000001,0.0,0.0,0.0,0.0
9.6,617.3135736,4.120591200000001,4.6628304,0.996696,0.0,0.0,0.0,0.0
9.62,618.8473272,4.120591200000001,4.2291,0.996696,0.0,0.0,0.0,0.0
9.64,620.437164,4.120591200000001,4.445812800000001,0.6900672,0.0,0.0,0.0,0.0
9.66,622.0794264,4.120591200000001,4.554321600000001,0.9201912000000001,0.0,0.0,0.0,0.0
9.68,623.7277848000001,4.0663368,4.1748456,0.5367528,0.0,0.0,0.0,0.0
9.7,625.2828744,3.9035736000000005,3.9035736000000005,0.6900672,0.0,0.0,0.0,0.0
9.719999999999999,626.7352463999999,3.8496240000000004,3.957828,0.8433816000000001,0.0,0.0,0.0,0.0
9.739999999999998,628.2961272,3.9035736000000005,3.7953696000000003,0.5367528,0.0,0.0,0.0,0.0
9.76,629.8890119999999,3.9035736000000005,3.9035736000000005,0.6900672,0.0,0.0,0.0,0.0
9.78,631.5977207999999,3.7411152,4.5000672,0.6900672,0.0,0.0,0.0,0.0
9.8,633.193044,3.6868608000000003,4.3376088,1.3801344,0.0,0.0,0.0,0.0
9.82,634.7069855999999,3.6326064,3.8496240000000004,0.5367528,0.0,0.0,0.0,0.0
9.84,636.1980672,3.7411152,4.0663368,0.7668768,0.0,0.0,0.0,0.0
9.86,637.6696416,3.6868608000000003,3.6868608000000003,0.3834384,0.0,0.0,0.0,0.0
9.879999999999999,639.1268904000001,3.5240976,3.4158936000000004,0.6135624,0.0,0.0,0.0,0.0
9.899999999999999,640.625592,3.5240976,3.7411152,0.30662880000000003,0.0,0.0,0.0,0.0
9.92,642.0584568,3.6868608000000003,4.120591200000001,0.9201912000000001,0.0,0.0,0.0,0.0
9.94,643.4617559999999,3.5240976,4.1748456,0.8433816000000001,0.0,0.0,0.0,0.0
9.96,645.1357176,3.5240976,4.1748456,0.8433816000000001,0.0,0.0,0.0,0.0
9.98,646.6115591999999,3.578352,4.3376088,1.0735056,0.0,0.0,0.0,0.0
10.0,648.1639056,3.3616392,3.7953696000000003,0.8433816000000001,0.0,0.0,0.0,0.0
10.02,649.6815048,3.578352,4.445812800000001,1.0735056,0.0,0.0,0.0,0.0
10.04,651.2960304,3.4158936000000004,3.7411152,0.5367528,0.0,0.0,0.0,0.0
10.059999999999999,652.8544727999999,3.3616392,4.3376088,0.9201912000000001,0.0,0.0,0.0,0.0
10.08,654.39036,3.0903671999999998,3.8496240000000004,0.996696,0.0,0.0,0.0,0.0
10.1,655.8451704,3.4158936000000004,3.8496240000000004,0.6900672,0.0,0.0,0.0,0.0
10.12,657.4264727999999,3.2531304000000003,3.7953696000000003,0.5367528,0.0,0.0,0.0,0.0
10.14,658.945596,3.0361128,3.6868608000000003,1.1500104,0.0,0.0,0.0,0.0
10.16,660.338532,3.0903671999999998,3.5240976,0.3834384,0.0,0.0,0.0,0.0
10.18,661.7592047999999,2.9818584,3.8496240000000004,0.5367528,0.0,0.0,0.0,0.0
10.2,663.068016,2.7651456,3.7411152,0.6900672,0.0,0.0,0.0,0.0
10.219999999999999,664.2960552,2.7651456,3.5240976,0.0768096,0.0,0.0,0.0,0.0
10.239999999999998,665.5082448,2.8194000000000004,3.6868608000000003,0.3834384,0.0,0.0,0.0,0.0
10.26,666.8838072,2.9818584,3.5240976,0.3834384,0.0,0.0,0.0,0.0
10.28,668.2996032,2.9818584,3.7411152,0.4599432,0.0,0.0,0.0,0.0
10.3,669.8367096000001,2.8194000000000004,3.7953696000000003,0.8433816000000001,0.0,0.0,0.0,0.0
10.32,671.2954824000001,2.7108912000000003,3.578352,0.8433816000000001,0.0,0.0,0.0,0.0
10.34,672.7188984,2.7651456,3.4158936000000004,0.6900672,0.0,0.0,0.0,0.0
10.36,674.1282936,2.6023824,3.4698432,0.5367528,0.0,0.0,0.0,0.0
10.379999999999999,675.5879808,2.7651456,3.5240976,0.6135624,0.0,0.0,0.0,0.0
10.399999999999999,676.9437312,2.4399240000000004,3.6326064,1.0735056,0.0,0.0,0.0,0.0
10.42,678.2949096,2.7108912000000003,3.4698432,0.6135624,0.0,0.0,0.0,0.0
10.44,679.7433192,2.6023824,3.4698432,0.6900672,0.0,0.0,0.0,0.0
10.46,681.2124551999999,2.3856696,3.3616392,0.15331440000000002,0.0,0.0,0.0,0.0
10.48,682.5502223999999,2.6023824,3.578352,0.6900672,0.0,0.0,0.0,0.0
10.5,683.8904279999999,2.7108912000000003,3.2531304000000003,0.4599432,0.0,0.0,0.0,0.0
10.52,685.2583704,2.3314152,3.198876,0.3834384,0.0,0.0,0.0,0.0
10.54,686.6598408,2.548128,3.3073848000000003,0.7668768,0.0,0.0,0.0,0.0
10.559999999999999,688.114956,2.548128,3.4158936000000004,0.6900672,0.0,0.0,0.0,0.0
10.58,689.5426392,2.548128,3.198876,0.6135624,0.0,0.0,0.0,0.0
10.6,690.7987199999999,2.2771608000000003,3.3616392,0.6135624,0.0,0.0,0.0,0.0
10.62,692.097168,2.3314152,3.0903671999999998,0.3834384,0.0,0.0,0.0,0.0
10.64,693.4529183999999,2.4941784,3.1446216000000002,0.30662880000000003,0.0,0.0,0.0,0.0
10.66,694.7733119999999,2.3314152,3.3073848000000003,0.4599432,0.0,0.0,0.0,0.0
10.68,696.1519224,2.2229064000000003,2.9818584,0.3834384,0.0,0.0,0.0,0.0
10.7,697.4808504,2.4941784,2.9279088,0.30662880000000003,0.0,0.0,0.0,0.0
10.719999999999999,698.8311143999999,2.3856696,2.8194000000000004,0.30662880000000003,0.0,0.0,0.0,0.0
10.739999999999998,700.1606519999999,2.2229064000000003,2.9818584,0.30662880000000003,0.0,0.0,0.0,0.0
10.76,701.5380432000001,2.2229064000000003,3.0903671999999998,0.30662880000000003,0.0,0.0,0.0,0.0
10.78,702.8441112,1.789176,3.3073848000000003,0.4599432,0.0,0.0,0.0,0.0
10.8,704.11086,2.3314152,2.9818584,0.4599432,0.0,0.0,0.0,0.0
10.82,705.2998848,2.1686520000000002,3.1446216000000002,0.5367528,0.0,0.0,0.0,0.0
10.84,706.569072,2.0601432,3.2531304000000003,0.5367528,0.0,0.0,0.0,0.0
10.86,707.7840047999999,2.2229064000000003,2.7651456,0.30662880000000003,0.0,0.0,0.0,0.0
10.879999999999999,709.0815384,2.0601432,3.2531304000000003,0.7668768,0.0,0.0,0.0,0.0
10.899999999999999,710.2888512,2.1686520000000002,3.1446216000000002,0.4599432,0.0,0.0,0.0,0.0
10.92,711.5284727999999,1.9519392,2.9279088,0.3834384,0.0,0.0,0.0,0.0
10.94,712.8366744,1.9519392,2.9279088,0.30662880000000003,0.0,0.0,0.0,0.0
10.96,714.1287216000001,2.0061936,2.7651456,0.5367528,0.0,0.0,0.0,0.0
10.98,715.4945303999999,1.9519392,2.8194000000000004,0.4599432,0.0,0.0,0.0,0.0
11.0,716.787492,2.0601432,2.7108912000000003,0.30662880000000003,0.0,0.0,0.0,0.0
11.02,718.050888,1.8434304000000001,2.7108912000000003,0.3834384,0.0,0.0,0.0,0.0
11.04,719.3441544,1.8434304000000001,2.9279088,0.3834384,0.0,0.0,0.0,0.0
11.059999999999999,720.6005399999999,1.789176,2.8736544000000004,0.30662880000000003,0.0,0.0,0.0,0.0
11.08,721.8761279999999,1.5724632,2.9818584,0.4599432,0.0,0.0,0.0,0.0
11.1,723.0166896,1.789176,2.7651456,0.30662880000000003,0.0,0.0,0.0,0.0
11.12,724.3273296000001,1.6806672000000002,3.0903671999999998,0.23012400000000002,0.0,0.0,0.0,0.0
11.14,725.5520159999999,1.8434304000000001,2.9279088,0.3834384,0.0,0.0,0.0,0.0
11.16,726.7885896,1.789176,2.8736544000000004,0.4599432,0.0,0.0,0.0,0.0
11.18,727.973652,1.7349216,2.7108912000000003,0.15331440000000002,0.0,0.0,0.0,0.0
11.2,729.1270152,1.6264128000000002,2.7108912000000003,0.23012400000000002,0.0,0.0,0.0,0.0
11.219999999999999,730.2303912,1.7349216,2.8194000000000004,0.3834384,0.0,0.0,0.0,0.0
11.239999999999998,731.3404727999999,1.4639544,2.6566368,0.30662880000000003,0.0,0.0,0.0,0.0
11.26,732.474024,1.7349216,2.6023824,0.15331440000000002,0.0,0.0,0.0,0.0
11.28,733.5402144,1.6806672000000002,2.548128,0.15331440000000002,0.0,0.0,0.0,0.0
11.3,734.6996736,1.4639544,2.6566368,0.3834384,0.0,0.0,0.0,0.0
11.32,735.76434,1.5182088,2.6023824,0.3834384,0.0,0.0,0.0,0.0
11.34,736.8738119999999,1.6264128000000002,2.6023824,0.30662880000000003,0.0,0.0,0.0,0.0
11.36,738.0387575999999,1.7349216,2.6023824,0.23012400000000002,0.0,0.0,0.0,0.0
11.379999999999999,739.2128472,1.5182088,2.6023824,0.30662880000000003,0.0,0.0,0.0,0.0
11.399999999999999,740.2701983999999,1.4639544,2.548128,0.15331440000000002,0.0,0.0,0.0,0.0
11.42,741.3409608000001,1.4639544,2.6566368,0.23012400000000002,0.0,0.0,0.0,0.0
11.44,742.4037983999999,1.4097000000000002,2.7108912000000003,0.15331440000000002,0.0,0.0,0.0,0.0
11.46,743.4422519999999,1.5182088,2.6023824,0.30662880000000003,0.0,0.0,0.0,0.0
11.48,744.5395319999999,1.2469368,2.548128,0.15331440000000002,0.0,0.0,0.0,0.0
11.5,745.6243152,1.3554456000000001,2.548128,0.30662880000000003,0.0,0.0,0.0,0.0
11.52,746.6725223999999,1.4097000000000002,2.6023824,0.4599432,0.0,0.0,0.0,0.0
11.54,747.7313976,1.4639544,2.6566368,0.3834384,0.0,0.0,0.0,0.0
11.559999999999999,748.747296,1.3011912,2.7108912000000003,0.15331440000000002,0.0,0.0,0.0,0.0
11.58,749.8558535999999,1.3554456000000001,2.548128,0.30662880000000003,0.0,0.0,0.0,0.0
11.6,750.9028415999999,1.3011912,2.3856696,0.30662880000000003,0.0,0.0,0.0,0.0
11.62,751.9620216000001,1.0844784,2.6023824,0.23012400000000002,0.0,0.0,0.0,0.0
11.64,753.0934392,1.2469368,2.548128,0.15331440000000002,0.0,0.0,0.0,0.0
11.66,754.1379887999999,1.1926824,2.4941784,0.23012400000000002,0.0,0.0,0.0,0.0
11.68,755.1121296,1.1387328,2.548128,0.3834384,0.0,0.0,0.0,0.0
11.7,756.0603624,1.0844784,2.4941784,0.23012400000000002,0.0,0.0,0.0,0.0
11.719999999999999,757.0262736,1.2469368,2.4399240000000004,0.23012400000000002,0.0,0.0,0.0,0.0
11.739999999999998,757.9425024,1.3011912,2.3856696,0.23012400000000002,0.0,0.0,0.0,0.0
11.76,758.8099632,1.1387328,2.3314152,0.15331440000000002,0.0,0.0,0.0,0.0
11.78,759.7112568,1.030224,2.548128,0.30662880000000003,0.0,0.0,0.0,0.0
11.8,760.6201704,1.2469368,2.4399240000000004,0.23012400000000002,0.0,0.0,0.0,0.0
11.82,761.5982736,0.9759696,2.6023824,0.15331440000000002,0.0,0.0,0.0,0.0
11.84,762.5605272,0.9759696,2.3856696,0.15331440000000002,0.0,0.0,0.0,0.0
11.86,763.5587472000001,1.0844784,2.3856696,0.23012400000000002,0.0,0.0,0.0,0.0
11.879999999999999,764.5667208,1.030224,2.3314152,0.15331440000000002,0.0,0.0,0.0,0.0
11.899999999999999,765.6277296000001,1.030224,2.3314152,0.23012400000000002,0.0,0.0,0.0,0.0
11.92,766.698492,0.9217152000000001,2.4399240000000004,0.23012400000000002,0.0,0.0,0.0,0.0
11.94,767.7061608,1.0844784,2.4941784,0.23012400000000002,0.0,0.0,0.0,0.0
11.96,768.7440048,0.9759696,2.2771608000000003,0.15331440000000002,0.0,0.0,0.0,0.0
11.98,769.7336904,0.9759696,2.2771608000000003,0.0768096,0.0,0.0,0.0,0.0
12.0,770.692896,0.9217152000000001,2.2229064000000003,0.15331440000000002,0.0,0.0,0.0,0.0
12.02,771.6639888,0.8132064000000001,2.4399240000000004,0.23012400000000002,0.0,0.0,0.0,0.0
12.04,772.6430064,0.9217152000000001,2.3314152,0.15331440000000002,0.0,0.0,0.0,0.0
12.059999999999999,773.5577112,0.9217152000000001,2.2229064000000003,0.23012400000000002,0.0,0.0,0.0,0.0
12.08,774.5647704,0.7589520000000001,2.2771608000000003,0.15331440000000002,0.0,0.0,0.0,0.0
12.1,775.4691119999999,0.8674608,2.2771608000000003,0.0768096,0.0,0.0,0.0,0.0
12.12,776.2820136,0.8132064000000001,2.2229064000000003,0.15331440000000002,0.0,0.0,0.0,0.0
12.139999999999999,777.2189688000001,0.9217152000000001,2.2229064000000003,0.15331440000000002,0.0,0.0,0.0,0.0
12.16,778.1461704000001,0.7589520000000001,2.1686520000000002,0.15331440000000002,0.0,0.0,0.0,0.0
12.18,779.0450256,0.8132064000000001,2.2229064000000003,0.23012400000000002,0.0,0.0,0.0,0.0
12.2,779.8975512,0.8132064000000001,2.0061936,0.0768096,0.0,0.0,0.0,0.0
12.219999999999999,780.7552584,0.7589520000000001,2.0601432,0.23012400000000002,0.0,0.0,0.0,0.0
12.24,781.609308,0.7589520000000001,2.1686520000000002,0.15331440000000002,0.0,0.0,0.0,0.0
12.26,782.351496,0.7046976,2.1143976,0.0768096,0.0,0.0,0.0,0.0
12.28,783.1695791999999,0.8674608,2.1686520000000002,0.23012400000000002,0.0,0.0,0.0,0.0
12.299999999999999,783.8974416,0.7046976,2.1143976,0.0768096,0.0,0.0,0.0,0.0
12.32,784.7813616,0.650748,2.0601432,0.0768096,0.0,0.0,0.0,0.0
12.34,785.6902752,0.5964936000000001,2.2229064000000003,0.15331440000000002,0.0,0.0,0.0,0.0
12.36,786.4986048,0.7046976,2.1143976,0.15331440000000002,0.0,0.0,0.0,0.0
12.379999999999999,787.1560584,0.650748,2.1686520000000002,0.23012400000000002,0.0,0.0,0.0,0.0
12.4,787.9747511999999,0.650748,1.9519392,0.0768096,0.0,0.0,0.0,0.0
12.42,788.8163040000001,0.4879848,2.1143976,0.0768096,0.0,0.0,0.0,0.0
12.44,789.4966176,0.650748,2.0601432,0.15331440000000002,0.0,0.0,0.0,0.0
12.459999999999999,790.2388056,0.5964936000000001,2.0061936,0.15331440000000002,0.0,0.0,0.0,0.0
12.48,791.0971224,0.5422392,2.0601432,0.0768096,0.0,0.0,0.0,0.0
12.5,791.9676312,0.4337304,2.0601432,0.0768096,0.0,0.0,0.0,0.0
12.52,792.7476144,0.4879848,2.1143976,0.15331440000000002,0.0,0.0,0.0,0.0
12.54,793.4779152,0.4337304,2.0601432,0.0768096,0.0,0.0,0.0,0.0
12.56,794.3231256,0.5422392,2.0601432,0.0768096,0.0,0.0,0.0,0.0
12.58,795.0991464,0.4337304,2.0601432,0.0768096,0.0,0.0,0.0,0.0
12.6,795.86328,0.37947600000000004,2.0061936,0.0768096,0.0,0.0,0.0,0.0
12.62,796.7310455999999,0.4337304,2.0601432,0.15331440000000002,0.0,0.0,0.0,0.0
12.639999999999999,797.609784,0.5422392,1.9519392,0.15331440000000002,0.0,0.0,0.0,0.0
12.66,798.4254288,0.4337304,2.0601432,0.15331440000000002,0.0,0.0,0.0,0.0
12.68,799.2855744000001,0.4879848,2.0061936,0.15331440000000002,0.0,0.0,0.0,0.0
12.7,800.0832359999999,0.3252216,1.9519392,0.0768096,0.0,0.0,0.0,0.0
12.719999999999999,800.8397495999999,0.37947600000000004,1.8976848000000002,0.15331440000000002,0.0,0.0,0.0,0.0
12.74,801.6849599999999,0.4337304,1.9519392,0.0768096,0.0,0.0,0.0,0.0
12.76,802.4692104,0.4879848,1.8976848000000002,0.0768096,0.0,0.0,0.0,0.0
12.78,803.3766,0.3252216,1.8434304000000001,0.0768096,0.0,0.0,0.0,0.0
12.799999999999999,804.1035479999999,0.4879848,1.789176,0.15331440000000002,0.0,0.0,0.0,0.0
12.82,804.972228,0.2709672,1.8976848000000002,0.0768096,0.0,0.0,0.0,0.0
12.84,805.7186832,0.2709672,2.0061936,0.0768096,0.0,0.0,0.0,0.0
12.86,806.3660784,0.37947600000000004,1.8976848000000002,0.0768096,0.0,0.0,0.0,0.0
12.879999999999999,807.0869304,0.2709672,1.8976848000000002,0.0768096,0.0,0.0,0.0,0.0
12.9,807.8766671999999,0.3252216,1.8434304000000001,0.0768096,0.0,0.0,0.0,0.0
12.92,808.6660992,0.1085088,1.9519392,0.0768096,0.0,0.0,0.0,0.0
12.94,809.4774768,0.16276320000000002,1.8976848000000002,0.0768096,0.0,0.0,0.0,0.0
12.959999999999999,810.239172,0.3252216,1.8434304000000001,0.0768096,0.0,0.0,0.0,0.0
12.98,810.9530136000001,0.2709672,1.789176,0.15331440000000002,0.0,0.0,0.0,0.0
13.0,811.6647216,0.16276320000000002,1.6806672000000002,0.0768096,0.0,0.0,0.0,0.0
13.02,812.3660664,0.2170176,1.7349216,0.0768096,0.0,0.0,0.0,0.0
13.04,813.0695448,0.16276320000000002,1.789176,0.0768096,0.0,0.0,0.0,0.0
13.06,813.7879584,0.3252216,1.7349216,0.0768096,0.0,0.0,0.0,0.0
13.08,814.4097504,0.16276320000000002,1.789176,0.0768096,0.0,0.0,0.0,0.0
13.1,815.1848568,0.1085088,1.7349216,0.0768096,0.0,0.0,0.0,0.0
13.12,815.908452,0.2170176,1.8434304000000001,0.0768096,0.0,0.0,0.0,0.0
13.139999999999999,816.647592,0.1085088,1.7349216,0.0768096,0.0,0.0,0.0,0.0
13.16,817.3346112,0.1085088,1.7349216,0.0768096,0.0,0.0,0.0,0.0
13.18,817.9588415999999,0.0,1.7349216,0.0768096,0.0,0.0,0.0,0.0
13.2,818.7123071999999,0.2170176,1.8434304000000001,0.15331440000000002,0.0,0.0,0.0,0.0
13.219999999999999,819.4160904,-0.0542544,1.6806672000000002,0.15331440000000002,0.0,0.0,0.0,0.0
13.24,820.128408,0.0,1.8434304000000001,0.0768096,0.0,0.0,0.0,0.0
13.26,820.8358488,0.0,1.7349216,0.15331440000000002,0.0,0.0,0.0,0.0
13.28,821.5643208,0.0542544,1.6806672000000002,0.0768096,0.0,0.0,0.0,0.0
13.299999999999999,822.2489016000001,0.0,1.8434304000000001,0.0768096,0.0,0.0,0.0,0.0
13.32,822.8231448,0.0542544,1.6806672000000002,0.0768096,0.0,0.0,0.0,0.0
13.34,823.5113832,0.0542544,1.6806672000000002,0.0768096,0.0,0.0,0.0,0.0
13.36,824.1758472,0.1085088,1.6264128000000002,0.0768096,0.0,0.0,0.0,0.0
13.379999999999999,824.8473216000001,-0.0542544,1.6806672000000002,0.0768096,0.0,0.0,0.0,0.0
13.4,825.3865128,0.0542544,1.6806672000000002,0.0768096,0.0,0.0,0.0,0.0
13.42,826.0354319999999,-0.0542544,1.6806672000000002,0.0768096,0.0,0.0,0.0,0.0
13.44,826.6916664,-0.0542544,1.6806672000000002,0.0768096,0.0,0.0,0.0,0.0
13.459999999999999,827.2762727999999,0.0,1.6264128000000002,0.0768096,0.0,0.0,0.0,0.0
13.48,828.0035256000001,-0.0542544,1.5724632,0.0768096,0.0,0.0,0.0,0.0
13.5,828.6832296,-0.0542544,1.5724632,0.0768096,0.0,0.0,0.0,0.0
13.52,829.3425119999999,-0.16276320000000002,1.5724632,0.0768096,0.0,0.0,0.0,0.0
13.54,829.898772,0.0,1.5182088,0.0768096,0.0,0.0,0.0,0.0
13.56,830.5562256000001,-0.1085088,1.5182088,0.0768096,0.0,0.0,0.0,0.0
13.58,831.0640224,-0.1085088,1.6264128000000002,0.0768096,0.0,0.0,0.0,0.0
13.6,831.69252,-0.16276320000000002,1.5724632,0.0768096,0.0,0.0,0.0,0.0
13.62,832.1914776,-0.0542544,1.5724632,0.0768096,0.0,0.0,0.0,0.0
13.639999999999999,832.8129648,-0.16276320000000002,1.5724632,0.0768096,0.0,0.0,0.0,0.0
13.66,833.3820264,-0.16276320000000002,1.5724632,0.0768096,0.0,0.0,0.0,0.0
13.68,834.0413088,-0.2170176,1.5182088,0.0768096,0.0,0.0,0.0,0.0
13.7,834.67956,-0.2709672,1.4639544,0.0768096,0.0,0.0,0.0,0.0
13.719999999999999,835.2733103999999,-0.2709672,1.4639544,0.0768096,0.0,0.0,0.0,0.0
13.74,835.8576119999999,-0.16276320000000002,1.4639544,0.0768096,0.0,0.0,0.0,0.0
13.76,836.3809536,-0.37947600000000004,1.4639544,0.0768096,0.0,0.0,0.0,0.0
13.78,836.8805208,-0.2170176,1.5182088,0.0768096,0.0,0.0,0.0,0.0
13.799999999999999,837.4730519999999,-0.16276320000000002,1.4639544,0.0768096,0.0,0.0,0.0,0.0
13.82,837.9680472,-0.2170176,1.5182088,0.0768096,0.0,0.0,0.0,0.0
13.84,838.518516,-0.16276320000000002,1.4639544,0.0768096,0.0,0.0,0.0,0.0
13.86,839.120496,-0.16276320000000002,1.4639544,0.0768096,0.0,0.0,0.0,0.0
13.879999999999999,839.7450312000001,-0.2709672,1.4639544,0.0768096,0.0,0.0,0.0,0.0
13.9,840.3363432000001,-0.2709672,1.3554456000000001,0.0768096,0.0,0.0,0.0,0.0
13.92,840.8612088,-0.2709672,1.5724632,0.0768096,0.0,0.0,0.0,0.0
13.94,841.4031432,-0.37947600000000004,1.3554456000000001,0.0768096,0.0,0.0,0.0,0.0
13.959999999999999,841.9176455999999,-0.3252216,1.4097000000000002,0.0768096,0.0,0.0,0.0,0.0
13.98,842.5351704000001,-0.37947600000000004,1.4639544,0.0768096,0.0,0.0,0.0,0.0
14.0,843.0944784000001,-0.3252216,1.3011912,0.0768096,0.0,0.0,0.0,0.0
14.02,843.6403752,-0.3252216,1.4097000000000002,0.0768096,0.0,0.0,0.0,0.0
14.04,844.1771279999999,-0.3252216,1.4097000000000002,0.0768096,0.0,0.0,0.0,0.0
14.06,844.7190624,-0.37947600000000004,1.3554456000000001,0.0768096,0.0,0.0,0.0,0.0
14.08,845.3356727999999,-0.3252216,1.6264128000000002,0.0768096,0.0,0.0,0.0,0.0
14.1,845.81238,-0.2709672,1.3554456000000001,0.0768096,0.0,0.0,0.0,0.0
14.12,846.4222847999999,-0.4337304,1.4097000000000002,0.0768096,0.0,0.0,0.0,0.0
14.139999999999999,846.9599519999999,-0.37947600000000004,1.4639544,0.0768096,0.0,0.0,0.0,0.0
14.16,847.4540328,-0.4337304,1.4097000000000002,0.0768096,0.0,0.0,0.0,0.0
14.18,847.8935544,-0.37947600000000004,1.4639544,0.0768096,0.0,0.0,0.0,0.0
14.2,848.3519736,-0.4337304,1.4097000000000002,0.0768096,0.0,0.0,0.0,0.0
14.219999999999999,848.8436159999999,-0.4337304,1.4097000000000002,0.0768096,0.0,0.0,0.0,0.0
14.24,849.297768,-0.2709672,1.2469368,0.0768096,0.0,0.0,0.0,0.0
14.26,849.8436648,-0.4337304,1.3011912,0.0768096,0.0,0.0,0.0,0.0
14.28,850.2484392,-0.4337304,1.4097000000000002,0.0768096,0.0,0.0,0.0,0.0
14.299999999999999,850.779096,-0.4337304,1.4097000000000002,0.0768096,0.0,0.0,0.0,0.0
14.32,851.2631183999999,-0.4879848,1.3554456000000001,0.0768096,0.0,0.0,0.0,0.0
14.34,851.7248904,-0.4879848,1.3554456000000001,0.0768096,0.0,0.0,0.0,0.0
14.36,852.231468,-0.4879848,1.3554456000000001,0.0768096,0.0,0.0,0.0,0.0
14.379999999999999,852.7386551999999,-0.5422392,1.4097000000000002,0.0768096,0.0,0.0,0.0,0.0
14.4,853.1848824,-0.4337304,1.3011912,0.0768096,0.0,0.0,0.0,0.0
14.42,853.6567127999999,-0.4337304,1.1926824,0.0768096,0.0,0.0,0.0,0.0
14.44,854.0913575999999,-0.5422392,1.4097000000000002,0.0768096,0.0,0.0,0.0,0.0
14.459999999999999,854.387928,-0.5964936000000001,1.2469368,0.0768096,0.0,0.0,0.0,0.0
14.48,854.8201344,-0.4879848,1.3554456000000001,0.0768096,0.0,0.0,0.0,0.0
14.5,855.1929048,-0.5422392,1.4097000000000002,0.0768096,0.0,0.0,0.0,0.0
14.52,855.645228,-0.650748,1.3011912,0.0768096,0.0,0.0,0.0,0.0
14.54,856.2478176000001,-0.5422392,1.3011912,0.0768096,0.0,0.0,0.0,0.0
14.56,856.7205624000001,-0.5964936000000001,1.3554456000000001,0.0768096,0.0,0.0,0.0,0.0
