time,baro_altitude,accl_x,accl_y,accl_z,gps_altitude,gyro_roll,gyro_pitch,gyro_yaw
0.0,0.0,2.3856696,-7.4822304,-3.9870888,0.0,0.0,0.0,0.0
0.020000000000000018,0.0880872,2.1143976,-7.5364848,-4.4473368,0.0,0.0,0.0,0.0
0.040000000000000036,0.20116799999999999,2.3856696,-7.5904344,-4.1404032,0.0,0.0,0.0,0.0
0.06000000000000005,0.3310128,2.1143976,-7.427976000000001,-4.1404032,0.0,0.0,0.0,0.0
0.07999999999999963,0.4395216,2.3856696,-7.5904344,-4.1404032,0.0,0.0,0.0,0.0
0.09999999999999964,0.46512479999999995,2.3314152,-7.5364848,-4.2937176,0.0,0.0,0.0,0.0
0.11999999999999966,0.2953512,2.1686520000000002,-7.4822304,-4.2172128,0.0,0.0,0.0,0.0
0.13999999999999968,0.1024128,2.1686520000000002,-7.5904344,-4.2937176,0.0,0.0,0.0,0.0
0.1599999999999997,0.15453359999999997,2.0061936,-7.5364848,-4.523841600000001,0.0,0.0,0.0,0.0
0.17999999999999972,-0.04876800000000001,2.1143976,-7.5364848,-4.370527200000001,0.0,0.0,0.0,0.0
0.19999999999999973,-0.11247120000000004,2.2229064000000003,-7.427976000000001,-4.2172128,0.0,0.0,0.0,0.0
0.21999999999999975,-0.17647920000000003,2.2229064000000003,-7.5364848,-4.370527200000001,0.0,0.0,0.0,0.0
0.23999999999999977,-0.22128480000000003,2.2771608000000003,-7.4822304,-4.4473368,0.0,0.0,0.0,0.0
0.2599999999999998,-0.05760720000000002,2.3314152,-7.427976000000001,-4.370527200000001,0.0,0.0,0.0,0.0
0.2799999999999998,0.04389119999999997,2.3314152,-7.5364848,-4.2172128,0.0,0.0,0.0,0.0
0.2999999999999998,0.2386584,2.1686520000000002,-7.4822304,-4.2172128,0.0,0.0,0.0,0.0
0.31999999999999984,0.3105912,2.4941784,-7.4822304,-4.0638984,0.0,0.0,0.0,0.0
0.33999999999999986,0.2496312,2.548128,-7.427976000000001,-4.0638984,0.0,0.0,0.0,0.0
0.3599999999999999,0.06705599999999999,2.3314152,-7.427976000000001,-4.1404032,0.0,0.0,0.0,0.0
0.3799999999999999,-0.04572000000000001,2.3314152,-7.5364848,-4.1404032,0.0,0.0,0.0,0.0
0.3999999999999999,-0.11704320000000001,2.2229064000000003,-7.5364848,-4.2172128,0.0,0.0,0.0,0.0
0.41999999999999993,-0.10576560000000003,2.2229064000000003,-7.5364848,-4.1404032,0.0,0.0,0.0,0.0
0.43999999999999995,-0.04480560000000001,2.2771608000000003,-7.4822304,-4.2172128,0.0,0.0,0.0,0.0
0.45999999999999996,-0.073152,2.2229064000000003,-7.5364848,-4.2172128,0.0,0.0,0.0,0.0
0.48,-0.0768096,2.2771608000000003,-7.5904344,-4.2172128,0.0,0.0,0.0,0.0
0.5,-0.043891200000000005,2.2229064000000003,-7.5364848,-4.2937176,0.0,0.0,0.0,0.0
0.52,-0.03261360000000003,2.1143976,-7.5364848,-4.2172128,0.0,0.0,0.0,0.0
0.54,-0.08717280000000001,2.2229064000000003,-7.427976000000001,-4.370527200000001,0.0,0.0,0.0,0.0
0.56,-0.20909280000000002,2.1686520000000002,-7.4822304,-4.370527200000001,0.0,0.0,0.0,0.0
0.5799999999999996,-0.10759440000000003,2.3314152,-7.427976000000001,-4.2937176,0.0,0.0,0.0,0.0
0.5999999999999996,0.13685519999999998,2.2229064000000003,-7.5364848,-4.4473368,0.0,0.0,0.0,0.0
0.6199999999999997,0.086868,2.3314152,-7.5364848,-4.2937176,0.0,0.0,0.0,0.0
0.6399999999999997,-0.18196560000000003,2.1143976,-7.427976000000001,-4.2937176,0.0,0.0,0.0,0.0
0.6599999999999997,-0.19903440000000006,2.3314152,-7.5364848,-4.2937176,0.0,0.0,0.0,0.0
0.6799999999999997,0.0006096000000000006,2.2771608000000003,-7.4822304,-4.2172128,0.0,0.0,0.0,0.0
0.6999999999999997,0.029260799999999993,2.4399240000000004,-7.427976000000001,-4.0638984,0.0,0.0,0.0,0.0
0.7199999999999998,-0.062179200000000025,2.2771608000000003,-7.4822304,-4.1404032,0.0,0.0,0.0,0.0
0.7399999999999998,0.04236720000000001,2.1686520000000002,-7.4822304,-4.0638984,0.0,0.0,0.0,0.0
0.7599999999999998,0.05974079999999999,2.2771608000000003,-7.5904344,-4.1404032,0.0,0.0,0.0,0.0
0.7799999999999998,0.0384048,2.3314152,-7.427976000000001,-4.1404032,0.0,0.0,0.0,0.0
0.7999999999999998,0.11612879999999999,2.1143976,-7.5364848,-4.2172128,0.0,0.0,0.0,0.0
0.8199999999999998,0.2715768,2.3314152,-7.5364848,-4.2172128,0.0,0.0,0.0,0.0
0.8399999999999999,0.3739896,2.2771608000000003,-7.5904344,-4.2172128,0.0,0.0,0.0,0.0
0.8599999999999999,0.4620768,2.3314152,-7.5364848,-4.1404032,0.0,0.0,0.0,0.0
0.8799999999999999,0.4904232,2.2771608000000003,-7.4822304,-4.2172128,0.0,0.0,0.0,0.0
0.8999999999999999,0.598932,2.1143976,-7.427976000000001,-4.4473368,0.0,0.0,0.0,0.0
0.9199999999999999,0.5132832,2.1143976,-7.427976000000001,-4.370527200000001,0.0,0.0,0.0,0.0
0.94,0.32308800000000004,2.1143976,-7.427976000000001,-4.370527200000001,0.0,0.0,0.0,0.0
0.96,0.2161032,2.3314152,-7.427976000000001,-4.1404032,0.0,0.0,0.0,0.0
0.98,-0.015544800000000015,2.2771608000000003,-7.4822304,-4.4473368,0.0,0.0,0.0,0.0
1.0,0.014020799999999979,2.3856696,-7.4822304,-4.1404032,0.0,0.0,0.0,0.0
1.02,0.15575279999999997,2.2229064000000003,-7.427976000000001,-4.370527200000001,0.0,0.0,0.0,0.0
1.04,0.1591056,2.2229064000000003,-7.427976000000001,-4.370527200000001,0.0,0.0,0.0,0.0
1.06,0.0835152,2.3314152,-7.427976000000001,-4.2937176,0.0,0.0,0.0,0.0
1.0799999999999996,0.041452800000000005,2.3856696,-7.4822304,-4.1404032,0.0,0.0,0.0,0.0
1.0999999999999996,0.2221992,2.4399240000000004,-7.5364848,-4.0638984,0.0,0.0,0.0,0.0
1.1199999999999997,0.36728400000000005,2.3856696,-7.4822304,-4.0638984,0.0,0.0,0.0,0.0
1.1399999999999997,0.38435280000000005,2.2771608000000003,-7.5904344,-4.2172128,0.0,0.0,0.0,0.0
1.1599999999999997,0.2487168,2.1686520000000002,-7.4822304,-4.370527200000001,0.0,0.0,0.0,0.0
1.1799999999999997,0.2688336,2.2229064000000003,-7.427976000000001,-4.2172128,0.0,0.0,0.0,0.0
1.1999999999999997,0.23621999999999999,2.3314152,-7.427976000000001,-4.1404032,0.0,0.0,0.0,0.0
1.2199999999999998,0.1941576,2.4941784,-7.3737216000000005,-4.1404032,0.0,0.0,0.0,0.0
1.2399999999999998,0.2414016,2.3314152,-7.5364848,-4.1404032,0.0,0.0,0.0,0.0
1.2599999999999998,0.23134320000000003,2.2229064000000003,-7.427976000000001,-4.2172128,0.0,0.0,0.0,0.0
1.2799999999999998,0.2243328,2.0601432,-7.4822304,-4.6006512,0.0,0.0,0.0,0.0
1.2999999999999998,0.2828544,2.1143976,-7.427976000000001,-4.2937176,0.0,0.0,0.0,0.0
1.3199999999999998,0.44165519999999997,2.1686520000000002,-7.4822304,-4.370527200000001,0.0,0.0,0.0,0.0
1.3399999999999999,0.35448240000000003,2.4399240000000004,-7.5364848,-4.0638984,0.0,0.0,0.0,0.0
1.3599999999999999,0.34625279999999997,2.1686520000000002,-7.4822304,-4.4473368,0.0,0.0,0.0,0.0
1.38,0.41849040000000004,2.2771608000000003,-7.4822304,-4.1404032,0.0,0.0,0.0,0.0
1.4,0.4898136,1.9519392,-7.4822304,-4.6006512,0.0,0.0,0.0,0.0
1.42,0.3965448,2.0601432,-7.3737216000000005,-4.370527200000001,0.0,0.0,0.0,0.0
1.44,0.4002024,2.2229064000000003,-7.5364848,-4.2937176,0.0,0.0,0.0,0.0
1.46,0.44988480000000003,2.4399240000000004,-7.427976000000001,-4.0638984,0.0,0.0,0.0,0.0
1.48,0.3410712,2.3314152,-7.5364848,-4.1404032,0.0,0.0,0.0,0.0
1.5,0.41513760000000005,2.2229064000000003,-7.5364848,-4.2172128,0.0,0.0,0.0,0.0
1.52,0.2145792,2.2771608000000003,-7.4822304,-4.2172128,0.0,0.0,0.0,0.0
1.54,0.13716,2.1143976,-7.427976000000001,-4.4473368,0.0,0.0,0.0,0.0
1.56,0.176784,2.3314152,-7.5364848,-4.2172128,0.0,0.0,0.0,0.0
1.5799999999999996,0.2615184,2.3856696,-7.4822304,-4.1404032,0.0,0.0,0.0,0.0
1.5999999999999996,0.4117848,2.4941784,-7.4822304,-3.9870888,0.0,0.0,0.0,0.0
1.6199999999999997,0.3849624,2.2771608000000003,-7.5904344,-4.2172128,0.0,0.0,0.0,0.0
1.6399999999999997,0.47518320000000003,2.2771608000000003,-7.4822304,-4.370527200000001,0.0,0.0,0.0,0.0
1.6599999999999997,0.5931408000000001,2.1686520000000002,-7.4822304,-4.4473368,0.0,0.0,0.0,0.0
1.6799999999999997,0.4242816,2.1686520000000002,-7.4822304,-4.4473368,0.0,0.0,0.0,0.0
1.6999999999999997,0.4163568,2.3314152,-7.427976000000001,-4.2172128,0.0,0.0,0.0,0.0
1.7199999999999998,0.521208,2.3314152,-7.5364848,-4.2172128,0.0,0.0,0.0,0.0
1.7399999999999998,0.24749759999999998,2.2229064000000003,-7.5364848,-4.2172128,0.0,0.0,0.0,0.0
1.7599999999999998,0.49865280000000006,2.2229064000000003,-7.5364848,-4.2937176,0.0,0.0,0.0,0.0
1.7799999999999998,0.5041392,2.0061936,-7.5364848,-4.370527200000001,0.0,0.0,0.0,0.0
1.7999999999999998,0.6175248,2.0601432,-7.5904344,-4.2937176,0.0,0.0,0.0,0.0
1.8199999999999998,0.4620768,2.2771608000000003,-7.5904344,-4.2172128,0.0,0.0,0.0,0.0
1.8399999999999999,0.5291328,2.2771608000000003,-7.4822304,-4.0638984,0.0,0.0,0.0,0.0
1.8599999999999999,0.4355592,2.4399240000000004,-7.5364848,-4.0638984,0.0,0.0,0.0,0.0
1.88,0.4425696,2.1686520000000002,-7.4822304,-4.2937176,0.0,0.0,0.0,0.0
1.9,0.3343656,2.2771608000000003,-7.4822304,-4.1404032,0.0,0.0,0.0,0.0
1.92,0.4111752,2.0601432,-7.4822304,-4.2937176,0.0,0.0,0.0,0.0
1.94,0.3447288,2.4941784,-7.3737216000000005,-4.2172128,0.0,0.0,0.0,0.0
1.9599999999999997,0.3739896,2.3314152,-7.5364848,-4.2937176,0.0,0.0,0.0,0.0
1.9799999999999998,0.33497520000000003,2.4941784,-7.3737216000000005,-4.2937176,0.0,0.0,0.0,0.0
1.9999999999999998,0.3233928,2.4399240000000004,-7.427976000000001,-4.2937176,0.0,0.0,0.0,0.0
2.0199999999999996,0.2517648,2.1686520000000002,-7.5904344,-4.370527200000001,0.0,0.0,0.0,0.0
2.04,0.2953512,2.1686520000000002,-7.4822304,-4.6006512,0.0,0.0,0.0,0.0
2.0599999999999996,0.429768,2.1686520000000002,-7.4822304,-4.370527200000001,0.0,0.0,0.0,0.0
2.08,0.37520879999999995,2.2771608000000003,-7.3737216000000005,-4.2937176,0.0,0.0,0.0,0.0
2.0999999999999996,0.3968496,2.2229064000000003,-7.6446888,-4.2937176,0.0,0.0,0.0,0.0
2.12,0.4142232,2.1686520000000002,-7.5904344,-4.2172128,0.0,0.0,0.0,0.0
2.1399999999999997,0.2008632,2.2229064000000003,-7.5364848,-4.2937176,0.0,0.0,0.0,0.0
2.16,0.22890480000000002,2.1143976,-7.5364848,-4.2937176,0.0,0.0,0.0,0.0
2.1799999999999997,0.286512,2.1143976,-7.5364848,-4.1404032,0.0,0.0,0.0,0.0
2.1999999999999997,0.20573999999999998,2.2771608000000003,-7.5904344,-3.9870888,0.0,0.0,0.0,0.0
2.2199999999999998,0.09540239999999998,2.2771608000000003,-7.5904344,-4.0638984,0.0,0.0,0.0,0.0
2.2399999999999998,0.15819119999999998,2.2771608000000003,-7.4822304,-4.2172128,0.0,0.0,0.0,0.0
2.26,0.22738080000000002,2.2771608000000003,-7.5904344,-4.2172128,0.0,0.0,0.0,0.0
2.28,0.18836640000000002,2.4399240000000004,-7.5364848,-4.2172128,0.0,0.0,0.0,0.0
2.3,0.1758696,2.1686520000000002,-7.4822304,-4.370527200000001,0.0,0.0,0.0,0.0
2.32,0.1350264,2.3856696,-7.4822304,-4.0638984,0.0,0.0,0.0,0.0
2.34,0.15392399999999998,2.4399240000000004,-7.427976000000001,-4.370527200000001,0.0,0.0,0.0,0.0
2.36,0.09052559999999998,2.4399240000000004,-7.427976000000001,-4.1404032,0.0,0.0,0.0,0.0
2.38,0.1399032,2.3856696,-7.3737216000000005,-4.4473368,0.0,0.0,0.0,0.0
2.4,0.39136319999999997,2.2771608000000003,-7.3737216000000005,-4.370527200000001,0.0,0.0,0.0,0.0
2.42,0.3621024,2.3314152,-7.427976000000001,-4.370527200000001,0.0,0.0,0.0,0.0
2.44,0.3828288,2.0601432,-7.4822304,-4.2172128,0.0,0.0,0.0,0.0
2.46,0.5251704,2.3314152,-7.427976000000001,-4.1404032,0.0,0.0,0.0,0.0
2.4799999999999995,0.6160008,2.3314152,-7.427976000000001,-4.2937176,0.0,0.0,0.0,0.0
2.5,0.5510784,2.3856696,-7.5904344,-4.0638984,0.0,0.0,0.0,0.0
2.5199999999999996,0.5888736,2.2229064000000003,-7.427976000000001,-4.2172128,0.0,0.0,0.0,0.0
2.54,0.6281928,2.3314152,-7.5364848,-4.1404032,0.0,0.0,0.0,0.0
2.5599999999999996,0.5062728000000001,2.2229064000000003,-7.427976000000001,-4.2937176,0.0,0.0,0.0,0.0
2.58,0.6150863999999999,2.1686520000000002,-7.5904344,-4.2172128,0.0,0.0,0.0,0.0
2.5999999999999996,0.6635496000000001,2.4941784,-7.4822304,-4.0638984,0.0,0.0,0.0,0.0
2.62,0.5833872000000001,2.3314152,-7.5364848,-4.1404032,0.0,0.0,0.0,0.0
2.6399999999999997,0.5315711999999999,2.3856696,-7.4822304,-4.0638984,0.0,0.0,0.0,0.0
2.66,0.39014399999999994,2.1686520000000002,-7.4822304,-4.4473368,0.0,0.0,0.0,0.0
2.6799999999999997,0.1502664,2.2229064000000003,-7.5364848,-4.1404032,0.0,0.0,0.0,0.0
2.6999999999999997,0.11125199999999999,2.1686520000000002,-7.4822304,-4.523841600000001,0.0,0.0,0.0,0.0
2.7199999999999998,-0.0399288,2.1686520000000002,-7.4822304,-4.370527200000001,0.0,0.0,0.0,0.0
2.7399999999999998,-0.16550640000000003,2.2771608000000003,-7.4822304,-4.370527200000001,0.0,0.0,0.0,0.0
2.76,-0.09113520000000001,2.2229064000000003,-7.5364848,-4.2172128,0.0,0.0,0.0,0.0
2.78,-0.003352800000000003,2.4399240000000004,-7.427976000000001,-4.1404032,0.0,0.0,0.0,0.0
2.8,0.07467599999999999,2.3856696,-7.4822304,-4.2937176,0.0,0.0,0.0,0.0
2.82,0.09448799999999999,2.3856696,-7.4822304,-4.1404032,0.0,0.0,0.0,0.0
2.84,0.1487424,2.0601432,-7.4822304,-4.2172128,0.0,0.0,0.0,0.0
2.86,0.2417064,2.3314152,-7.427976000000001,-4.1404032,0.0,0.0,0.0,0.0
2.88,0.1712976,2.4941784,-7.4822304,-4.1404032,0.0,0.0,0.0,0.0
2.9,0.39136319999999997,2.3314152,-7.427976000000001,-4.2937176,0.0,0.0,0.0,0.0
2.92,0.32064960000000003,2.3314152,-7.5364848,-4.0638984,0.0,0.0,0.0,0.0
2.94,0.2127504,2.2229064000000003,-7.427976000000001,-4.2172128,0.0,0.0,0.0,0.0
2.96,0.3346704,2.2229064000000003,-7.427976000000001,-4.2937176,0.0,0.0,0.0,0.0
2.98,0.3645408,2.1143976,-7.427976000000001,-4.370527200000001,0.0,0.0,0.0,0.0
3.0,0.528828,2.2771608000000003,-7.4822304,-4.2937176,0.0,0.0,0.0,0.0
3.0199999999999996,0.6525768000000001,2.3856696,-7.4822304,-4.2172128,0.0,0.0,0.0,0.0
3.04,0.6120384,2.1143976,-7.5364848,-4.2172128,0.0,0.0,0.0,0.0
3.0599999999999996,0.5718048,2.2771608000000003,-7.4822304,-4.2172128,0.0,0.0,0.0,0.0
3.08,0.4197096,2.3314152,-7.427976000000001,-4.2937176,0.0,0.0,0.0,0.0
3.0999999999999996,0.3590544,2.2771608000000003,-7.5904344,-4.2937176,0.0,0.0,0.0,0.0
3.12,0.2776728,2.2771608000000003,-7.4822304,-4.370527200000001,0.0,0.0,0.0,0.0
3.1399999999999997,0.3584448,2.3314152,-9.596628,-4.8304704,0.0,0.0,0.0,0.0
3.1599999999999997,0.2624328,1.9519392,-7.048500000000001,-4.1404032,0.0,0.0,0.0,0.0
3.1799999999999997,0.3813048,2.2229064000000003,-7.6446888,-4.370527200000001,0.0,0.0,0.0,0.0
3.1999999999999997,0.330708,2.1686520000000002,-7.4822304,-4.1404032,0.0,0.0,0.0,0.0
3.2199999999999998,0.5007864,2.2229064000000003,-7.427976000000001,-4.2172128,0.0,0.0,0.0,0.0
3.2399999999999998,0.5385816,2.3314152,-7.427976000000001,-4.2172128,0.0,0.0,0.0,0.0
3.26,0.5004816,2.1143976,-7.5364848,-4.1404032,0.0,0.0,0.0,0.0
3.28,0.612648,2.3314152,-7.5364848,-3.9870888,0.0,0.0,0.0,0.0
3.3,0.6495288,2.2229064000000003,-7.427976000000001,-4.2172128,0.0,0.0,0.0,0.0
3.32,0.7382256,2.2229064000000003,-7.427976000000001,-4.2937176,0.0,0.0,0.0,0.0
3.34,0.8360664,2.3856696,-7.4822304,-4.1404032,0.0,0.0,0.0,0.0
3.36,0.8244839999999999,2.1143976,-7.427976000000001,-4.4473368,0.0,0.0,0.0,0.0
3.38,0.7754112000000001,2.3314152,-7.427976000000001,-4.2172128,0.0,0.0,0.0,0.0
3.4,0.6178296000000001,2.1686520000000002,-7.4822304,-4.370527200000001,0.0,0.0,0.0,0.0
3.42,0.425196,2.1143976,-7.5364848,-4.4473368,0.0,0.0,0.0,0.0
3.44,0.3874008,2.0601432,-7.4822304,-4.4473368,0.0,0.0,0.0,0.0
3.46,0.3294888,2.1143976,-7.427976000000001,-4.370527200000001,0.0,0.0,0.0,0.0
3.48,0.3849624,2.2771608000000003,-7.5904344,-4.2937176,0.0,0.0,0.0,0.0
3.5,0.45079920000000007,2.3314152,-7.5364848,-4.1404032,0.0,0.0,0.0,0.0
3.52,0.5873496,2.0601432,-7.5904344,-4.2937176,0.0,0.0,0.0,0.0
3.54,0.6952488000000001,2.3856696,-7.6989432,-4.2172128,0.0,0.0,0.0,0.0
3.5599999999999996,0.6830568,2.4941784,-7.3737216000000005,-4.4473368,0.0,0.0,0.0,0.0
3.58,0.4443984,2.2771608000000003,-7.4822304,-4.0638984,0.0,0.0,0.0,0.0
3.5999999999999996,0.5145024,2.3856696,-7.3737216000000005,-3.9870888,0.0,0.0,0.0,0.0
3.6199999999999997,0.4111752,2.6023824,-7.5904344,-3.9870888,0.0,0.0,0.0,0.0
3.6399999999999997,0.5245608,2.4941784,-7.156704,-4.0638984,0.0,0.0,0.0,0.0
3.6599999999999997,0.566928,2.1686520000000002,-7.5904344,-4.2937176,0.0,0.0,0.0,0.0
3.6799999999999997,0.6665976,2.4399240000000004,-7.210958400000001,-4.1404032,0.0,0.0,0.0,0.0
3.6999999999999997,0.5327904,2.3314152,-7.6446888,-4.2172128,0.0,0.0,0.0,0.0
3.7199999999999998,0.6528816,2.1686520000000002,-7.4822304,-4.2937176,0.0,0.0,0.0,0.0
3.7399999999999998,0.6656832,2.2771608000000003,-7.5904344,-4.2937176,0.0,0.0,0.0,0.0
3.76,0.6571488000000001,2.4399240000000004,-7.427976000000001,-4.370527200000001,0.0,0.0,0.0,0.0
3.78,0.8418576000000001,2.2229064000000003,-7.427976000000001,-4.2172128,0.0,0.0,0.0,0.0
3.8,0.8705088,1.8976848000000002,-7.5364848,-4.4473368,0.0,0.0,0.0,0.0
3.82,0.7732776,2.3314152,-7.210958400000001,-4.1404032,0.0,0.0,0.0,0.0
3.84,0.6912864,2.0601432,-7.807452,-4.4473368,0.0,0.0,0.0,0.0
3.86,0.688848,2.3314152,-7.8617064,-4.2172128,0.0,0.0,0.0,0.0
3.88,0.5718048,2.1143976,-8.94588,-4.8304704,0.0,0.0,0.0,0.0
3.9,0.6745224000000001,-4.8252888,-6.018276,4.2172128,0.0,0.0,0.0,0.0
3.92,0.6912864,8.295436800000001,-37.356288,-15.335402400000001,0.0,0.0,0.0,0.0
3.94,0.7370064000000001,40.6636728,-91.7374848,-44.7022728,0.0,0.0,0.0,0.0
3.96,1.0963656,46.6819488,-139.72062480000002,-65.3280888,0.0,0.0,0.0,0.0
3.98,1.7925288000000001,52.591716,-152.028144,-68.5486056,0.0,0.0,0.0,0.0
4.0,2.1323808000000004,58.1220072,-156.5824656,-71.30887440000001,0.0,0.0,0.0,0.0
4.02,2.5837896000000002,48.850600799999995,-163.2511848,-82.3502544,0.0,0.0,0.0,0.0
4.04,2.7748991999999997,56.6580528,-164.0104416,-53.6734512,0.0,0.0,0.0,0.0
4.06,2.9842967999999996,58.230516,-163.7391696,-68.5486056,0.0,0.0,0.0,0.0
4.08,3.0281879999999997,53.2967184,-156.3114984,-76.8297168,0.0,0.0,0.0,0.0
4.1,3.038856,54.055670400000004,-167.91401520000002,-71.9224368,0.0,0.0,0.0,0.0
4.12,3.011424,55.8991008,-166.0705848,-72.612504,0.0,0.0,0.0,0.0
4.14,3.1830264,55.1940984,-166.77558720000002,-71.7688176,0.0,0.0,0.0,0.0
4.16,2.836164,55.1940984,-166.77558720000002,-71.38568400000001,0.0,0.0,0.0,0.0
4.18,2.375916,54.8146224,-167.1550632,-72.53569440000001,0.0,0.0,0.0,0.0
4.2,2.3237952,54.5436552,-165.1488696,-71.30887440000001,0.0,0.0,0.0,0.0
4.22,2.0552664000000003,54.5436552,-166.34185680000002,-71.9224368,0.0,0.0,0.0,0.0
4.24,1.8955512,53.7843984,-168.1852872,-72.9959424,0.0,0.0,0.0,0.0
4.26,2.069592,53.5134312,-167.04655440000002,-73.9158288,0.0,0.0,0.0,0.0
4.28,1.7483328000000002,51.8870184,-169.43222400000002,-75.2959632,0.0,0.0,0.0,0.0
4.3,1.8949416000000003,52.428952800000005,-169.5407328,-76.29296400000001,0.0,0.0,0.0,0.0
4.32,2.154936,51.72425520000001,-170.2454304,-76.21615440000001,0.0,0.0,0.0,0.0
4.34,2.046732,50.74828560000001,-171.22140000000002,-79.12973760000001,0.0,0.0,0.0,0.0
4.359999999999999,1.9687032000000002,49.7180616,-172.25162400000002,-78.8999184,0.0,0.0,0.0,0.0
4.38,1.4804136,54.7061136,-167.263572,-78.8231088,0.0,0.0,0.0,0.0
4.3999999999999995,0.8833103999999999,51.5072376,-167.8597608,-79.28335679999999,0.0,0.0,0.0,0.0
4.42,-0.03139440000000003,50.6940312,-166.61282400000002,-79.2065472,0.0,0.0,0.0,0.0
4.4399999999999995,-1.1789664,51.9952224,-162.4922328,-78.28635600000001,0.0,0.0,0.0,0.0
4.46,-1.2505944,53.404922400000004,-161.0825328,-80.8168056,0.0,0.0,0.0,0.0
4.4799999999999995,-0.9125712000000001,56.00760960000001,-159.2391024,-80.3568624,0.0,0.0,0.0,0.0
4.5,-0.47183040000000004,57.7425312,-156.7452288,-82.12013040000001,0.0,0.0,0.0,0.0
4.52,-0.10881360000000004,59.74842,-150.0762048,-82.427064,0.0,0.0,0.0,0.0
4.54,0.04907279999999998,61.158120000000004,-147.90755280000002,-83.9605128,0.0,0.0,0.0,0.0
4.56,-0.7095744000000002,63.6522984,-145.08815280000002,-81.27674880000001,0.0,0.0,0.0,0.0
4.58,-1.5913608000000001,63.055804800000004,-140.371068,-82.27374960000002,0.0,0.0,0.0,0.0
4.6,-2.1680424,64.0317744,-140.6965944,-80.8168056,0.0,0.0,0.0,0.0
4.62,-2.7672792000000004,62.6763288,-139.88308320000002,-77.3664696,0.0,0.0,0.0,0.0
4.64,-3.2954976000000005,60.399168,-137.7144312,-72.38238,0.0,0.0,0.0,0.0
4.66,-3.6329112,56.7665616,-132.0216816,-66.1714704,0.0,0.0,0.0,0.0
4.68,-3.7194744000000006,51.561492,-125.6239296,-59.1939888,0.0,0.0,0.0,0.0
4.7,-3.3351216000000004,47.603664,-121.7743056,-54.900271200000006,0.0,0.0,0.0,0.0
4.72,-2.2994112,43.80829440000001,-118.3044624,-50.3764296,0.0,0.0,0.0,0.0
4.74,-0.7891272,40.6636728,-115.3765536,-48.6893616,0.0,0.0,0.0,0.0
4.76,0.803148,39.7419576,-113.26215600000002,-47.2324176,0.0,0.0,0.0,0.0
4.779999999999999,2.4216360000000003,36.814353600000004,-107.62335600000002,-47.76917040000001,0.0,0.0,0.0,0.0
4.8,3.8459663999999996,35.946588000000006,-104.80395600000001,-50.3764296,0.0,0.0,0.0,0.0
4.82,5.018836800000001,35.0791272,-99.5988864,-51.52644000000001,0.0,0.0,0.0,0.0
4.84,6.0521088,33.0732384,-101.60508000000002,-49.0728,0.0,0.0,0.0,0.0
4.859999999999999,6.8768976,29.9825664,-95.15307360000001,-51.909878400000004,0.0,0.0,0.0,0.0
4.88,7.495032,30.4705512,-91.95419760000001,-53.2132032,0.0,0.0,0.0,0.0
4.9,7.654747200000001,30.524805600000004,-90.1650216,-51.143001600000005,0.0,0.0,0.0,0.0
4.92,7.6873608,30.850332,-86.261448,-49.6095528,0.0,0.0,0.0,0.0
4.9399999999999995,7.939125600000001,28.3561536,-83.11652160000001,-46.4658456,0.0,0.0,0.0,0.0
4.96,8.44296,28.3561536,-83.550252,-42.6320712,0.0,0.0,0.0,0.0
4.9799999999999995,9.492996,29.3321232,-79.1044392,-38.1082296,0.0,0.0,0.0,0.0
5.0,10.584789600000002,29.548835999999998,-78.2369784,-35.1943416,0.0,0.0,0.0,0.0
5.02,11.605564800000002,31.1755536,-77.6947392,-35.1943416,0.0,0.0,0.0,0.0
5.04,12.677851200000001,31.8802512,-78.0742152,-33.8142072,0.0,0.0,0.0,0.0
5.06,13.734592800000001,30.2538384,-74.9295936,-33.8142072,0.0,0.0,0.0,0.0
5.08,14.806574400000002,27.4344384,-70.5922896,-33.124140000000004,0.0,0.0,0.0,0.0
5.1,15.868802400000002,17.6210976,-59.5859616,-29.2903656,0.0,0.0,0.0,0.0
5.12,17.0157648,11.277295200000001,-44.78426400000001,-23.539704000000004,0.0,0.0,0.0,0.0
5.14,18.38706,8.295436800000001,-32.260032,-13.264896000000002,0.0,0.0,0.0,0.0
5.16,19.943368800000002,1.1387328,-20.765719200000003,-10.1979984,0.0,0.0,0.0,0.0
5.18,21.568867200000003,0.5422392,-10.3013256,-5.597347200000001,0.0,0.0,0.0,0.0
5.199999999999999,23.544276000000004,-0.8132064000000001,-3.4158936000000004,-4.523841600000001,0.0,0.0,0.0,0.0
5.22,26.1173976,-1.5724632,4.608576,0.0,0.0,0.0,0.0,0.0
5.24,29.0242752,-2.8194000000000004,8.7834216,1.7635728,0.0,0.0,0.0,0.0
5.26,32.095744800000006,-1.3554456000000001,12.8497584,5.060594400000001,0.0,0.0,0.0,0.0
5.279999999999999,35.437876800000005,1.6806672000000002,5.476036800000001,3.3738312000000006,0.0,0.0,0.0,0.0
5.3,38.938809600000006,-3.3616392,8.6749128,5.827471200000001,0.0,0.0,0.0,0.0
5.32,42.914011200000004,-4.6628304,8.3496912,8.817864,0.0,0.0,0.0,0.0
5.34,47.41712640000001,4.2833544,7.6446888,11.8847616,0.0,0.0,0.0,0.0
5.359999999999999,51.8324592,-4.2833544,8.837676,7.744358400000001,0.0,0.0,0.0,0.0
5.38,56.2578504,-4.012082400000001,10.0846128,7.437729600000001,0.0,0.0,0.0,0.0
5.4,60.58357200000001,-4.0663368,10.247376,5.6741568000000004,0.0,0.0,0.0,0.0
5.42,64.4868408,-4.120591200000001,10.193121600000001,4.1404032,0.0,0.0,0.0,0.0
5.4399999999999995,67.949064,-3.1446216000000002,11.4943128,3.5271456,0.0,0.0,0.0,0.0
5.46,71.4408528,-3.2531304000000003,11.0605824,4.2937176,0.0,0.0,0.0,0.0
5.4799999999999995,74.9192304,-4.7713392,9.976104,5.060594400000001,0.0,0.0,0.0,0.0
5.5,78.63169439999999,-3.957828,10.355580000000002,5.060594400000001,0.0,0.0,0.0,0.0
5.52,82.1859672,-3.578352,9.976104,7.2076056,0.0,0.0,0.0,0.0
5.54,85.5677232,-3.7411152,9.1628976,7.2841104,0.0,0.0,0.0,0.0
5.56,88.99702799999999,-3.1446216000000002,10.3013256,6.5175384,0.0,0.0,0.0,0.0
5.58,92.2452816,-4.0663368,9.379915200000001,6.1341,0.0,0.0,0.0,0.0
5.6,95.4889632,-4.608576,9.1628976,6.2874144,0.0,0.0,0.0,0.0
5.62,98.9420424,-3.3616392,9.7593912,6.594043200000001,0.0,0.0,0.0,0.0
5.64,102.43169759999999,-3.7411152,10.138867200000002,5.4440328000000004,0.0,0.0,0.0,0.0
5.66,105.9079416,-4.608576,9.488119200000002,4.907280000000001,0.0,0.0,0.0,0.0
5.68,109.29548879999999,-4.012082400000001,9.7593912,4.6006512,0.0,0.0,0.0,0.0
5.699999999999999,112.87841279999999,-3.1446216000000002,9.7593912,4.984089600000001,0.0,0.0,0.0,0.0
5.72,116.2132296,-3.7411152,10.789310400000002,3.7572696000000003,0.0,0.0,0.0,0.0
5.74,119.64253439999999,-3.8496240000000004,10.138867200000002,3.8337744,0.0,0.0,0.0,0.0
5.76,123.0495888,-4.1748456,9.7051368,3.910584,0.0,0.0,0.0,0.0
5.779999999999999,126.4651776,-4.0663368,8.295436800000001,5.827471200000001,0.0,0.0,0.0,0.0
5.8,129.914904,-3.578352,9.3256608,5.060594400000001,0.0,0.0,0.0,0.0
5.82,133.2070488,-4.2833544,9.813645600000001,4.6006512,0.0,0.0,0.0,0.0
5.84,136.6406208,-3.578352,9.7593912,4.907280000000001,0.0,0.0,0.0,0.0
5.859999999999999,140.1007104,-2.7651456,9.2714064,5.4440328000000004,0.0,0.0,0.0,0.0
5.88,143.5873176,-3.5240976,8.6206584,7.36092,0.0,0.0,0.0,0.0
5.9,147.0379584,-2.7108912000000003,8.241182400000001,8.050987200000002,0.0,0.0,0.0,0.0
5.92,150.47092080000002,-2.0601432,9.6508824,6.4407288000000005,0.0,0.0,0.0,0.0
5.9399999999999995,154.0431768,-4.2833544,9.596628,4.0638984,0.0,0.0,0.0,0.0
5.96,157.6419504,-5.801258400000001,9.596628,3.450336,0.0,0.0,0.0,0.0
5.98,161.01364800000002,-4.7713392,10.0846128,3.2970216000000003,0.0,0.0,0.0,0.0
6.0,164.649912,-3.6326064,10.355580000000002,3.7572696000000003,0.0,0.0,0.0,0.0
6.02,168.0813504,-5.801258400000001,8.729167200000001,4.907280000000001,0.0,0.0,0.0,0.0
6.04,171.6045336,-4.5000672,9.813645600000001,5.597347200000001,0.0,0.0,0.0,0.0
6.0600000000000005,175.1011992,-3.0903671999999998,10.0303584,5.2139088000000005,0.0,0.0,0.0,0.0
6.08,178.63413599999998,-4.6628304,9.217152,5.5205376,0.0,0.0,0.0,0.0
6.1,182.092092,-5.476036800000001,8.4039456,5.5205376,0.0,0.0,0.0,0.0
6.119999999999999,185.4976224,-4.3915584,9.1628976,5.5205376,0.0,0.0,0.0,0.0
6.14,189.0016032,-3.0903671999999998,9.1628976,4.4473368,0.0,0.0,0.0,0.0
6.16,192.4345656,-3.578352,9.867595200000002,5.2139088000000005,0.0,0.0,0.0,0.0
6.18,195.77243040000002,-1.6264128000000002,10.0846128,3.910584,0.0,0.0,0.0,0.0
6.199999999999999,199.07707200000002,-3.7411152,8.94588,2.9903928,0.0,0.0,0.0,0.0
6.22,202.4393208,-3.9035736000000005,9.6508824,4.7539656,0.0,0.0,0.0,0.0
6.24,205.7226264,-3.578352,8.8919304,5.827471200000001,0.0,0.0,0.0,0.0
6.26,208.97331839999998,-4.445812800000001,8.024164800000001,5.9807856,0.0,0.0,0.0,0.0
6.279999999999999,212.31758399999998,-6.2349888,7.970215200000001,5.6741568000000004,0.0,0.0,0.0,0.0
6.3,215.8002288,-5.638800000000001,7.5904344,5.367223200000001,0.0,0.0,0.0,0.0
6.32,219.1819848,-5.476036800000001,8.0784192,4.370527200000001,0.0,0.0,0.0,0.0
6.34,222.4515744,-4.5000672,8.94588,4.677156,0.0,0.0,0.0,0.0
6.359999999999999,225.6019872,-4.554321600000001,8.241182400000001,5.060594400000001,0.0,0.0,0.0,0.0
6.38,228.9715512,-4.2291,8.024164800000001,4.984089600000001,0.0,0.0,0.0,0.0
6.4,232.0606992,-3.1446216000000002,9.108643200000001,4.907280000000001,0.0,0.0,0.0,0.0
6.42,235.0995552,-4.0663368,8.6206584,4.8304704,0.0,0.0,0.0,0.0
6.4399999999999995,238.25332079999998,-2.7108912000000003,9.217152,5.2139088000000005,0.0,0.0,0.0,0.0
6.46,241.5546096,-3.7953696000000003,7.4822304,7.0542912,0.0,0.0,0.0,0.0
6.48,244.72392,-2.8736544000000004,9.488119200000002,4.677156,0.0,0.0,0.0,0.0
6.5,247.93559760000002,-4.3915584,8.4039456,4.2937176,0.0,0.0,0.0,0.0
6.52,251.1862896,-4.1748456,9.379915200000001,2.683764,0.0,0.0,0.0,0.0
6.54,254.56621680000003,-3.0361128,7.915960800000001,5.6741568000000004,0.0,0.0,0.0,0.0
6.5600000000000005,257.7711888,-3.957828,8.6206584,3.450336,0.0,0.0,0.0,0.0
6.58,260.9572632,-2.2229064000000003,9.7051368,3.9870888,0.0,0.0,0.0,0.0
6.6,264.3868728,-5.1508152,7.3194672,4.4473368,0.0,0.0,0.0,0.0
6.619999999999999,267.6409176,-6.614769600000001,7.5904344,2.9903928,0.0,0.0,0.0,0.0
6.64,270.8815512,-5.421782400000001,7.156704,4.370527200000001,0.0,0.0,0.0,0.0
6.66,274.1944224,-7.5364848,6.343497600000001,4.2937176,0.0,0.0,0.0,0.0
6.68,277.7221776,-6.343497600000001,7.8617064,3.5271456,0.0,0.0,0.0,0.0
6.699999999999999,281.0582136,-5.3132736,7.2652128,4.7539656,0.0,0.0,0.0,0.0
6.72,284.5210464,-1.8976848000000002,8.186928,4.6006512,0.0,0.0,0.0,0.0
6.74,287.8296504,-1.3554456000000001,9.0543888,2.6069544000000002,0.0,0.0,0.0,0.0
6.76,290.9800632,-1.3011912,8.6749128,3.6036504000000003,0.0,0.0,0.0,0.0
6.779999999999999,294.0472656,-0.7046976,8.729167200000001,4.523841600000001,0.0,0.0,0.0,0.0
6.8,297.10380000000004,-0.7046976,9.2714064,3.910584,0.0,0.0,0.0,0.0
6.82,300.24811680000005,-1.9519392,9.0001344,3.7572696000000003,0.0,0.0,0.0,0.0
6.84,303.4119408,-2.3314152,8.295436800000001,3.3738312000000006,0.0,0.0,0.0,0.0
6.859999999999999,306.3892272,-3.8496240000000004,7.6446888,4.0638984,0.0,0.0,0.0,0.0
6.88,309.423816,-3.198876,7.5364848,4.370527200000001,0.0,0.0,0.0,0.0
6.9,312.5425296,-3.7411152,6.9942456,5.4440328000000004,0.0,0.0,0.0,0.0
6.92,315.4811064,-3.7411152,7.8617064,3.68046,0.0,0.0,0.0,0.0
6.9399999999999995,318.4084056,-4.0663368,6.4520064,4.8304704,0.0,0.0,0.0,0.0
6.96,321.509136,-5.1508152,6.5605152,5.2907184,0.0,0.0,0.0,0.0
6.98,324.7768968,-2.9279088,7.807452,3.7572696000000003,0.0,0.0,0.0,0.0
7.0,327.7307136,-3.0903671999999998,7.427976000000001,3.5271456,0.0,0.0,0.0,0.0
7.02,330.77383679999997,-3.4698432,7.2652128,3.3738312000000006,0.0,0.0,0.0,0.0
7.04,333.7593528,-3.578352,7.048500000000001,3.7572696000000003,0.0,0.0,0.0,0.0
7.0600000000000005,336.5818008,-5.1508152,6.018276,2.9903928,0.0,0.0,0.0,0.0
7.08,339.5910912,-4.2833544,6.9942456,3.2205168000000004,0.0,0.0,0.0,0.0
7.1,342.5223528,-4.0663368,7.210958400000001,3.0672024,0.0,0.0,0.0,0.0
7.119999999999999,345.3039576,-4.554321600000001,6.7229735999999995,3.5271456,0.0,0.0,0.0,0.0
7.14,348.0550824,-4.7713392,6.8314824000000005,3.450336,0.0,0.0,0.0,0.0
7.16,350.68001999999996,-4.445812800000001,6.506260800000001,3.8337744,0.0,0.0,0.0,0.0
7.18,353.51191680000005,-3.5240976,6.9942456,4.1404032,0.0,0.0,0.0,0.0
7.199999999999999,356.48280239999997,-2.7108912000000003,7.048500000000001,5.060594400000001,0.0,0.0,0.0,0.0
7.22,359.42869440000004,-2.6566368,6.668719200000001,4.4473368,0.0,0.0,0.0,0.0
7.24,362.2999104,-3.578352,7.156704,3.8337744,0.0,0.0,0.0,0.0
7.26,365.1430848,-3.198876,7.427976000000001,2.9135831999999997,0.0,0.0,0.0,0.0
7.279999999999999,368.1063504,-3.2531304000000003,7.2652128,2.3768304000000002,0.0,0.0,0.0,0.0
7.3,370.90502399999997,-3.6326064,7.8617064,2.1470112,0.0,0.0,0.0,0.0
7.32,373.4403504,-2.9818584,7.5364848,2.6069544000000002,0.0,0.0,0.0,0.0
7.34,375.943368,-3.4158936000000004,6.9942456,3.1437072,0.0,0.0,0.0,0.0
7.359999999999999,378.3400104,-4.5000672,6.2349888,2.9903928,0.0,0.0,0.0,0.0
7.38,380.8448568,-3.578352,5.964021600000001,3.7572696000000003,0.0,0.0,0.0,0.0
7.4,383.5700736,-4.8795432000000005,5.7470040000000004,4.523841600000001,0.0,0.0,0.0,0.0
7.42,386.3986176,-5.0423064,6.018276,3.6036504000000003,0.0,0.0,0.0,0.0
7.4399999999999995,389.3039712,-4.8795432000000005,5.7470040000000004,3.450336,0.0,0.0,0.0,0.0
7.46,392.181588,-4.012082400000001,6.0725304,4.370527200000001,0.0,0.0,0.0,0.0
7.48,395.090904,-4.7713392,5.8555128,3.910584,0.0,0.0,0.0,0.0
7.5,398.0325288,-3.0361128,6.614769600000001,4.6006512,0.0,0.0,0.0,0.0
7.52,400.81139040000005,-3.0903671999999998,6.018276,4.7539656,0.0,0.0,0.0,0.0
7.54,403.4274888,-2.8736544000000004,6.5605152,5.597347200000001,0.0,0.0,0.0,0.0
7.5600000000000005,406.103328,-2.9279088,7.2652128,3.3738312000000006,0.0,0.0,0.0,0.0
7.58,408.71394,-3.6868608000000003,6.506260800000001,2.3003256,0.0,0.0,0.0,0.0
7.6,411.0889416,-3.5240976,7.427976000000001,0.5367528,0.0,0.0,0.0,0.0
7.619999999999999,413.032956,-2.9818584,7.753197600000001,0.3834384,0.0,0.0,0.0,0.0
7.64,414.8437728,-4.8252888,6.9942456,0.0768096,0.0,0.0,0.0,0.0
7.66,416.7649272,-5.205069600000001,6.7229735999999995,0.30662880000000003,0.0,0.0,0.0,0.0
7.68,418.9280928,-5.5845456,5.6930544,1.6867632000000001,0.0,0.0,0.0,0.0
7.699999999999999,421.3991064,-5.259324,5.476036800000001,2.0702016,0.0,0.0,0.0,0.0
7.72,424.2438048,-2.1686520000000002,6.397752,4.984089600000001,0.0,0.0,0.0,0.0
7.74,427.591728,0.0,5.8555128,5.827471200000001,0.0,0.0,0.0,0.0
7.76,430.8625368,1.030224,7.210958400000001,5.827471200000001,0.0,0.0,0.0,0.0
7.779999999999999,434.02879920000004,2.548128,6.1267848,3.6036504000000003,0.0,0.0,0.0,0.0
7.8,437.3313072,0.8674608,6.8314824000000005,3.8337744,0.0,0.0,0.0,0.0
7.82,440.35675200000003,-0.0542544,7.3194672,3.1437072,0.0,0.0,0.0,0.0
7.84,443.23101600000007,-2.6023824,6.0725304,3.8337744,0.0,0.0,0.0,0.0
7.859999999999999,446.1095472,-4.120591200000001,4.988052,2.9903928,0.0,0.0,0.0,0.0
7.879999999999999,449.01368160000004,-3.3073848000000003,5.476036800000001,4.6006512,0.0,0.0,0.0,0.0
7.9,451.7587104,-4.7713392,4.7713392,3.68046,0.0,0.0,0.0,0.0
7.92,454.54153440000005,-6.5605152,4.2833544,4.2937176,0.0,0.0,0.0,0.0
7.9399999999999995,457.3069848,-5.3132736,5.3132736,3.6036504000000003,0.0,0.0,0.0,0.0
7.959999999999999,459.9700224,-5.9097672,5.259324,3.1437072,0.0,0.0,0.0,0.0
7.98,462.6949344,-3.9035736000000005,5.638800000000001,3.2970216000000003,0.0,0.0,0.0,0.0
8.0,465.3509616,-3.6326064,5.5845456,3.2970216000000003,0.0,0.0,0.0,0.0
8.02,467.9271312,-2.9818584,6.343497600000001,3.2205168000000004,0.0,0.0,0.0,0.0
8.04,470.333832,-4.2291,5.7470040000000004,1.4569440000000002,0.0,0.0,0.0,0.0
8.06,472.4915112,-3.9035736000000005,6.2892432000000005,1.2268200000000002,0.0,0.0,0.0,0.0
8.08,474.0030144,-2.9818584,6.668719200000001,1.0735056,0.0,0.0,0.0,0.0
8.1,475.10425680000003,-3.578352,6.2892432000000005,0.0768096,0.0,0.0,0.0,0.0
8.12,476.03846880000003,-3.6868608000000003,6.614769600000001,0.0768096,0.0,0.0,0.0,0.0
8.14,477.0976488,-3.1446216000000002,5.8555128,1.1500104,0.0,0.0,0.0,0.0
8.16,478.56099359999996,-4.1748456,5.1508152,2.223516,0.0,0.0,0.0,0.0
8.18,481.3258344,-4.1748456,5.0423064,2.4536400000000005,0.0,0.0,0.0,0.0
8.2,484.3427448,-0.7589520000000001,7.048500000000001,2.9135831999999997,0.0,0.0,0.0,0.0
8.22,487.1380656,-0.7046976,5.259324,4.2937176,0.0,0.0,0.0,0.0
8.24,490.15314720000003,2.3314152,6.668719200000001,3.8337744,0.0,0.0,0.0,0.0
8.26,493.5044232,1.3011912,7.3737216000000005,2.683764,0.0,0.0,0.0,0.0
8.28,496.6755624,0.4337304,6.614769600000001,2.7602688,0.0,0.0,0.0,0.0
8.3,499.3635936,-1.4639544,5.5845456,2.9903928,0.0,0.0,0.0,0.0
8.32,501.9010536,-2.6566368,5.476036800000001,3.2205168000000004,0.0,0.0,0.0,0.0
8.34,504.4702128,-2.8736544000000004,5.1508152,2.9903928,0.0,0.0,0.0,0.0
8.36,506.8223544,-5.205069600000001,3.9035736000000005,4.0638984,0.0,0.0,0.0,0.0
8.379999999999999,509.88528959999996,-6.018276,3.7411152,4.2937176,0.0,0.0,0.0,0.0
8.4,513.1728624,-5.8555128,3.3616392,4.370527200000001,0.0,0.0,0.0,0.0
8.42,516.3446112,-5.6930544,3.4158936000000004,3.910584,0.0,0.0,0.0,0.0
8.44,519.5142264,-5.8555128,3.7953696000000003,4.1404032,0.0,0.0,0.0,0.0
8.459999999999999,522.5667984,-4.933797600000001,4.2833544,2.9903928,0.0,0.0,0.0,0.0
8.48,525.2228256000001,-4.7170848,5.0423064,1.9936968000000002,0.0,0.0,0.0,0.0
8.5,527.7325488,-4.012082400000001,5.7470040000000004,1.2268200000000002,0.0,0.0,0.0,0.0
8.52,529.8057984000001,-3.4698432,5.7470040000000004,0.4599432,0.0,0.0,0.0,0.0
8.54,530.6708208,-2.6023824,6.614769600000001,-0.15331440000000002,0.0,0.0,0.0,0.0
8.56,531.199344,-1.8434304000000001,6.614769600000001,-0.0768096,0.0,0.0,0.0,0.0
8.58,531.7964472,-1.7349216,6.9399912,-0.15331440000000002,0.0,0.0,0.0,0.0
8.6,532.5666768000001,-2.4399240000000004,6.777228,-0.30662880000000003,0.0,0.0,0.0,0.0
8.62,533.5911096,-2.1143976,5.9097672,-0.3834384,0.0,0.0,0.0,0.0
8.64,534.8170152,-1.8976848000000002,5.9097672,0.0768096,0.0,0.0,0.0,0.0
8.66,536.4668976,-2.7108912000000003,5.638800000000001,0.15331440000000002,0.0,0.0,0.0,0.0
8.68,538.3679352,-1.5182088,5.3132736,2.1470112,0.0,0.0,0.0,0.0
8.7,540.9050904000001,-1.6806672000000002,4.933797600000001,2.9135831999999997,0.0,0.0,0.0,0.0
8.72,544.0591608,-1.3011912,4.554321600000001,3.6036504000000003,0.0,0.0,0.0,0.0
8.74,547.8042384,-1.7349216,4.120591200000001,4.7539656,0.0,0.0,0.0,0.0
8.76,551.6508144000001,-2.1686520000000002,3.6868608000000003,5.2139088000000005,0.0,0.0,0.0,0.0
8.78,555.6123,-2.1686520000000002,3.7953696000000003,5.2907184,0.0,0.0,0.0,0.0
8.8,559.3823712,-2.1143976,3.957828,4.7539656,0.0,0.0,0.0,0.0
8.82,562.7860728,-1.8976848000000002,4.3915584,4.2172128,0.0,0.0,0.0,0.0
8.84,565.8986904000001,-2.0061936,4.2833544,3.6036504000000003,0.0,0.0,0.0,0.0
8.86,568.6546920000001,-2.8194000000000004,4.7713392,2.5304496,0.0,0.0,0.0,0.0
8.879999999999999,570.805056,-1.5182088,4.988052,2.3003256,0.0,0.0,0.0,0.0
8.9,572.5878312,-2.0061936,5.259324,0.996696,0.0,0.0,0.0,0.0
8.92,574.0316688,-2.4941784,5.096560800000001,0.4599432,0.0,0.0,0.0,0.0
8.94,575.2380672,-3.2531304000000003,4.7713392,0.0768096,0.0,0.0,0.0,0.0
8.959999999999999,576.0278040000001,-3.198876,5.1508152,0.0768096,0.0,0.0,0.0,0.0
8.98,576.812664,-3.6868608000000003,5.096560800000001,0.4599432,0.0,0.0,0.0,0.0
9.0,577.7185296,-4.7170848,4.3915584,1.0735056,0.0,0.0,0.0,0.0
9.02,578.9584560000001,-4.608576,4.3915584,0.6900672,0.0,0.0,0.0,0.0
9.04,580.5534744,-4.5000672,4.1748456,1.0735056,0.0,0.0,0.0,0.0
9.06,582.2908344,-4.120591200000001,4.554321600000001,1.2268200000000002,0.0,0.0,0.0,0.0
9.08,584.3756664,-3.4698432,4.120591200000001,2.0702016,0.0,0.0,0.0,0.0
9.1,586.979268,-2.6023824,4.445812800000001,2.683764,0.0,0.0,0.0,0.0
9.12,589.79562,-1.8434304000000001,4.7713392,2.4536400000000005,0.0,0.0,0.0,0.0
9.14,592.7729064,-1.5182088,4.8795432000000005,2.223516,0.0,0.0,0.0,0.0
9.16,595.679784,-0.650748,5.205069600000001,2.1470112,0.0,0.0,0.0,0.0
9.18,598.4796768000001,-0.7046976,5.367528,2.0702016,0.0,0.0,0.0,0.0
9.2,601.1210736,-0.3252216,5.421782400000001,1.7635728,0.0,0.0,0.0,0.0
9.22,603.5570352,-0.7046976,5.259324,1.4569440000000002,0.0,0.0,0.0,0.0
9.24,605.8473024,-1.4097000000000002,5.3132736,1.1500104,0.0,0.0,0.0,0.0
9.26,607.9394496,-1.6806672000000002,5.0423064,0.996696,0.0,0.0,0.0,0.0
9.28,609.9130296000001,-2.0061936,4.933797600000001,1.0735056,0.0,0.0,0.0,0.0
9.3,611.8119336000001,-2.6566368,4.5000672,1.3801344,0.0,0.0,0.0,0.0
9.32,613.8339768000001,-2.7108912000000003,4.3376088,1.6102584000000002,0.0,0.0,0.0,0.0
9.34,615.9239904000001,-3.0361128,3.9035736000000005,2.1470112,0.0,0.0,0.0,0.0
9.36,618.1109304,-3.0903671999999998,4.0663368,2.3003256,0.0,0.0,0.0,0.0
9.379999999999999,620.4438696000001,-3.198876,3.7411152,2.1470112,0.0,0.0,0.0,0.0
9.4,622.8874512000001,-3.1446216000000002,4.012082400000001,2.4536400000000005,0.0,0.0,0.0,0.0
9.42,625.321584,-3.0903671999999998,3.8496240000000004,2.6069544000000002,0.0,0.0,0.0,0.0
9.44,627.677688,-2.7651456,3.8496240000000004,2.683764,0.0,0.0,0.0,0.0
9.459999999999999,629.9722224000001,-2.6023824,3.9035736000000005,2.3003256,0.0,0.0,0.0,0.0
9.48,632.1920808000001,-2.2771608000000003,4.445812800000001,1.9936968000000002,0.0,0.0,0.0,0.0
9.5,634.2086376000001,-2.1143976,4.2833544,1.6867632000000001,0.0,0.0,0.0,0.0
9.52,636.2023343999999,-2.0601432,4.2291,1.6102584000000002,0.0,0.0,0.0,0.0
9.54,638.0786832000001,-1.9519392,4.554321600000001,1.2268200000000002,0.0,0.0,0.0,0.0
9.56,639.7611792000001,-1.9519392,4.445812800000001,0.9201912000000001,0.0,0.0,0.0,0.0
9.58,641.4083184000001,-2.0601432,4.554321600000001,0.7668768,0.0,0.0,0.0,0.0
9.6,643.0524096,-2.0601432,4.7713392,0.8433816000000001,0.0,0.0,0.0,0.0
9.62,644.7123504,-2.0601432,4.2291,0.8433816000000001,0.0,0.0,0.0,0.0
9.64,646.3341912,-2.0061936,4.5000672,1.1500104,0.0,0.0,0.0,0.0
9.66,648.1002024000001,-2.1686520000000002,4.2291,1.0735056,0.0,0.0,0.0,0.0
9.68,650.065248,-2.2771608000000003,4.120591200000001,1.1500104,0.0,0.0,0.0,0.0
9.7,651.9979848,-2.2229064000000003,4.1748456,1.3801344,0.0,0.0,0.0,0.0
9.72,653.9858904,-2.3314152,3.8496240000000004,1.6867632000000001,0.0,0.0,0.0,0.0
9.74,655.9643472,-1.8976848000000002,4.1748456,1.6102584000000002,0.0,0.0,0.0,0.0
9.76,658.2159048,-1.8976848000000002,3.8496240000000004,1.7635728,0.0,0.0,0.0,0.0
9.78,660.4180848000001,-1.7349216,4.012082400000001,1.6867632000000001,0.0,0.0,0.0,0.0
9.8,662.6099016000001,-2.1143976,4.2833544,1.6867632000000001,0.0,0.0,0.0,0.0
9.82,664.6450512,-2.2229064000000003,3.957828,1.7635728,0.0,0.0,0.0,0.0
9.84,666.8274192,-2.0061936,3.8496240000000004,1.5334488,0.0,0.0,0.0,0.0
9.86,668.9997288,-2.1143976,4.0663368,1.5334488,0.0,0.0,0.0,0.0
9.879999999999999,671.0882184000001,-2.1143976,3.7411152,1.3801344,0.0,0.0,0.0,0.0
9.9,673.1736599999999,-2.2771608000000003,4.012082400000001,1.2268200000000002,0.0,0.0,0.0,0.0
9.92,674.9890488,-2.1686520000000002,3.7953696000000003,1.1500104,0.0,0.0,0.0,0.0
9.94,676.794684,-2.3856696,3.9035736000000005,1.1500104,0.0,0.0,0.0,0.0
9.959999999999999,678.6070248,-2.4941784,4.012082400000001,1.1500104,0.0,0.0,0.0,0.0
9.98,680.4105264,-2.3856696,4.012082400000001,1.1500104,0.0,0.0,0.0,0.0
10.0,682.1658696,-2.3314152,3.8496240000000004,0.9201912000000001,0.0,0.0,0.0,0.0
10.02,684.0281976,-2.2229064000000003,3.957828,0.996696,0.0,0.0,0.0,0.0
10.04,685.7225808000001,-2.2771608000000003,3.9035736000000005,0.996696,0.0,0.0,0.0,0.0
10.06,687.3383256000001,-2.4399240000000004,3.7411152,1.0735056,0.0,0.0,0.0,0.0
10.08,689.0637984000001,-2.548128,3.8496240000000004,0.996696,0.0,0.0,0.0,0.0
10.1,690.8602896,-2.4399240000000004,3.957828,0.8433816000000001,0.0,0.0,0.0,0.0
10.12,692.6598288,-2.3856696,3.7953696000000003,1.0735056,0.0,0.0,0.0,0.0
10.14,694.5114888,-1.9519392,3.6868608000000003,0.996696,0.0,0.0,0.0,0.0
10.16,696.3722928000001,-2.2229064000000003,3.8496240000000004,0.9201912000000001,0.0,0.0,0.0,0.0
10.18,698.373,-2.1686520000000002,3.6868608000000003,1.2268200000000002,0.0,0.0,0.0,0.0
10.2,700.3502376,-1.789176,3.957828,0.996696,0.0,0.0,0.0,0.0
10.22,702.3021768000001,-2.0061936,3.5240976,1.0735056,0.0,0.0,0.0,0.0
10.24,704.2480200000001,-1.6264128000000002,3.4698432,0.996696,0.0,0.0,0.0,0.0
10.26,706.2228192,-1.6806672000000002,3.6326064,0.996696,0.0,0.0,0.0,0.0
10.28,708.2634552000001,-1.8434304000000001,4.012082400000001,1.0735056,0.0,0.0,0.0,0.0
10.3,710.2013736,-1.6264128000000002,3.6868608000000003,1.0735056,0.0,0.0,0.0,0.0
10.32,712.2014712000001,-1.6806672000000002,3.6326064,1.2268200000000002,0.0,0.0,0.0,0.0
10.34,714.1464000000001,-1.8434304000000001,3.7953696000000003,1.2268200000000002,0.0,0.0,0.0,0.0
10.36,716.0510952,-1.8434304000000001,3.578352,0.996696,0.0,0.0,0.0,0.0
10.379999999999999,717.8399664,-1.8434304000000001,3.4698432,0.996696,0.0,0.0,0.0,0.0
10.4,719.6507832000001,-1.8976848000000002,3.6326064,1.0735056,0.0,0.0,0.0,0.0
10.42,721.3948488,-2.0601432,3.578352,1.0735056,0.0,0.0,0.0,0.0
10.44,723.1285512000001,-2.2229064000000003,3.3073848000000003,1.1500104,0.0,0.0,0.0,0.0
10.459999999999999,724.9491216,-2.2229064000000003,3.3073848000000003,1.2268200000000002,0.0,0.0,0.0,0.0
10.48,726.6941016000001,-2.0601432,3.3616392,1.0735056,0.0,0.0,0.0,0.0
10.5,728.48724,-2.1686520000000002,3.1446216000000002,1.3036296,0.0,0.0,0.0,0.0
10.52,730.4303400000001,-2.1143976,3.4158936000000004,1.1500104,0.0,0.0,0.0,0.0
10.54,732.2722464,-2.2229064000000003,3.3073848000000003,1.1500104,0.0,0.0,0.0,0.0
10.56,734.0364288,-2.0601432,2.9279088,0.996696,0.0,0.0,0.0,0.0
10.58,735.8789448,-1.8434304000000001,3.3616392,1.1500104,0.0,0.0,0.0,0.0
10.6,737.5766808000001,-1.789176,3.5240976,1.1500104,0.0,0.0,0.0,0.0
10.62,739.2030936,-1.8434304000000001,3.0361128,1.0735056,0.0,0.0,0.0,0.0
10.64,740.8191432,-2.1143976,3.4158936000000004,0.996696,0.0,0.0,0.0,0.0
10.66,742.4330592000001,-2.2771608000000003,3.2531304000000003,0.6900672,0.0,0.0,0.0,0.0
10.68,743.9878440000001,-1.9519392,3.578352,0.8433816000000001,0.0,0.0,0.0,0.0
10.7,745.5398855999999,-1.8976848000000002,3.198876,0.9201912000000001,0.0,0.0,0.0,0.0
10.72,747.012984,-1.9519392,3.2531304000000003,0.7668768,0.0,0.0,0.0,0.0
10.74,748.6284240000001,-1.8976848000000002,3.4158936000000004,0.6900672,0.0,0.0,0.0,0.0
10.76,750.0704328,-1.8434304000000001,3.4698432,0.7668768,0.0,0.0,0.0,0.0
10.78,751.677948,-2.0061936,3.3073848000000003,0.8433816000000001,0.0,0.0,0.0,0.0
10.8,753.4156128,-1.789176,2.9818584,0.7668768,0.0,0.0,0.0,0.0
10.82,755.0359296,-1.789176,3.0903671999999998,0.8433816000000001,0.0,0.0,0.0,0.0
10.84,756.5510904,-1.9519392,3.2531304000000003,0.9201912000000001,0.0,0.0,0.0,0.0
10.86,758.2277952,-2.0061936,2.8736544000000004,0.8433816000000001,0.0,0.0,0.0,0.0
10.879999999999999,759.9416856,-2.1143976,3.3073848000000003,0.996696,0.0,0.0,0.0,0.0
10.9,761.5059192,-1.6806672000000002,2.8736544000000004,0.8433816000000001,0.0,0.0,0.0,0.0
10.92,763.2240768,-1.7349216,3.1446216000000002,0.996696,0.0,0.0,0.0,0.0
10.94,764.9632656,-1.9519392,2.9279088,1.0735056,0.0,0.0,0.0,0.0
10.959999999999999,766.6826424,-1.5182088,3.0361128,0.9201912000000001,0.0,0.0,0.0,0.0
10.98,768.3465456000001,-1.789176,2.9818584,0.996696,0.0,0.0,0.0,0.0
11.0,770.0628744,-1.7349216,3.1446216000000002,0.996696,0.0,0.0,0.0,0.0
11.02,771.6731328,-1.6264128000000002,3.2531304000000003,0.8433816000000001,0.0,0.0,0.0,0.0
11.04,773.1681768000001,-1.4639544,2.9818584,1.0735056,0.0,0.0,0.0,0.0
11.06,774.7778256,-1.8976848000000002,3.3073848000000003,0.8433816000000001,0.0,0.0,0.0,0.0
11.08,776.3502888,-1.5724632,2.8736544000000004,0.9201912000000001,0.0,0.0,0.0,0.0
11.1,777.9773112,-1.5724632,2.9818584,0.6900672,0.0,0.0,0.0,0.0
11.12,779.4501048,-1.8976848000000002,3.198876,1.0735056,0.0,0.0,0.0,0.0
11.14,780.9338712000001,-1.8434304000000001,3.0361128,0.7668768,0.0,0.0,0.0,0.0
11.16,782.5642464,-1.6806672000000002,2.8736544000000004,0.7668768,0.0,0.0,0.0,0.0
11.18,784.0699584,-1.8976848000000002,2.7651456,0.9201912000000001,0.0,0.0,0.0,0.0
11.2,785.6445552,-1.6264128000000002,2.9279088,0.6900672,0.0,0.0,0.0,0.0
11.22,787.22982,-1.5182088,3.0361128,0.6900672,0.0,0.0,0.0,0.0
11.24,788.7986256,-1.7349216,2.7108912000000003,0.6900672,0.0,0.0,0.0,0.0
11.26,790.3912056,-1.8434304000000001,2.6023824,0.9201912000000001,0.0,0.0,0.0,0.0
11.28,791.9548296,-1.8976848000000002,2.8736544000000004,0.7668768,0.0,0.0,0.0,0.0
11.3,793.3831224,-1.4639544,2.7651456,0.9201912000000001,0.0,0.0,0.0,0.0
11.32,794.8803,-1.4097000000000002,2.8194000000000004,0.8433816000000001,0.0,0.0,0.0,0.0
11.34,796.4405712000001,-1.5182088,2.7108912000000003,0.6900672,0.0,0.0,0.0,0.0
11.36,797.9691432000001,-1.6264128000000002,2.8194000000000004,0.7668768,0.0,0.0,0.0,0.0
11.379999999999999,799.4879616000001,-1.4639544,2.6566368,0.5367528,0.0,0.0,0.0,0.0
11.4,801.1344912,-1.5724632,2.8736544000000004,0.6135624,0.0,0.0,0.0,0.0
11.42,802.6975056,-1.3554456000000001,2.6566368,0.5367528,0.0,0.0,0.0,0.0
11.44,804.1270176,-1.6264128000000002,2.7108912000000003,0.4599432,0.0,0.0,0.0,0.0
11.459999999999999,805.6659528,-1.4639544,2.7651456,0.5367528,0.0,0.0,0.0,0.0
11.48,807.1933056,-1.5182088,2.8194000000000004,0.6900672,0.0,0.0,0.0,0.0
11.5,808.8044784,-1.2469368,2.7651456,0.4599432,0.0,0.0,0.0,0.0
11.52,810.2406960000001,-1.4639544,2.8736544000000004,0.7668768,0.0,0.0,0.0,0.0
11.54,811.8832632000001,-1.4639544,2.7651456,0.6900672,0.0,0.0,0.0,0.0
11.56,813.3002784,-1.4097000000000002,2.6023824,0.6135624,0.0,0.0,0.0,0.0
11.58,814.728876,-1.6806672000000002,2.6566368,0.5367528,0.0,0.0,0.0,0.0
11.6,816.1596072,-1.5724632,2.7651456,0.6900672,0.0,0.0,0.0,0.0
11.62,817.6104552,-1.789176,2.7651456,0.6900672,0.0,0.0,0.0,0.0
11.64,819.0622176,-1.6806672000000002,2.6566368,0.6900672,0.0,0.0,0.0,0.0
11.66,820.5597,-1.5724632,2.548128,0.8433816000000001,0.0,0.0,0.0,0.0
11.68,821.9943936,-1.4097000000000002,2.7108912000000003,0.7668768,0.0,0.0,0.0,0.0
11.7,823.459872,-1.3554456000000001,2.6566368,0.7668768,0.0,0.0,0.0,0.0
11.72,824.9985024000001,-1.3554456000000001,2.6566368,0.8433816000000001,0.0,0.0,0.0,0.0
11.74,826.4417304,-1.5724632,2.6566368,0.9201912000000001,0.0,0.0,0.0,0.0
11.76,827.9035512,-1.6264128000000002,2.3856696,0.6135624,0.0,0.0,0.0,0.0
11.78,829.456812,-1.3011912,2.3856696,0.8433816000000001,0.0,0.0,0.0,0.0
11.8,830.9387496,-1.4097000000000002,2.4941784,0.8433816000000001,0.0,0.0,0.0,0.0
11.82,832.4877432000001,-1.5182088,2.4941784,0.7668768,0.0,0.0,0.0,0.0
11.84,833.8471512000001,-1.5182088,2.7108912000000003,0.6900672,0.0,0.0,0.0,0.0
11.86,835.3004376000001,-1.5182088,2.3856696,0.6900672,0.0,0.0,0.0,0.0
11.88,836.7342168,-1.2469368,2.2229064000000003,0.6900672,0.0,0.0,0.0,0.0
11.9,838.1262384,-1.5724632,2.4399240000000004,0.9201912000000001,0.0,0.0,0.0,0.0
11.92,839.5210032,-1.4097000000000002,2.3856696,0.6900672,0.0,0.0,0.0,0.0
11.94,840.831948,-1.5724632,2.3314152,0.6900672,0.0,0.0,0.0,0.0
11.96,842.2087296000001,-1.4639544,2.548128,0.6135624,0.0,0.0,0.0,0.0
11.98,843.462372,-1.4639544,2.548128,0.5367528,0.0,0.0,0.0,0.0
12.0,844.7532,-1.5182088,2.6023824,0.6135624,0.0,0.0,0.0,0.0
12.02,846.0668880000001,-1.4097000000000002,2.6023824,0.5367528,0.0,0.0,0.0,0.0
12.040000000000001,847.3814904000001,-1.4097000000000002,2.6023824,0.5367528,0.0,0.0,0.0,0.0
12.06,848.6223312000001,-1.3011912,2.4941784,0.3834384,0.0,0.0,0.0,0.0
12.08,849.8884704000001,-1.6264128000000002,2.3856696,0.5367528,0.0,0.0,0.0,0.0
12.1,851.1835656,-1.3011912,2.3856696,0.6135624,0.0,0.0,0.0,0.0
12.120000000000001,852.4777464,-1.5182088,2.4941784,0.6900672,0.0,0.0,0.0,0.0
12.14,853.8441648,-1.3554456000000001,2.3314152,0.30662880000000003,0.0,0.0,0.0,0.0
12.16,855.1234104000001,-1.789176,2.548128,0.30662880000000003,0.0,0.0,0.0,0.0
12.18,856.3996080000001,-1.3011912,2.2771608000000003,0.3834384,0.0,0.0,0.0,0.0
12.200000000000001,857.725488,-1.4639544,2.1143976,0.6135624,0.0,0.0,0.0,0.0
12.22,859.1723736,-1.4097000000000002,2.4941784,0.5367528,0.0,0.0,0.0,0.0
12.24,860.4970344,-1.4639544,2.2229064000000003,0.3834384,0.0,0.0,0.0,0.0
12.26,861.6696000000001,-1.3554456000000001,2.3314152,0.3834384,0.0,0.0,0.0,0.0
12.280000000000001,862.9960896,-1.5182088,2.2771608000000003,0.3834384,0.0,0.0,0.0,0.0
12.3,864.3158736,-1.5182088,2.2771608000000003,0.5367528,0.0,0.0,0.0,0.0
12.32,865.6335240000001,-1.4639544,2.4399240000000004,0.30662880000000003,0.0,0.0,0.0,0.0
12.34,866.8853376000001,-1.2469368,2.1143976,0.3834384,0.0,0.0,0.0,0.0
12.36,868.1322744,-1.5724632,2.3314152,0.30662880000000003,0.0,0.0,0.0,0.0
12.38,869.4218832000001,-1.6806672000000002,2.1143976,0.5367528,0.0,0.0,0.0,0.0
12.4,870.6313296000001,-1.4097000000000002,2.0601432,0.30662880000000003,0.0,0.0,0.0,0.0
12.42,871.9602576000001,-1.8434304000000001,2.1686520000000002,0.5367528,0.0,0.0,0.0,0.0
12.44,873.2474280000001,-1.4639544,2.2229064000000003,0.23012400000000002,0.0,0.0,0.0,0.0
12.46,874.4785152000001,-1.789176,2.2229064000000003,0.6900672,0.0,0.0,0.0,0.0
12.48,875.605056,-1.5182088,2.1686520000000002,0.15331440000000002,0.0,0.0,0.0,0.0
12.5,876.7898136,-1.789176,2.2229064000000003,0.30662880000000003,0.0,0.0,0.0,0.0
12.52,878.17452,-1.4097000000000002,1.9519392,0.4599432,0.0,0.0,0.0,0.0
12.540000000000001,879.3763464,-1.1387328,2.1143976,0.0768096,0.0,0.0,0.0,0.0
12.56,880.6110912,-1.3554456000000001,2.3314152,0.30662880000000003,0.0,0.0,0.0,0.0
12.58,881.8750968,-1.3554456000000001,2.3314152,0.15331440000000002,0.0,0.0,0.0,0.0
12.6,883.2375528,-1.2469368,2.2229064000000003,0.30662880000000003,0.0,0.0,0.0,0.0
12.620000000000001,884.6003136,-1.1926824,2.3856696,0.30662880000000003,0.0,0.0,0.0,0.0
12.64,885.8710248,-1.1926824,2.0601432,0.23012400000000002,0.0,0.0,0.0,0.0
12.66,887.0094528000001,-1.4639544,2.3314152,0.30662880000000003,0.0,0.0,0.0,0.0
12.68,888.2051832000001,-1.3011912,2.1686520000000002,0.23012400000000002,0.0,0.0,0.0,0.0
12.700000000000001,889.4359655999999,-1.3011912,2.0601432,0.0768096,0.0,0.0,0.0,0.0
12.72,890.7097248,-1.6264128000000002,2.0601432,0.23012400000000002,0.0,0.0,0.0,0.0
12.74,891.8682696,-1.3554456000000001,1.789176,0.5367528,0.0,0.0,0.0,0.0
12.76,893.0508936,-1.3554456000000001,2.0061936,0.4599432,0.0,0.0,0.0,0.0
12.780000000000001,894.1762152,-1.3554456000000001,2.1143976,0.30662880000000003,0.0,0.0,0.0,0.0
12.8,895.3628016,-1.3011912,1.9519392,0.23012400000000002,0.0,0.0,0.0,0.0
12.82,896.5268328,-1.4097000000000002,1.8434304000000001,0.3834384,0.0,0.0,0.0,0.0
12.84,897.7301832,-1.3554456000000001,1.8976848000000002,0.0768096,0.0,0.0,0.0,0.0
12.86,898.8768408,-1.3011912,1.9519392,0.30662880000000003,0.0,0.0,0.0,0.0
12.88,900.0890304,-1.4639544,2.1143976,0.5367528,0.0,0.0,0.0,0.0
12.9,901.3365768000001,-1.1926824,1.9519392,0.4599432,0.0,0.0,0.0,0.0
12.92,902.4049008000001,-1.3554456000000001,2.0061936,0.23012400000000002,0.0,0.0,0.0,0.0
12.94,903.5600928000001,-1.3011912,1.9519392,0.4599432,0.0,0.0,0.0,0.0
12.96,904.7518608,-1.3011912,1.9519392,0.23012400000000002,0.0,0.0,0.0,0.0
12.98,906.1255944000001,-1.3011912,1.9519392,0.3834384,0.0,0.0,0.0,0.0
13.0,907.542,-1.1926824,1.9519392,0.23012400000000002,0.0,0.0,0.0,0.0
13.02,908.8916544,-1.4097000000000002,2.3856696,0.0768096,0.0,0.0,0.0,0.0
13.040000000000001,910.4129112,-1.3554456000000001,1.8976848000000002,0.15331440000000002,0.0,0.0,0.0,0.0
13.06,911.8933248,-1.0844784,2.0601432,0.0,0.0,0.0,0.0,0.0
13.08,913.5819167999999,-1.3011912,1.9519392,0.3834384,0.0,0.0,0.0,0.0
13.1,915.0510528,-1.030224,1.8976848000000002,0.3834384,0.0,0.0,0.0,0.0
13.120000000000001,916.4833080000001,-1.6264128000000002,1.8434304000000001,0.15331440000000002,0.0,0.0,0.0,0.0
13.14,917.9442144000001,-1.3554456000000001,1.8976848000000002,0.3834384,0.0,0.0,0.0,0.0
13.16,919.2639984000001,-1.3554456000000001,2.0061936,0.3834384,0.0,0.0,0.0,0.0
13.18,920.5974984000001,-1.3011912,1.9519392,0.4599432,0.0,0.0,0.0,0.0
13.200000000000001,921.7801224000001,-1.5724632,1.789176,0.4599432,0.0,0.0,0.0,0.0
13.22,922.7326224000001,-1.4097000000000002,1.8434304000000001,0.23012400000000002,0.0,0.0,0.0,0.0
13.24,923.90976,-1.3011912,1.9519392,0.15331440000000002,0.0,0.0,0.0,0.0
13.26,925.0609896,-1.3011912,1.8434304000000001,0.0768096,0.0,0.0,0.0,0.0
13.280000000000001,926.2024656,-1.4097000000000002,1.8434304000000001,0.0768096,0.0,0.0,0.0,0.0
13.3,927.3847848,-1.1926824,1.9519392,0.15331440000000002,0.0,0.0,0.0,0.0
13.32,928.5253464,-1.2469368,2.0061936,0.23012400000000002,0.0,0.0,0.0,0.0
13.34,929.4894288,-1.3554456000000001,1.8976848000000002,0.23012400000000002,0.0,0.0,0.0,0.0
13.36,930.5242248,-1.4097000000000002,1.9519392,0.4599432,0.0,0.0,0.0,0.0
13.38,931.5870624,-1.5182088,1.9519392,0.15331440000000002,0.0,0.0,0.0,0.0
13.4,932.4673248,-1.5182088,1.7349216,0.0768096,0.0,0.0,0.0,0.0
13.42,933.3018672000001,-1.2469368,1.789176,0.0768096,0.0,0.0,0.0,0.0
13.44,934.2878952,-1.4639544,1.789176,0.15331440000000002,0.0,0.0,0.0,0.0
13.46,935.1184752000001,-1.3011912,1.9519392,0.3834384,0.0,0.0,0.0,0.0
13.48,936.0389712000001,-1.5182088,1.8434304000000001,0.23012400000000002,0.0,0.0,0.0,0.0
13.5,936.8259648000001,-1.3554456000000001,1.789176,0.15331440000000002,0.0,0.0,0.0,0.0
13.52,937.6452672,-1.4639544,1.789176,0.0768096,0.0,0.0,0.0,0.0
13.540000000000001,938.4112296000001,-1.4639544,1.789176,0.30662880000000003,0.0,0.0,0.0,0.0
13.56,939.1714008000001,-1.4097000000000002,1.7349216,0.30662880000000003,0.0,0.0,0.0,0.0
13.58,940.0376424,-1.3011912,1.7349216,0.0768096,0.0,0.0,0.0,0.0
13.6,940.8560304,-1.3554456000000001,1.789176,0.15331440000000002,0.0,0.0,0.0,0.0
13.620000000000001,941.8097496,-1.2469368,1.8976848000000002,0.0768096,0.0,0.0,0.0,0.0
13.64,942.7997400000002,-1.3554456000000001,1.8976848000000002,0.30662880000000003,0.0,0.0,0.0,0.0
13.66,943.7641272000001,-1.1926824,1.8434304000000001,0.30662880000000003,0.0,0.0,0.0,0.0
13.68,944.6434752000001,-1.4097000000000002,1.5182088,0.23012400000000002,0.0,0.0,0.0,0.0
13.700000000000001,945.5883552,-1.3554456000000001,1.6806672000000002,0.0768096,0.0,0.0,0.0,0.0
13.72,946.5009264,-1.4097000000000002,1.8434304000000001,0.0768096,0.0,0.0,0.0,0.0
13.74,947.4878688000001,-1.1926824,1.7349216,0.23012400000000002,0.0,0.0,0.0,0.0
13.76,948.3471000000001,-1.3011912,1.8434304000000001,0.0768096,0.0,0.0,0.0,0.0
13.780000000000001,949.4084136,-1.5182088,1.7349216,0.0768096,0.0,0.0,0.0,0.0
13.8,950.5038648000001,-1.4097000000000002,1.7349216,0.4599432,0.0,0.0,0.0,0.0
13.82,951.6422928000001,-1.3011912,1.8434304000000001,0.3834384,0.0,0.0,0.0,0.0
13.84,952.504572,-1.3554456000000001,1.789176,0.23012400000000002,0.0,0.0,0.0,0.0
13.86,953.5302240000001,-1.4097000000000002,1.5182088,0.30662880000000003,0.0,0.0,0.0,0.0
13.88,954.5830032,-1.4639544,1.6806672000000002,0.30662880000000003,0.0,0.0,0.0,0.0
13.9,955.6095696,-1.3554456000000001,1.4639544,0.30662880000000003,0.0,0.0,0.0,0.0
13.92,956.5453056,-1.5182088,1.6264128000000002,0.23012400000000002,0.0,0.0,0.0,0.0
13.94,957.4011840000001,-1.2469368,1.6806672000000002,0.0768096,0.0,0.0,0.0,0.0
13.96,958.2683400000001,-1.5182088,1.6264128000000002,0.4599432,0.0,0.0,0.0,0.0
13.98,959.0836800000001,-1.1926824,1.4097000000000002,0.0768096,0.0,0.0,0.0,0.0
14.0,959.9566272000001,-1.4639544,1.789176,0.15331440000000002,0.0,0.0,0.0,0.0
14.02,960.7360008,-1.3554456000000001,1.5724632,0.23012400000000002,0.0,0.0,0.0,0.0
14.040000000000001,961.5595704,-1.3554456000000001,1.789176,0.23012400000000002,0.0,0.0,0.0,0.0
14.06,962.4367848,-1.4097000000000002,1.7349216,0.0768096,0.0,0.0,0.0,0.0
14.08,963.1622088,-1.1926824,1.6264128000000002,0.0768096,0.0,0.0,0.0,0.0
14.1,963.9656616000001,-1.1926824,1.6264128000000002,0.30662880000000003,0.0,0.0,0.0,0.0
14.120000000000001,964.7435112000001,-1.4097000000000002,1.5182088,0.0768096,0.0,0.0,0.0,0.0
14.14,965.533248,-1.1387328,1.5724632,0.15331440000000002,0.0,0.0,0.0,0.0
14.16,966.3016488000001,-1.3011912,1.7349216,0.30662880000000003,0.0,0.0,0.0,0.0
14.18,967.1215608,-1.5182088,1.6264128000000002,0.0768096,0.0,0.0,0.0,0.0
14.200000000000001,967.9530552000001,-1.3554456000000001,1.789176,0.0768096,0.0,0.0,0.0,0.0
14.22,968.7022536000001,-1.030224,1.5724632,0.15331440000000002,0.0,0.0,0.0,0.0
14.24,969.4517568,-1.1926824,1.7349216,0.15331440000000002,0.0,0.0,0.0,0.0
14.26,970.2570383999999,-1.030224,1.4639544,0.15331440000000002,0.0,0.0,0.0,0.0
14.280000000000001,971.0726832000001,-1.0844784,1.7349216,0.23012400000000002,0.0,0.0,0.0,0.0
14.3,971.9352672000001,-1.1387328,1.8976848000000002,0.23012400000000002,0.0,0.0,0.0,0.0
14.32,972.9377544,-1.2469368,1.4639544,0.3834384,0.0,0.0,0.0,0.0
14.34,973.884768,-1.0844784,1.5182088,0.23012400000000002,0.0,0.0,0.0,0.0
14.36,974.7202248,-1.2469368,1.6806672000000002,0.23012400000000002,0.0,0.0,0.0,0.0
14.38,975.5718360000001,-1.030224,1.6806672000000002,0.15331440000000002,0.0,0.0,0.0,0.0
14.4,976.5359184000001,-1.030224,1.5724632,0.15331440000000002,0.0,0.0,0.0,0.0
14.42,977.4225816,-1.030224,1.6806672000000002,0.15331440000000002,0.0,0.0,0.0,0.0
14.44,978.4022087999999,-1.030224,1.6806672000000002,0.0768096,0.0,0.0,0.0,0.0
14.46,979.2867384,-1.030224,1.6806672000000002,0.23012400000000002,0.0,0.0,0.0,0.0
14.48,980.1737064000001,-1.0844784,1.6264128000000002,0.15331440000000002,0.0,0.0,0.0,0.0
14.5,981.00642,-1.030224,1.6806672000000002,0.0768096,0.0,0.0,0.0,0.0
14.52,981.7684200000001,-1.0844784,1.5182088,0.15331440000000002,0.0,0.0,0.0,0.0
14.540000000000001,982.533468,-1.030224,1.6806672000000002,0.15331440000000002,0.0,0.0,0.0,0.0
14.56,983.2838856,-1.1387328,1.5724632,0.0768096,0.0,0.0,0.0,0.0
14.58,983.943168,-1.0844784,1.6264128000000002,0.0768096,0.0,0.0,0.0,0.0
14.6,984.6311016000001,-1.030224,1.5724632,0.15331440000000002,0.0,0.0,0.0,0.0
14.620000000000001,985.3351896,-1.1387328,1.6806672000000002,0.15331440000000002,0.0,0.0,0.0,0.0
14.64,985.9606392000001,-1.030224,1.5724632,0.0768096,0.0,0.0,0.0,0.0
14.66,986.6019384,-1.0844784,1.5182088,0.0768096,0.0,0.0,0.0,0.0
14.68,987.2767656,-0.9759696,1.6264128000000002,0.0768096,0.0,0.0,0.0,0.0
14.700000000000001,987.8641152,-1.0844784,1.5182088,0.0768096,0.0,0.0,0.0,0.0
14.72,988.4487216,-1.1387328,1.6806672000000002,0.0768096,0.0,0.0,0.0,0.0
14.74,989.034852,-1.0844784,1.5182088,0.0768096,0.0,0.0,0.0,0.0
14.76,989.6761512,-1.1387328,1.5724632,0.15331440000000002,0.0,0.0,0.0,0.0
14.780000000000001,990.2796552000001,-1.0844784,1.5182088,0.0768096,0.0,0.0,0.0,0.0
14.8,990.9974592000001,-0.9759696,1.5182088,0.0768096,0.0,0.0,0.0,0.0
14.82,991.6939272000001,-0.9759696,1.5182088,0.0768096,0.0,0.0,0.0,0.0
14.84,992.4086832000002,-1.0844784,1.5182088,0.0768096,0.0,0.0,0.0,0.0
14.86,993.0390096,-1.0844784,1.4097000000000002,0.0768096,0.0,0.0,0.0,0.0
14.88,993.6339792000001,-0.9759696,1.5182088,0.0768096,0.0,0.0,0.0,0.0
14.9,994.3350192,-1.1387328,1.4639544,0.15331440000000002,0.0,0.0,0.0,0.0
14.92,994.9821096000001,-1.0844784,1.4097000000000002,0.15331440000000002,0.0,0.0,0.0,0.0
14.94,995.7310032,-0.9759696,1.6264128000000002,0.0768096,0.0,0.0,0.0,0.0
14.96,996.4311288,-1.1387328,1.3554456000000001,0.15331440000000002,0.0,0.0,0.0,0.0
14.98,997.1516760000001,-0.9217152000000001,1.3554456000000001,0.15331440000000002,0.0,0.0,0.0,0.0
