time,baro_altitude,accl_x,accl_y,accl_z,gps_altitude,gyro_roll,gyro_pitch,gyro_yaw
0.0,0.0,-0.5964936000000001,4.0663368,9.4311216,0.0,0.0,0.0,0.0
0.020000000000000018,0.2170176,-0.650748,4.012082400000001,9.4311216,0.0,0.0,0.0,0.0
0.040000000000000036,0.47122080000000005,-0.5964936000000001,4.0663368,9.3546168,0.0,0.0,0.0,0.0
0.06000000000000005,0.5108448000000001,-0.5422392,4.012082400000001,9.4311216,0.0,0.0,0.0,0.0
0.08000000000000007,0.649224,-0.5422392,4.012082400000001,9.3546168,0.0,0.0,0.0,0.0
0.10000000000000009,0.6056376000000001,-0.4879848,3.957828,9.3546168,0.0,0.0,0.0,0.0
0.1200000000000001,0.5321808,-0.7046976,4.0663368,9.2778072,0.0,0.0,0.0,0.0
0.14000000000000012,0.4690872000000001,-0.7589520000000001,4.012082400000001,9.3546168,0.0,0.0,0.0,0.0
0.16000000000000014,0.3828288,-0.7589520000000001,4.120591200000001,9.4311216,0.0,0.0,0.0,0.0
0.18000000000000016,0.1002792,-0.7046976,4.0663368,9.4311216,0.0,0.0,0.0,0.0
0.20000000000000018,0.0630936,-0.7046976,4.0663368,9.3546168,0.0,0.0,0.0,0.0
0.2200000000000002,-0.009144,-0.650748,4.120591200000001,9.2778072,0.0,0.0,0.0,0.0
0.2400000000000002,0.0246888,-0.7046976,4.1748456,9.3546168,0.0,0.0,0.0,0.0
0.26000000000000023,0.2877312,-0.650748,4.012082400000001,9.3546168,0.0,0.0,0.0,0.0
0.28000000000000025,0.368808,-0.5964936000000001,4.1748456,9.3546168,0.0,0.0,0.0,0.0
0.30000000000000027,0.41574720000000004,-0.5964936000000001,4.1748456,9.3546168,0.0,0.0,0.0,0.0
0.3200000000000003,0.5647944,-0.4879848,4.0663368,9.3546168,0.0,0.0,0.0,0.0
0.33999999999999986,0.5498592,-0.5422392,4.120591200000001,9.5079312,0.0,0.0,0.0,0.0
0.3599999999999999,0.5315712,-0.4879848,4.1748456,9.3546168,0.0,0.0,0.0,0.0
0.3799999999999999,0.4142232,-0.650748,4.2291,9.3546168,0.0,0.0,0.0,0.0
0.3999999999999999,0.33467040000000003,-0.5422392,4.120591200000001,9.3546168,0.0,0.0,0.0,0.0
0.41999999999999993,0.5315712,-0.5964936000000001,4.0663368,9.4311216,0.0,0.0,0.0,0.0
0.43999999999999995,0.3584448,-0.4879848,4.0663368,9.4311216,0.0,0.0,0.0,0.0
0.45999999999999996,0.2023872,-0.7046976,4.0663368,9.3546168,0.0,0.0,0.0,0.0
0.48,0.16611599999999999,-0.7046976,4.0663368,9.5079312,0.0,0.0,0.0,0.0
0.5,0.12039600000000002,-0.650748,4.012082400000001,9.3546168,0.0,0.0,0.0,0.0
0.52,0.20756880000000003,-0.650748,4.012082400000001,9.4311216,0.0,0.0,0.0,0.0
0.54,0.28133040000000004,-0.5964936000000001,4.0663368,9.4311216,0.0,0.0,0.0,0.0
0.56,0.060350400000000005,-0.7046976,4.1748456,9.3546168,0.0,0.0,0.0,0.0
0.5800000000000001,0.005791199999999997,-0.7589520000000001,4.120591200000001,9.3546168,0.0,0.0,0.0,0.0
0.6000000000000001,0.08351520000000001,-0.5964936000000001,4.0663368,9.2778072,0.0,0.0,0.0,0.0
0.6200000000000001,0.086868,-0.650748,4.120591200000001,9.3546168,0.0,0.0,0.0,0.0
0.6400000000000001,0.3392424,-0.5964936000000001,4.0663368,9.2013024,0.0,0.0,0.0,0.0
0.6600000000000001,0.29169360000000005,-0.650748,4.2291,9.2778072,0.0,0.0,0.0,0.0
0.6800000000000002,0.039624000000000006,-0.5422392,4.120591200000001,9.3546168,0.0,0.0,0.0,0.0
0.7000000000000002,0.1877568,-0.5964936000000001,4.0663368,9.4311216,0.0,0.0,0.0,0.0
0.72,-0.006400799999999997,-0.5964936000000001,4.0663368,9.4311216,0.0,0.0,0.0,0.0
0.74,0.3355848,-0.650748,4.120591200000001,9.4311216,0.0,0.0,0.0,0.0
0.76,0.2298192,-0.5422392,4.120591200000001,9.3546168,0.0,0.0,0.0,0.0
0.78,0.24201120000000004,-0.5964936000000001,3.957828,9.4311216,0.0,0.0,0.0,0.0
0.8,0.233172,-0.5964936000000001,4.0663368,9.4311216,0.0,0.0,0.0,0.0
0.8200000000000001,0.3069336,-0.7589520000000001,4.120591200000001,9.3546168,0.0,0.0,0.0,0.0
0.8400000000000001,0.23012399999999997,-0.7046976,4.0663368,9.5079312,0.0,0.0,0.0,0.0
0.8600000000000001,0.1045464,-0.7046976,4.0663368,9.4311216,0.0,0.0,0.0,0.0
0.8800000000000001,0.16885920000000001,-0.650748,4.012082400000001,9.3546168,0.0,0.0,0.0,0.0
0.9000000000000001,0.2036064,-0.5964936000000001,3.957828,9.3546168,0.0,0.0,0.0,0.0
0.9200000000000002,0.1161288,-0.7589520000000001,4.120591200000001,9.4311216,0.0,0.0,0.0,0.0
0.9400000000000002,0.16459200000000002,-0.7046976,4.1748456,9.4311216,0.0,0.0,0.0,0.0
0.96,0.0880872,-0.5422392,4.120591200000001,9.3546168,0.0,0.0,0.0,0.0
0.98,0.0627888,-0.5964936000000001,3.957828,9.4311216,0.0,0.0,0.0,0.0
1.0,0.11033760000000001,-0.5964936000000001,4.0663368,9.4311216,0.0,0.0,0.0,0.0
1.02,-0.014325600000000004,-0.5422392,4.120591200000001,9.3546168,0.0,0.0,0.0,0.0
1.04,0.23378159999999998,-0.5964936000000001,4.1748456,9.2778072,0.0,0.0,0.0,0.0
1.06,0.135636,-0.5964936000000001,3.957828,9.2778072,0.0,0.0,0.0,0.0
1.08,0.222504,-0.4879848,4.0663368,9.4311216,0.0,0.0,0.0,0.0
1.1,0.0917448,-0.5964936000000001,4.0663368,9.3546168,0.0,0.0,0.0,0.0
1.12,0.0688848,-0.5422392,4.120591200000001,9.3546168,0.0,0.0,0.0,0.0
1.1400000000000001,0.12039600000000002,-0.650748,4.120591200000001,9.4311216,0.0,0.0,0.0,0.0
1.1600000000000001,0.16062959999999998,-0.7046976,4.0663368,9.3546168,0.0,0.0,0.0,0.0
1.1800000000000002,0.19354800000000003,-0.7046976,4.0663368,9.2778072,0.0,0.0,0.0,0.0
1.2000000000000002,0.20025360000000003,-0.8132064000000001,4.0663368,9.3546168,0.0,0.0,0.0,0.0
1.22,0.10759439999999999,-0.7046976,4.0663368,9.3546168,0.0,0.0,0.0,0.0
1.24,0.1316736,-0.5422392,4.120591200000001,9.2778072,0.0,0.0,0.0,0.0
1.26,0.16794479999999998,-0.7589520000000001,4.012082400000001,9.3546168,0.0,0.0,0.0,0.0
1.28,0.08138160000000001,-0.7046976,4.0663368,9.4311216,0.0,0.0,0.0,0.0
1.3,-0.16794479999999998,-0.7046976,4.1748456,9.4311216,0.0,0.0,0.0,0.0
1.32,-0.0326136,-0.7046976,4.0663368,9.2778072,0.0,0.0,0.0,0.0
1.34,-0.0515112,-0.5422392,4.012082400000001,9.4311216,0.0,0.0,0.0,0.0
1.36,0.0179832,-0.4337304,4.012082400000001,9.3546168,0.0,0.0,0.0,0.0
1.3800000000000001,0.1581912,-0.5422392,4.012082400000001,9.4311216,0.0,0.0,0.0,0.0
1.4000000000000001,0.1709928,-0.5422392,4.120591200000001,9.3546168,0.0,0.0,0.0,0.0
1.4200000000000002,0.1304544,-0.650748,4.120591200000001,9.4311216,0.0,0.0,0.0,0.0
1.4400000000000002,0.2115312,-0.4879848,4.0663368,9.3546168,0.0,0.0,0.0,0.0
1.46,0.1078992,-0.4879848,4.0663368,9.4311216,0.0,0.0,0.0,0.0
1.48,0.2218944,-0.5422392,4.120591200000001,9.3546168,0.0,0.0,0.0,0.0
1.5,0.1959864,-0.7046976,4.0663368,9.3546168,0.0,0.0,0.0,0.0
1.52,0.0893064,-0.650748,4.120591200000001,9.3546168,0.0,0.0,0.0,0.0
1.54,0.054864,-0.7046976,4.0663368,9.4311216,0.0,0.0,0.0,0.0
1.56,0.25786080000000006,-0.650748,4.120591200000001,9.4311216,0.0,0.0,0.0,0.0
1.58,0.21915120000000005,-0.7046976,4.0663368,9.3546168,0.0,0.0,0.0,0.0
1.6,0.08625840000000001,-0.7046976,4.2833544,9.3546168,0.0,0.0,0.0,0.0
1.62,0.146304,-0.8132064000000001,4.1748456,9.3546168,0.0,0.0,0.0,0.0
1.6400000000000001,0.09479280000000001,-0.5964936000000001,4.0663368,9.4311216,0.0,0.0,0.0,0.0
1.6600000000000001,0.17129760000000002,-0.7046976,4.1748456,9.3546168,0.0,0.0,0.0,0.0
1.6800000000000002,0.29565600000000003,-0.650748,4.120591200000001,9.3546168,0.0,0.0,0.0,0.0
1.7000000000000002,0.1118616,-0.5964936000000001,4.0663368,9.3546168,0.0,0.0,0.0,0.0
1.7200000000000002,0.21336,-0.5422392,4.012082400000001,9.3546168,0.0,0.0,0.0,0.0
1.7400000000000002,0.1283208,-0.650748,4.012082400000001,9.4311216,0.0,0.0,0.0,0.0
1.7600000000000002,0.060655200000000006,-0.5964936000000001,3.957828,9.4311216,0.0,0.0,0.0,0.0
1.78,0.20634960000000002,-0.5964936000000001,4.0663368,9.3546168,0.0,0.0,0.0,0.0
1.8,0.1563624,-0.5422392,4.120591200000001,9.3546168,0.0,0.0,0.0,0.0
1.82,0.0673608,-0.5422392,4.012082400000001,9.4311216,0.0,0.0,0.0,0.0
1.84,-0.0987552,-0.650748,4.012082400000001,9.3546168,0.0,0.0,0.0,0.0
1.86,-0.08016240000000001,-0.7046976,4.0663368,9.4311216,0.0,0.0,0.0,0.0
1.8800000000000001,0.071628,-0.7589520000000001,4.120591200000001,9.3546168,0.0,0.0,0.0,0.0
1.9,-0.018288,-1.789176,4.5000672,9.2778072,0.0,0.0,0.0,0.0
1.92,-0.004876800000000005,-0.7589520000000001,4.445812800000001,9.2778072,0.0,0.0,0.0,0.0
1.94,0.1057656,-0.8132064000000001,4.0663368,9.3546168,0.0,0.0,0.0,0.0
1.96,0.277368,-0.650748,4.012082400000001,9.2778072,0.0,0.0,0.0,0.0
1.98,0.2624328,-0.7046976,4.1748456,9.2778072,0.0,0.0,0.0,0.0
2.0,0.4111752,-0.650748,4.012082400000001,9.3546168,0.0,0.0,0.0,0.0
2.02,0.5221224000000001,-0.5964936000000001,3.957828,9.4311216,0.0,0.0,0.0,0.0
2.04,0.5346192000000001,0.1085088,4.2291,8.4344256,0.0,0.0,0.0,0.0
2.06,0.7339584,-1.9519392,3.1446216000000002,9.4311216,0.0,0.0,0.0,0.0
2.08,0.9110472000000001,-0.650748,3.9035736000000005,9.1244928,0.0,0.0,0.0,0.0
2.1,0.8083296,-0.5964936000000001,4.1748456,9.891369599999999,0.0,0.0,0.0,0.0
2.12,0.6135624,-0.7046976,4.7170848,9.2778072,0.0,0.0,0.0,0.0
2.14,0.45140880000000005,0.1085088,4.120591200000001,9.3546168,0.0,0.0,0.0,0.0
2.16,0.3523488,-1.0844784,3.578352,9.1244928,0.0,0.0,0.0,0.0
2.18,0.20878800000000003,-0.7046976,3.957828,9.737750400000001,0.0,0.0,0.0,0.0
2.2,0.048768000000000006,-1.030224,3.957828,9.4311216,0.0,0.0,0.0,0.0
2.22,0.0100584,-0.4879848,4.0663368,9.5079312,0.0,0.0,0.0,0.0
2.24,-0.18897600000000003,-0.650748,3.578352,9.584436,0.0,0.0,0.0,0.0
2.2600000000000002,-0.2398776,-0.5964936000000001,4.2833544,9.584436,0.0,0.0,0.0,0.0
2.2800000000000002,-0.3127248,-0.4337304,4.2291,9.6612456,0.0,0.0,0.0,0.0
2.3,-0.22341840000000004,-0.4879848,3.8496240000000004,9.2778072,0.0,0.0,0.0,0.0
2.3200000000000003,-0.0908304,-0.7589520000000001,4.120591200000001,9.2778072,0.0,0.0,0.0,0.0
2.34,0.055168800000000004,-0.2170176,4.120591200000001,9.2778072,0.0,0.0,0.0,0.0
2.36,-0.021945600000000003,-0.5422392,4.554321600000001,9.3546168,0.0,0.0,0.0,0.0
2.38,0.1834896,-0.7589520000000001,4.2291,8.971178400000001,0.0,0.0,0.0,0.0
2.4,0.23164800000000002,-0.4337304,4.3376088,9.5079312,0.0,0.0,0.0,0.0
2.42,0.12100560000000002,-0.4879848,3.8496240000000004,9.5079312,0.0,0.0,0.0,0.0
2.44,0.0637032,-0.7589520000000001,4.3376088,9.6612456,0.0,0.0,0.0,0.0
2.46,0.020116799999999997,-0.5964936000000001,3.957828,9.2778072,0.0,0.0,0.0,0.0
2.48,-0.04846320000000001,-0.5964936000000001,3.6326064,9.1244928,0.0,0.0,0.0,0.0
2.5,0.047244,-0.7046976,3.957828,9.4311216,0.0,0.0,0.0,0.0
2.52,0.30449519999999997,-0.9217152000000001,4.0663368,9.814560000000002,0.0,0.0,0.0,0.0
2.54,0.3724656,-0.8132064000000001,4.1748456,9.3546168,0.0,0.0,0.0,0.0
2.56,0.4203192,-0.7046976,3.957828,9.2778072,0.0,0.0,0.0,0.0
2.58,0.18684240000000002,-0.5422392,4.445812800000001,9.3546168,0.0,0.0,0.0,0.0
2.6,0.24384000000000003,-0.5964936000000001,4.1748456,9.2013024,0.0,0.0,0.0,0.0
2.62,0.12009120000000001,-1.6806672000000002,4.1748456,9.2013024,0.0,0.0,0.0,0.0
2.64,0.16946880000000003,-0.8674608,7.807452,9.4311216,0.0,0.0,0.0,0.0
2.66,0.0591312,-0.7589520000000001,0.650748,32.8175112,0.0,0.0,0.0,0.0
2.68,1.4709648,-50.4773184,171.600876,97.2254088,0.0,0.0,0.0,0.0
2.7,1.682496,-11.8195344,41.6396424,-7.2841104,0.0,0.0,0.0,0.0
2.72,0.12100560000000002,9.0543888,-7.5364848,56.663844000000005,0.0,0.0,0.0,0.0
2.74,-1.0920984,-29.061156,91.4119584,-21.5460072,0.0,0.0,0.0,0.0
2.7600000000000002,-1.1259312000000001,-51.6700008,96.3460608,0.15331440000000002,0.0,0.0,0.0,0.0
2.7800000000000002,-0.8577072000000001,-45.2179944,98.35194960000001,38.3380488,0.0,0.0,0.0,0.0
2.8000000000000003,-0.5334,-81.4901088,92.44218240000001,6.594043200000001,0.0,0.0,0.0,0.0
2.8200000000000003,0.118872,-61.429392,98.51471280000001,4.1404032,0.0,0.0,0.0,0.0
2.84,0.41148000000000007,-62.839092,97.53874320000001,12.421514400000001,0.0,0.0,0.0,0.0
2.8600000000000003,0.6379464,-73.194672,99.0026976,19.3224912,0.0,0.0,0.0,0.0
2.88,1.0384536,-64.5740136,96.67128240000001,14.8751544,0.0,0.0,0.0,0.0
2.9,1.6008096,-65.7124416,93.5809152,8.5109304,0.0,0.0,0.0,0.0
2.92,2.2948392,-67.5019224,97.10501280000001,16.7920416,0.0,0.0,0.0,0.0
2.94,2.7041856,-74.0078784,108.16559520000001,13.571829600000001,0.0,0.0,0.0,0.0
2.96,2.7974544,-76.8815328,109.3040232,13.571829600000001,0.0,0.0,0.0,0.0
2.98,3.1626048,-70.4837808,102.58104960000001,15.565221600000001,0.0,0.0,0.0,0.0
3.0,3.4472880000000004,-47.3866464,71.5682592,10.888065600000001,0.0,0.0,0.0,0.0
3.02,3.8133528,-64.7367768,94.99031040000001,15.2585928,0.0,0.0,0.0,0.0
3.04,4.1090088,-72.1101936,102.90627120000002,12.1913904,0.0,0.0,0.0,0.0
3.06,4.1672256,-63.7608072,93.14688000000001,14.338401600000001,0.0,0.0,0.0,0.0
3.08,4.2879264,-80.29742639999999,122.6960208,18.4791096,0.0,0.0,0.0,0.0
3.1,4.39674,-85.88166720000001,124.5937056,17.0221656,0.0,0.0,0.0,0.0
3.12,4.4019216000000005,-47.874631199999996,76.6105656,16.101974400000003,0.0,0.0,0.0,0.0
3.14,4.3790616,-72.43572,104.53298880000001,17.2522896,0.0,0.0,0.0,0.0
3.16,4.1294304,-88.5386088,130.6119816,20.4725016,0.0,0.0,0.0,0.0
3.18,4.1181528,-63.43528080000001,97.26777600000001,19.3224912,0.0,0.0,0.0,0.0
3.2,3.6594288,-85.7192088,118.358412,20.779130400000003,0.0,0.0,0.0,0.0
3.22,3.3537144000000003,-62.1340896,92.60494560000001,17.0221656,0.0,0.0,0.0,0.0
3.24,3.3134808000000002,-73.84542,112.77417120000001,20.779130400000003,0.0,0.0,0.0,0.0
3.2600000000000002,2.7627072000000004,-58.772755200000006,93.2553888,17.3287944,0.0,0.0,0.0,0.0
3.2800000000000002,2.5274016,-71.8392264,108.4908168,18.5556144,0.0,0.0,0.0,0.0
3.3,1.8885408,-81.00212400000001,125.6778792,19.4758056,0.0,0.0,0.0,0.0
3.3200000000000003,1.5718536,-73.194672,119.6056536,19.0158624,0.0,0.0,0.0,0.0
3.34,1.4167104,-86.9661456,135.1120488,20.089063200000002,0.0,0.0,0.0,0.0
3.3600000000000003,1.3755624,-51.561492,83.11652160000001,12.651638400000001,0.0,0.0,0.0,0.0
3.38,1.2411456,-86.31539760000001,135.762492,18.708928800000002,0.0,0.0,0.0,0.0
3.4,0.9171432,-36.0550968,54.2723832,8.8943688,0.0,0.0,0.0,0.0
3.42,0.23073359999999998,-89.8940544,132.18414,14.185087200000002,0.0,0.0,0.0,0.0
3.44,-0.6699504000000001,-71.18847840000001,101.11709520000001,8.050987200000002,0.0,0.0,0.0,0.0
3.46,-1.5608808000000003,-48.200157600000004,73.4656392,14.5685256,0.0,0.0,0.0,0.0
3.48,-2.2177248,-66.14617199999999,94.7735976,18.2489856,0.0,0.0,0.0,0.0
3.5,-2.8450032,-76.8272784,113.8040904,21.9294456,0.0,0.0,0.0,0.0
3.52,-3.3780984000000003,-54.4351464,79.8094416,20.089063200000002,0.0,0.0,0.0,0.0
3.54,-3.8334696000000004,-62.6220744,94.06859520000002,24.459590400000003,0.0,0.0,0.0,0.0
3.56,-4.3241976,-83.65876080000001,120.2018424,19.1691768,0.0,0.0,0.0,0.0
3.58,-4.9249584,-83.11652160000001,119.5513992,18.0956712,0.0,0.0,0.0,0.0
3.6,-5.858256,-83.9842872,125.406912,16.4854128,0.0,0.0,0.0,0.0
3.62,-6.916826400000001,-66.2546808,111.58118400000001,15.335402400000001,0.0,0.0,0.0,0.0
3.64,-7.851648000000001,-41.8024056,76.9357872,13.6483344,0.0,0.0,0.0,0.0
3.66,-9.0562176,-63.1643136,103.17754320000002,21.699321599999998,0.0,0.0,0.0,0.0
3.68,-10.269931200000002,-84.580476,137.4977184,24.5364,0.0,0.0,0.0,0.0
3.7,-11.3291112,-49.7180616,74.8753392,19.2456816,0.0,0.0,0.0,0.0
3.7199999999999998,-12.732410400000001,-77.6947392,113.0451384,17.2522896,0.0,0.0,0.0,0.0
3.74,-14.15034,-66.9596832,98.40620400000002,17.5589184,0.0,0.0,0.0,0.0
3.76,-15.634716000000001,-62.3511072,91.62897600000001,14.4152112,0.0,0.0,0.0,0.0
3.7800000000000002,-17.2062648,-55.465370400000005,92.76740400000001,16.6387272,0.0,0.0,0.0,0.0
3.8,-18.6205368,-83.38779360000001,129.256536,16.8688512,0.0,0.0,0.0,0.0
3.8200000000000003,-19.917156000000002,-70.754748,113.8040904,19.0923672,0.0,0.0,0.0,0.0
3.84,-21.165312,-76.66482,120.5816232,17.482108800000002,0.0,0.0,0.0,0.0
3.8600000000000003,-22.5000312,-57.2545464,84.7974936,21.852636,0.0,0.0,0.0,0.0
3.88,-23.6716824,-69.29109840000001,98.46045840000001,19.782434400000003,0.0,0.0,0.0,0.0
3.9000000000000004,-25.2398784,-88.7553216,130.1782512,19.3224912,0.0,0.0,0.0,0.0
3.92,-26.461212,-66.90542880000001,104.09925840000001,14.0317728,0.0,0.0,0.0,0.0
3.9400000000000004,-27.846832799999998,-56.875070400000006,88.3215912,18.8622432,0.0,0.0,0.0,0.0
3.96,-29.201363999999998,-33.452714400000005,55.2483528,11.3480088,0.0,0.0,0.0,0.0
3.98,-30.8073552,-71.08027440000001,108.16559520000001,15.4119072,0.0,0.0,0.0,0.0
4.0,-32.330136,-57.0917832,91.2495,13.6483344,0.0,0.0,0.0,0.0
4.02,-33.8980272,-84.959952,137.1179376,19.935748800000002,0.0,0.0,0.0,0.0
4.04,-35.6442264,-63.543789600000004,87.1831632,12.498324000000002,0.0,0.0,0.0,0.0
4.0600000000000005,-37.3773192,-83.550252,124.64796,20.5493112,0.0,0.0,0.0,0.0
4.08,-39.142720800000006,-56.549544000000004,101.8760472,19.0158624,0.0,0.0,0.0,0.0
4.1,-40.865145600000005,-53.18820960000001,73.35743520000001,15.2585928,0.0,0.0,0.0,0.0
4.12,-42.78904320000001,-66.47169840000001,87.9421152,11.1181896,0.0,0.0,0.0,0.0
4.140000000000001,-44.701663200000006,-59.1522312,90.1650216,11.7314472,0.0,0.0,0.0,0.0
4.16,-46.79502960000001,-86.369652,135.7085424,18.785738400000003,0.0,0.0,0.0,0.0
4.18,-48.8249976,-63.543789600000004,100.4123976,11.3480088,0.0,0.0,0.0,0.0
4.2,-50.813512800000005,-65.007744,96.67128240000001,16.178784,0.0,0.0,0.0,0.0
4.22,-52.873656000000004,-62.6220744,81.0563784,21.0092544,0.0,0.0,0.0,0.0
4.24,-54.8039544,-43.4830728,70.4837808,10.5814368,0.0,0.0,0.0,0.0
4.26,-56.724499200000004,-45.435012,78.0742152,19.782434400000003,0.0,0.0,0.0,0.0
4.28,-58.7505048,-56.820816,105.183432,15.4119072,0.0,0.0,0.0,0.0
4.3,-60.54394800000001,-57.6340224,89.08054320000001,11.04138,0.0,0.0,0.0,0.0
4.32,-62.70924720000001,-63.3270768,89.56852800000001,12.421514400000001,0.0,0.0,0.0,0.0
4.34,-65.08424880000001,-62.4053616,89.6227824,19.782434400000003,0.0,0.0,0.0,0.0
4.36,-67.6982136,-53.2967184,83.11652160000001,14.645030400000001,0.0,0.0,0.0,0.0
4.38,-70.2429888,-56.1158136,92.87591280000001,11.7314472,0.0,0.0,0.0,0.0
4.4,-72.68748480000001,-80.29742639999999,123.3467688,19.5523104,0.0,0.0,0.0,0.0
4.42,-75.25512,-45.4892664,70.53803520000001,8.2811112,0.0,0.0,0.0,0.0
4.44,-77.3222736,-59.5317072,85.0142064,14.5685256,0.0,0.0,0.0,0.0
4.46,-79.5287208,-48.7423968,88.1048784,13.6483344,0.0,0.0,0.0,0.0
4.48,-81.5029104,-51.9952224,80.29742639999999,15.1817832,0.0,0.0,0.0,0.0
4.5,-83.475576,-48.14590320000001,74.8213896,15.871850400000001,0.0,0.0,0.0,0.0
4.52,-85.5991176,-47.712172800000005,76.23078480000001,6.9009768,0.0,0.0,0.0,0.0
4.54,-87.47363760000002,-51.1277616,81.9238392,31.130443200000002,0.0,0.0,0.0,0.0
4.5600000000000005,-89.9528808,-55.6278288,79.0501848,11.194694400000001,0.0,0.0,0.0,0.0
4.58,-93.2883072,-38.1697992,76.23078480000001,4.1404032,0.0,0.0,0.0,0.0
4.6,-96.92243760000001,-59.74842,93.2553888,15.795345600000001,0.0,0.0,0.0,0.0
4.62,-100.43891520000001,-51.453288,68.04385680000001,17.0221656,0.0,0.0,0.0,0.0
4.640000000000001,-104.02915440000001,-42.39859440000001,83.9300328,3.5271456,0.0,0.0,0.0,0.0
4.66,-107.49046320000001,-42.5613576,75.9598176,33.0473304,0.0,0.0,0.0,0.0
4.68,-110.793276,-69.94154160000001,102.25582800000001,36.114532800000006,0.0,0.0,0.0,0.0
4.7,-115.0607808,-54.8146224,108.382308,18.4023,0.0,0.0,0.0,0.0
4.720000000000001,-120.48865920000001,-14.5304256,41.964864000000006,0.9201912000000001,0.0,0.0,0.0,0.0
4.74,-126.11313360000001,-38.983005600000006,69.236844,16.255288800000002,0.0,0.0,0.0,0.0
4.76,-132.49229280000003,-22.609149600000002,43.428818400000004,13.878458400000001,0.0,0.0,0.0,0.0
4.78,-137.75832240000003,-9.0543888,15.994380000000001,11.501323200000002,0.0,0.0,0.0,0.0
4.800000000000001,-141.978888,-11.657076,38.4407664,6.594043200000001,0.0,0.0,0.0,0.0
4.82,-145.955004,-25.157277600000004,64.08602880000001,4.8304704,0.0,0.0,0.0,0.0
4.84,-149.38674720000003,-34.916668800000004,64.7367768,-4.2172128,0.0,0.0,0.0,0.0
4.859999999999999,-151.50480240000002,-48.850600799999995,66.8511744,7.8208632,0.0,0.0,0.0,0.0
4.88,-152.1168408,-35.6213664,59.0437224,7.130796,0.0,0.0,0.0,0.0
4.9,-150.0399336,-30.958536,51.9952224,4.7539656,0.0,0.0,0.0,0.0
4.92,-144.5184816,-29.16936,53.567685600000004,-4.370527200000001,0.0,0.0,0.0,0.0
4.9399999999999995,-135.030972,-36.0550968,67.2849048,-0.6900672,0.0,0.0,0.0,0.0
4.96,-121.95048000000001,-25.5367536,58.39297440000001,0.6900672,0.0,0.0,0.0,0.0
4.98,-106.2112176,-33.777936,65.4414744,6.9774816,0.0,0.0,0.0,0.0
5.0,-86.64275280000001,-1.1926824,7.915960800000001,4.907280000000001,0.0,0.0,0.0,0.0
5.02,-63.561468000000005,-6.9399912,14.5304256,14.72184,0.0,0.0,0.0,0.0
5.04,-37.7958096,-44.78426400000001,75.4718328,17.0221656,0.0,0.0,0.0,0.0
5.0600000000000005,-16.597579200000002,-19.247510400000003,56.00760960000001,11.04138,0.0,0.0,0.0,0.0
5.08,6.6443352,-15.994380000000001,48.7423968,8.2043016,0.0,0.0,0.0,0.0
5.1,31.929628800000003,3.6868608000000003,-1.9519392,-1.2268200000000002,0.0,0.0,0.0,0.0
5.12,59.258606400000005,8.837676,-13.3919976,-13.49502,0.0,0.0,0.0,0.0
5.140000000000001,116.23791840000001,-0.0542544,-222.02394,-157.03296000000003,0.0,0.0,0.0,0.0
5.16,154.5506688,-60.1282008,-109.90051679999999,-66.478404,0.0,0.0,0.0,0.0
5.18,195.6751992,117.3827472,82.5745872,-149.59523040000002,0.0,0.0,0.0,0.0
5.2,239.61211920000002,40.501214399999995,12.958267200000002,-45.4691496,0.0,0.0,0.0,0.0
5.220000000000001,286.36081920000004,15.018410400000002,-20.982432000000003,-69.0085488,0.0,0.0,0.0,0.0
5.24,335.92190880000004,-2.8736544000000004,-74.55011760000001,-59.8075512,0.0,0.0,0.0,0.0
5.26,388.29477840000004,-0.4879848,-82.8998088,-97.6088472,0.0,0.0,0.0,0.0
5.28,443.48003760000006,7.1024496,-106.32216480000001,-124.59888720000001,0.0,0.0,0.0,0.0
5.300000000000001,350.08901280000003,22.7173536,-92.22546960000001,-69.0085488,0.0,0.0,0.0,0.0
5.32,295.81662960000006,47.3326968,-27.9224232,1.7635728,0.0,0.0,0.0,0.0
5.34,243.3349464,51.453288,8.186928,-8.8943688,0.0,0.0,0.0,0.0
5.359999999999999,193.94637360000002,46.844712,20.711464799999998,-4.0638984,0.0,0.0,0.0,0.0
5.38,149.5248216,43.645836,33.5612232,-8.5109304,0.0,0.0,0.0,0.0
5.4,111.17854320000001,40.3927056,22.392132000000004,-16.5622224,0.0,0.0,0.0,0.0
5.42,79.66892879999999,27.542947200000004,14.855952000000002,-4.984089600000001,0.0,0.0,0.0,0.0
5.4399999999999995,55.339488,33.777936,28.5731712,-24.306276000000004,0.0,0.0,0.0,0.0
5.46,38.1947928,33.018984,6.018276,-63.2578872,0.0,0.0,0.0,0.0
5.48,27.784348800000004,28.898392800000003,-20.5487016,-70.0820544,0.0,0.0,0.0,0.0
5.5,23.436072000000003,14.693188800000001,-57.0917832,-57.9671688,0.0,0.0,0.0,0.0
5.52,24.416613600000005,16.1571432,-48.471124800000005,-44.2423296,0.0,0.0,0.0,0.0
5.54,29.998111200000004,30.524805600000004,-30.958536,-33.0473304,0.0,0.0,0.0,0.0
5.5600000000000005,39.5145768,0.1085088,-1.5182088,-35.6545896,0.0,0.0,0.0,0.0
5.58,52.1826744,-64.0317744,38.1155448,-38.3380488,0.0,0.0,0.0,0.0
5.6,67.40773920000001,-103.93649520000001,105.1291776,-54.8234616,0.0,0.0,0.0,0.0
5.62,84.2607408,-67.5019224,111.201708,-55.053585600000005,0.0,0.0,0.0,0.0
5.640000000000001,102.3405624,-24.235562400000003,89.6227824,-45.3155304,0.0,0.0,0.0,0.0
5.66,121.16562,23.3138472,42.940833600000005,-29.9036232,0.0,0.0,0.0,0.0
5.68,140.066268,50.6397768,-24.072799200000002,-47.5393512,0.0,0.0,0.0,0.0
5.7,159.02909520000003,24.344071200000002,-14.0424408,-28.216860000000004,0.0,0.0,0.0,0.0
5.720000000000001,177.5786136,-8.295436800000001,26.4042144,-45.4691496,0.0,0.0,0.0,0.0
5.74,195.33656639999998,-65.1162528,75.9598176,-44.9323968,0.0,0.0,0.0,0.0
5.76,212.1219024,-40.9349448,63.706552800000004,-37.3413528,0.0,0.0,0.0,0.0
5.78,227.8282464,-8.729167200000001,30.091075200000002,-33.50757840000001,0.0,0.0,0.0,0.0
5.800000000000001,242.35196639999998,22.825862400000002,2.3314152,-36.9579144,0.0,0.0,0.0,0.0
5.82,255.66502080000004,7.1024496,32.693762400000004,-30.593690400000003,0.0,0.0,0.0,0.0
5.84,267.7945368,-29.603090400000003,48.5796336,-33.2009496,0.0,0.0,0.0,0.0
5.859999999999999,278.7371616,-14.5304256,32.530999200000004,-34.6575888,0.0,0.0,0.0,0.0
5.88,288.435288,1.0844784,18.6510168,-32.8175112,0.0,0.0,0.0,0.0
5.9,297.11355360000005,-9.379915200000001,35.6213664,-30.2870616,0.0,0.0,0.0,0.0
5.92,304.9033272,-23.9103408,37.4647968,-33.50757840000001,0.0,0.0,0.0,0.0
5.9399999999999995,311.8997064,-6.9942456,35.4046536,-29.3668704,0.0,0.0,0.0,0.0
5.96,318.07556400000004,1.5724632,42.0191184,-31.744005600000005,0.0,0.0,0.0,0.0
5.98,323.67626400000006,-0.8674608,29.494886400000002,-34.274150399999996,0.0,0.0,0.0,0.0
6.0,328.7935512,-8.024164800000001,25.3742952,-30.363871200000002,0.0,0.0,0.0,0.0
6.02,333.4432752,-4.8252888,32.368235999999996,-29.980432800000003,0.0,0.0,0.0,0.0
6.04,337.7863704,-7.156704,31.012790400000004,-29.5204896,0.0,0.0,0.0,0.0
6.0600000000000005,341.86550880000004,-10.5725976,25.86228,-29.827118400000003,0.0,0.0,0.0,0.0
6.08,345.70019759999997,-12.6327408,28.030932000000004,-29.0602416,0.0,0.0,0.0,0.0
6.1,349.3443864,-4.0663368,28.5731712,-29.980432800000003,0.0,0.0,0.0,0.0
6.12,353.0047296,0.2709672,30.850332,-26.146658400000003,0.0,0.0,0.0,0.0
6.140000000000001,356.5263888,3.8496240000000004,33.8864448,-28.216860000000004,0.0,0.0,0.0,0.0
6.16,360.2449488,-9.596628,26.729740800000002,-27.6801072,0.0,0.0,0.0,0.0
6.18,363.9543648,-10.0303584,33.127492800000006,-25.609905600000005,0.0,0.0,0.0,0.0
6.2,367.701576,-10.952073600000002,36.434572800000005,-26.5300968,0.0,0.0,0.0,0.0
6.220000000000001,371.5813752,-11.3315496,30.524805600000004,-29.1370512,0.0,0.0,0.0,0.0
6.24,375.68306880000006,0.650748,31.446520800000002,-24.1529616,0.0,0.0,0.0,0.0
6.26,379.9551456,-6.0725304,22.5548952,-27.1433544,0.0,0.0,0.0,0.0
6.28,384.3046416,-2.9279088,27.109216800000002,-26.453287200000002,0.0,0.0,0.0,0.0
6.300000000000001,388.723632,-7.427976000000001,26.2960104,-26.069848800000003,0.0,0.0,0.0,0.0
6.32,393.3029472,-6.2892432000000005,31.3383168,-25.993344,0.0,0.0,0.0,0.0
6.34,397.98985680000004,-8.5121496,27.705405600000002,-26.5300968,0.0,0.0,0.0,0.0
6.359999999999999,402.72858240000005,-4.120591200000001,27.8681688,-23.999647200000002,0.0,0.0,0.0,0.0
6.38,407.6236704,-6.777228,23.584814400000003,-26.299972800000003,0.0,0.0,0.0,0.0
6.4,412.61598960000003,3.0903671999999998,28.1394408,-20.932749600000005,0.0,0.0,0.0,0.0
6.42,417.68268,-12.199010400000002,24.45258,-27.2966688,0.0,0.0,0.0,0.0
6.4399999999999995,422.80789200000004,-7.4822304,21.5789256,-26.913230400000003,0.0,0.0,0.0,0.0
6.46,427.8169752,-6.5605152,24.1270536,-23.539704000000004,0.0,0.0,0.0,0.0
6.48,432.8019792,-0.7046976,24.45258,-24.9198384,0.0,0.0,0.0,0.0
6.5,437.8671456,-3.7953696000000003,27.2177256,-25.0731528,0.0,0.0,0.0,0.0
6.52,442.87927680000007,-7.5364848,22.7173536,-24.1529616,0.0,0.0,0.0,0.0
6.54,447.856356,-9.5423736,19.6269864,-23.539704000000004,0.0,0.0,0.0,0.0
6.5600000000000005,452.75540639999997,-8.729167200000001,22.825862400000002,-24.306276000000004,0.0,0.0,0.0,0.0
6.58,457.6306824,1.4639544,27.054962400000004,-22.236074400000003,0.0,0.0,0.0,0.0
6.6,462.50138640000006,-5.259324,24.9945144,-24.3830856,0.0,0.0,0.0,0.0
6.62,467.33033280000006,-10.0846128,29.820108,-19.5523104,0.0,0.0,0.0,0.0
6.64,472.00200240000004,-9.217152,21.361908,-22.9261416,0.0,0.0,0.0,0.0
6.66,476.5355976,-4.3376088,23.747577600000003,-22.9261416,0.0,0.0,0.0,0.0
6.68,480.9899448,-1.8976848000000002,22.2836232,-19.629120000000004,0.0,0.0,0.0,0.0
6.7,485.3629104,2.8194000000000004,20.3859384,-22.4661984,0.0,0.0,0.0,0.0
6.72,489.77519520000004,-0.7589520000000001,19.844004,-21.699321599999998,0.0,0.0,0.0,0.0
6.74,494.193576,-4.8252888,18.81378,-20.7026256,0.0,0.0,0.0,0.0
6.76,498.5104584,-4.2833544,23.584814400000003,-21.622816800000003,0.0,0.0,0.0,0.0
6.78,502.75266480000005,-6.8314824000000005,21.904147200000004,-21.239378400000003,0.0,0.0,0.0,0.0
6.8,506.9881656,-6.1267848,24.7778016,-20.779130400000003,0.0,0.0,0.0,0.0
6.82,511.2062928,-2.2229064000000003,23.801832,-21.622816800000003,0.0,0.0,0.0,0.0
6.84,515.3890632,-2.2771608000000003,25.591008,-20.089063200000002,0.0,0.0,0.0,0.0
6.86,519.533124,-5.5845456,25.753771200000003,-21.1625688,0.0,0.0,0.0,0.0
6.88,523.4897328000001,-2.8194000000000004,21.0366864,-19.935748800000002,0.0,0.0,0.0,0.0
6.9,527.4603624,-4.8252888,20.6572104,-22.312884,0.0,0.0,0.0,0.0
6.92,531.2746296,-6.343497600000001,16.4281104,-22.8496368,0.0,0.0,0.0,0.0
6.94,535.0968216,-6.777228,20.22348,-21.0092544,0.0,0.0,0.0,0.0
6.96,538.983936,-4.0663368,22.2836232,-20.3959968,0.0,0.0,0.0,0.0
6.98,542.8076520000001,-5.7470040000000004,24.6150384,-21.0092544,0.0,0.0,0.0,0.0
7.0,546.5694936,-3.6868608000000003,23.0971344,-19.859244,0.0,0.0,0.0,0.0
7.0200000000000005,550.4447208,-5.096560800000001,18.217286400000003,-21.086064000000004,0.0,0.0,0.0,0.0
7.04,554.0919576,-4.2833544,19.0304928,-21.1625688,0.0,0.0,0.0,0.0
7.0600000000000005,557.6809776,-1.3011912,20.711464799999998,-18.708928800000002,0.0,0.0,0.0,0.0
7.08,561.3276048,-3.6326064,21.741384,-19.935748800000002,0.0,0.0,0.0,0.0
7.1,564.9900816,-4.0663368,21.3076536,-17.17548,0.0,0.0,0.0,0.0
7.12,568.59678,-4.2833544,20.22348,-17.0986704,0.0,0.0,0.0,0.0
7.14,572.1824472000001,-5.5845456,21.741384,-19.2456816,0.0,0.0,0.0,0.0
7.16,575.8202352000001,-3.3616392,18.1087776,-18.708928800000002,0.0,0.0,0.0,0.0
7.18,579.3467712,-1.1387328,17.2955712,-15.948660000000002,0.0,0.0,0.0,0.0
7.2,582.8909856,-1.3554456000000001,12.7412496,-16.945356,0.0,0.0,0.0,0.0
7.22,586.4315424,-5.096560800000001,16.9160952,-20.089063200000002,0.0,0.0,0.0,0.0
7.24,589.9370472,-2.548128,16.645128,-17.942356800000002,0.0,0.0,0.0,0.0
7.26,593.4629736,-7.3194672,17.0788584,-19.0923672,0.0,0.0,0.0,0.0
7.28,596.839548,-4.1748456,18.3800496,-17.482108800000002,0.0,0.0,0.0,0.0
7.3,600.3023808,-3.7953696000000003,18.434304,-17.7887376,0.0,0.0,0.0,0.0
7.32,603.7292472,-5.205069600000001,16.8075864,-17.5589184,0.0,0.0,0.0,0.0
7.34,607.1789736000001,-3.7411152,18.488558400000002,-17.2522896,0.0,0.0,0.0,0.0
7.36,610.7116056,-2.6023824,18.8680344,-15.335402400000001,0.0,0.0,0.0,0.0
7.38,614.1457872,-4.988052,16.2653472,-17.0221656,0.0,0.0,0.0,0.0
7.4,617.4799944,-0.7589520000000001,13.662964800000001,-16.101974400000003,0.0,0.0,0.0,0.0
7.42,620.810544,-1.1387328,16.753332,-16.3320984,0.0,0.0,0.0,0.0
7.44,624.1048224,-3.198876,17.1870624,-15.642031200000002,0.0,0.0,0.0,0.0
7.46,627.2930303999999,-6.1807343999999995,19.4102736,-16.3320984,0.0,0.0,0.0,0.0
7.48,630.5050127999999,-3.7953696000000003,20.0607168,-15.1817832,0.0,0.0,0.0,0.0
7.5,633.7090704,-4.1748456,16.645128,-14.2618968,0.0,0.0,0.0,0.0
7.5200000000000005,636.9036792,-3.6326064,16.645128,-16.7920416,0.0,0.0,0.0,0.0
7.54,640.0943256,-4.445812800000001,16.482364800000003,-14.72184,0.0,0.0,0.0,0.0
7.5600000000000005,643.1974944000001,-3.3616392,16.1571432,-16.3320984,0.0,0.0,0.0,0.0
7.58,646.3610136,-1.4097000000000002,15.614904,-15.565221600000001,0.0,0.0,0.0,0.0
7.6,649.571472,-3.578352,16.8075864,-16.0254696,0.0,0.0,0.0,0.0
7.62,652.6526951999999,-3.4698432,15.3978864,-16.4086032,0.0,0.0,0.0,0.0
7.64,655.7979264,-2.548128,16.2113976,-14.8751544,0.0,0.0,0.0,0.0
7.66,658.8995712000001,-4.3915584,16.102888800000002,-14.951964,0.0,0.0,0.0,0.0
7.68,661.8573504,-1.789176,14.1509496,-14.0317728,0.0,0.0,0.0,0.0
7.7,664.9812456000001,-5.259324,17.9463192,-15.2585928,0.0,0.0,0.0,0.0
7.72,667.9149456000001,-4.8795432000000005,13.554456,-15.488716800000002,0.0,0.0,0.0,0.0
7.74,670.957764,-3.2531304000000003,17.1331128,-15.2585928,0.0,0.0,0.0,0.0
7.76,673.8859775999999,-2.1686520000000002,13.229234400000001,-14.491716000000002,0.0,0.0,0.0,0.0
7.78,676.8215064000001,-3.3073848000000003,15.777667200000002,-15.335402400000001,0.0,0.0,0.0,0.0
7.8,679.7396616000001,-1.3011912,15.9401256,-13.6483344,0.0,0.0,0.0,0.0
7.82,682.6968312,-2.9279088,14.964156000000001,-15.335402400000001,0.0,0.0,0.0,0.0
7.84,685.5933456,-1.0844784,13.554456,-14.491716000000002,0.0,0.0,0.0,0.0
7.86,688.5319224000001,-2.7108912000000003,11.7110256,-13.878458400000001,0.0,0.0,0.0,0.0
7.88,691.2857904,-2.4941784,11.928043200000001,-14.5685256,0.0,0.0,0.0,0.0
7.9,694.1253072,-3.198876,15.6691584,-13.1883912,0.0,0.0,0.0,0.0
7.92,697.0538256000001,-0.650748,14.096695200000001,-12.345009600000001,0.0,0.0,0.0,0.0
7.94,699.849756,-5.1508152,11.5485672,-13.6483344,0.0,0.0,0.0,0.0
7.96,702.6033192,-4.2291,13.229234400000001,-12.958267200000002,0.0,0.0,0.0,0.0
7.98,705.4550280000001,-4.554321600000001,14.855952000000002,-12.958267200000002,0.0,0.0,0.0,0.0
8.0,708.1070928,-4.3915584,16.753332,-13.49502,0.0,0.0,0.0,0.0
8.02,710.8615704,-4.445812800000001,17.1331128,-13.264896000000002,0.0,0.0,0.0,0.0
8.04,713.6715216,-5.1508152,15.235428,-12.498324000000002,0.0,0.0,0.0,0.0
8.06,716.3985672000001,-2.2771608000000003,14.205204,-12.1913904,0.0,0.0,0.0,0.0
8.08,719.0463648,-2.7108912000000003,13.771473600000002,-12.1913904,0.0,0.0,0.0,0.0
8.1,721.7054400000001,-2.1143976,12.524536800000002,-11.271504,0.0,0.0,0.0,0.0
8.120000000000001,724.427304,-0.0542544,14.1509496,-11.654637600000001,0.0,0.0,0.0,0.0
8.14,727.0906464,-1.2469368,13.825728,-12.038076,0.0,0.0,0.0,0.0
8.16,729.8585352,-5.5302912,12.144756000000001,-12.5748288,0.0,0.0,0.0,0.0
8.18,732.4505544,-5.5845456,10.0303584,-12.498324000000002,0.0,0.0,0.0,0.0
8.2,735.0611664,-5.9097672,11.5485672,-12.7281432,0.0,0.0,0.0,0.0
8.219999999999999,737.5355328,-3.1446216000000002,13.012521600000001,-13.0350768,0.0,0.0,0.0,0.0
8.24,740.0638488000001,-0.9759696,12.795504,-11.5781328,0.0,0.0,0.0,0.0
8.26,742.6083192,-2.4941784,13.988186400000002,-12.421514400000001,0.0,0.0,0.0,0.0
8.280000000000001,745.1561424,-0.8132064000000001,12.958267200000002,-12.345009600000001,0.0,0.0,0.0,0.0
8.3,747.7094519999999,-2.0601432,13.662964800000001,-11.501323200000002,0.0,0.0,0.0,0.0
8.32,750.1874760000001,-4.554321600000001,16.373856,-11.8082568,0.0,0.0,0.0,0.0
8.34,752.7743136,-4.7713392,11.928043200000001,-11.654637600000001,0.0,0.0,0.0,0.0
8.36,755.2953144,-4.7713392,11.928043200000001,-11.654637600000001,0.0,0.0,0.0,0.0
8.379999999999999,757.7385912,-3.957828,11.1148368,-11.4248184,0.0,0.0,0.0,0.0
8.4,760.191012,-1.9519392,10.193121600000001,-11.04138,0.0,0.0,0.0,0.0
8.42,762.5650992,-0.3252216,11.1690912,-10.3513128,0.0,0.0,0.0,0.0
8.440000000000001,765.0348936,-1.789176,14.909901600000001,-11.3480088,0.0,0.0,0.0,0.0
8.46,767.6982360000001,-1.9519392,12.9040128,-11.04138,0.0,0.0,0.0,0.0
8.48,770.4606384,-2.9818584,11.982297599999999,-11.7314472,0.0,0.0,0.0,0.0
8.5,772.8624624,-3.3616392,11.7110256,-10.3513128,0.0,0.0,0.0,0.0
8.52,775.1740656000001,-3.4698432,9.0001344,-10.9645704,0.0,0.0,0.0,0.0
8.54,777.5274264000001,-1.030224,9.9218496,-11.4248184,0.0,0.0,0.0,0.0
8.56,779.7049176,-0.2170176,6.614769600000001,-10.121188800000002,0.0,0.0,0.0,0.0
8.58,781.7998080000001,-0.4879848,9.596628,-10.5814368,0.0,0.0,0.0,0.0
8.6,784.0300296,-1.4639544,9.2714064,-10.811256,0.0,0.0,0.0,0.0
8.620000000000001,786.5452392000001,-0.4879848,7.210958400000001,-10.657941600000001,0.0,0.0,0.0,0.0
8.64,789.0723360000001,-3.7953696000000003,9.6508824,-11.1181896,0.0,0.0,0.0,0.0
8.66,791.2010592,-4.012082400000001,9.4338648,-10.9645704,0.0,0.0,0.0,0.0
8.68,792.8862984000001,-2.0601432,8.241182400000001,-9.814560000000002,0.0,0.0,0.0,0.0
8.7,794.4700392000001,-0.4337304,6.0725304,-10.274503200000002,0.0,0.0,0.0,0.0
8.719999999999999,796.0184232,-0.3252216,6.9399912,-10.1979984,0.0,0.0,0.0,0.0
8.74,797.3997768,-2.548128,6.9942456,-9.967874400000001,0.0,0.0,0.0,0.0
8.76,798.784788,-1.6806672000000002,10.5725976,-10.5046272,0.0,0.0,0.0,0.0
8.780000000000001,800.0625096,-3.3073848000000003,12.3075192,-10.1979984,0.0,0.0,0.0,0.0
8.8,801.3146280000001,-2.8736544000000004,11.5485672,-10.121188800000002,0.0,0.0,0.0,0.0
8.82,802.6487376000001,-2.6566368,9.488119200000002,-9.047683200000002,0.0,0.0,0.0,0.0
8.84,803.8786056,-1.4639544,7.753197600000001,-8.8943688,0.0,0.0,0.0,0.0
8.86,805.196256,0.0542544,9.379915200000001,-9.3546168,0.0,0.0,0.0,0.0
8.879999999999999,806.5276224000002,-0.4337304,9.217152,-9.2013024,0.0,0.0,0.0,0.0
8.9,807.9879192,-0.7046976,8.4039456,-9.737750400000001,0.0,0.0,0.0,0.0
8.92,809.3619576000001,-1.1926824,9.7593912,-9.2013024,0.0,0.0,0.0,0.0
8.940000000000001,810.856392,-0.5964936000000001,8.837676,-9.1244928,0.0,0.0,0.0,0.0
8.96,812.6190504,-2.6566368,9.2714064,-9.2013024,0.0,0.0,0.0,0.0
8.98,814.3457424,-0.650748,9.3256608,-8.8943688,0.0,0.0,0.0,0.0
9.0,816.0498792000001,-0.2709672,7.6446888,-9.047683200000002,0.0,0.0,0.0,0.0
9.02,817.7668176000001,-0.5964936000000001,6.9942456,-8.817864,0.0,0.0,0.0,0.0
9.04,819.5566032,-1.1926824,8.8919304,-8.8943688,0.0,0.0,0.0,0.0
9.06,821.3966808000001,-2.7651456,6.885736800000001,-8.6645496,0.0,0.0,0.0,0.0
9.08,823.3129584,-3.4158936000000004,8.6206584,-9.3546168,0.0,0.0,0.0,0.0
9.1,825.2847096,-3.4698432,8.024164800000001,-8.8943688,0.0,0.0,0.0,0.0
9.120000000000001,827.1686784000001,-3.0903671999999998,9.0543888,-8.58774,0.0,0.0,0.0,0.0
9.14,829.0870896,-2.8736544000000004,7.8617064,-7.9744824,0.0,0.0,0.0,0.0
9.16,831.0344568,-1.3554456000000001,9.1628976,-8.357616,0.0,0.0,0.0,0.0
9.18,832.9312272000001,0.16276320000000002,6.5605152,-7.5142344,0.0,0.0,0.0,0.0
9.2,834.8279976,0.5964936000000001,7.5364848,-7.0542912,0.0,0.0,0.0,0.0
9.219999999999999,837.000612,-0.650748,7.807452,-8.1277968,0.0,0.0,0.0,0.0
9.24,839.3567160000001,-0.9217152000000001,7.1024496,-8.2043016,0.0,0.0,0.0,0.0
9.26,841.3903416,-1.6806672000000002,6.777228,-8.5109304,0.0,0.0,0.0,0.0
9.280000000000001,843.2328576000001,-1.0844784,6.397752,-8.741054400000001,0.0,0.0,0.0,0.0
9.3,844.7781936,-2.2771608000000003,4.8795432000000005,-8.971178400000001,0.0,0.0,0.0,0.0
9.32,846.274152,-1.0844784,7.3737216000000005,-7.8208632,0.0,0.0,0.0,0.0
9.34,847.7289624,1.9519392,6.0725304,-7.591044000000001,0.0,0.0,0.0,0.0
9.36,849.0268008,0.2170176,7.156704,-7.2841104,0.0,0.0,0.0,0.0
9.379999999999999,850.4041920000001,-0.4879848,7.210958400000001,-7.6675488,0.0,0.0,0.0,0.0
9.4,851.7696960000001,-2.8194000000000004,8.024164800000001,-8.2043016,0.0,0.0,0.0,0.0
9.42,852.9273264000001,-2.7651456,8.0784192,-7.8208632,0.0,0.0,0.0,0.0
9.440000000000001,853.9822392000001,-2.8194000000000004,8.3496912,-8.1277968,0.0,0.0,0.0,0.0
9.46,855.0145968,-2.3314152,9.0543888,-7.2841104,0.0,0.0,0.0,0.0
9.48,855.9402744,-1.5724632,8.186928,-6.9774816,0.0,0.0,0.0,0.0
9.5,856.9674504,-2.0061936,7.753197600000001,-7.6675488,0.0,0.0,0.0,0.0
9.52,857.9656704,-1.4097000000000002,7.5904344,-7.437729600000001,0.0,0.0,0.0,0.0
9.54,859.072704,-0.650748,6.614769600000001,-6.9774816,0.0,0.0,0.0,0.0
9.56,860.1772992,-0.7046976,5.476036800000001,-7.8976728000000005,0.0,0.0,0.0,0.0
9.58,861.497388,-1.1387328,6.1267848,-7.437729600000001,0.0,0.0,0.0,0.0
9.6,862.8598440000001,0.4337304,5.964021600000001,-6.6708528000000005,0.0,0.0,0.0,0.0
9.620000000000001,864.4146288,-0.4337304,6.397752,-6.747662400000001,0.0,0.0,0.0,0.0
9.64,866.0038559999999,-0.2170176,6.2892432000000005,-7.0542912,0.0,0.0,0.0,0.0
9.66,867.7375584,-1.1387328,6.777228,-7.2076056,0.0,0.0,0.0,0.0
9.68,869.4916824000001,-1.5182088,6.7229735999999995,-6.594043200000001,0.0,0.0,0.0,0.0
9.7,871.2717144000001,-0.9759696,6.614769600000001,-7.5142344,0.0,0.0,0.0,0.0
9.719999999999999,873.1761048000001,-0.9217152000000001,5.476036800000001,-7.130796,0.0,0.0,0.0,0.0
9.74,875.0963448,-1.2469368,5.9097672,-7.0542912,0.0,0.0,0.0,0.0
9.76,877.0193280000001,-1.6264128000000002,6.1807343999999995,-6.747662400000001,0.0,0.0,0.0,0.0
9.780000000000001,878.8859232,-1.4097000000000002,5.5302912,-6.6708528000000005,0.0,0.0,0.0,0.0
9.8,880.7753784,-1.6806672000000002,6.2349888,-6.9009768,0.0,0.0,0.0,0.0
9.82,882.6937896000001,-1.1926824,6.506260800000001,-7.130796,0.0,0.0,0.0,0.0
9.84,884.6960208,-1.1387328,6.885736800000001,-6.6708528000000005,0.0,0.0,0.0,0.0
9.86,886.6717344,-0.37947600000000004,6.5605152,-6.5175384,0.0,0.0,0.0,0.0
9.879999999999999,888.648972,-0.4879848,6.885736800000001,-5.750661600000001,0.0,0.0,0.0,0.0
9.9,890.5762224000001,-0.3252216,5.7470040000000004,-6.4407288000000005,0.0,0.0,0.0,0.0
9.92,892.5455352,-1.030224,4.933797600000001,-6.4407288000000005,0.0,0.0,0.0,0.0
9.940000000000001,894.5340504,-0.4337304,4.012082400000001,-6.594043200000001,0.0,0.0,0.0,0.0
9.96,896.5832207999999,-1.030224,4.7170848,-6.5175384,0.0,0.0,0.0,0.0
9.98,898.5772224000001,-1.3011912,4.988052,-6.5175384,0.0,0.0,0.0,0.0
10.0,900.5337336000001,-1.0844784,5.421782400000001,-6.364224,0.0,0.0,0.0,0.0
10.02,902.5042656,-0.650748,5.7470040000000004,-6.1341,0.0,0.0,0.0,0.0
10.04,904.4260296000001,0.0542544,5.259324,-5.903976000000001,0.0,0.0,0.0,0.0
10.06,906.3142656000001,0.0,5.638800000000001,-5.9807856,0.0,0.0,0.0,0.0
10.08,908.2025016,0.0,5.5302912,-5.6741568000000004,0.0,0.0,0.0,0.0
10.1,909.7307688000001,-0.37947600000000004,5.367528,-6.0572904,0.0,0.0,0.0,0.0
10.120000000000001,910.8140280000001,-0.8132064000000001,6.668719200000001,-5.4440328000000004,0.0,0.0,0.0,0.0
10.14,911.7439728,-1.4097000000000002,5.7470040000000004,-5.5205376,0.0,0.0,0.0,0.0
10.16,912.4645200000001,-0.8674608,5.7470040000000004,-5.6741568000000004,0.0,0.0,0.0,0.0
10.18,913.1021616000002,-0.9759696,5.5302912,-5.903976000000001,0.0,0.0,0.0,0.0
10.2,913.6568976,-0.650748,4.7713392,-5.750661600000001,0.0,0.0,0.0,0.0
10.219999999999999,914.1912120000001,-1.5182088,5.421782400000001,-5.2139088000000005,0.0,0.0,0.0,0.0
10.24,914.8172712,-2.1686520000000002,5.421782400000001,-5.9807856,0.0,0.0,0.0,0.0
10.26,915.4756392,-1.8976848000000002,3.8496240000000004,-6.0572904,0.0,0.0,0.0,0.0
10.280000000000001,916.1303496,-0.5964936000000001,4.608576,-5.6741568000000004,0.0,0.0,0.0,0.0
10.3,916.8719280000001,-1.030224,3.4158936000000004,-6.1341,0.0,0.0,0.0,0.0
10.32,917.7259776,-1.3554456000000001,4.5000672,-5.2907184,0.0,0.0,0.0,0.0
10.34,918.7147488,-0.8674608,5.5302912,-5.5205376,0.0,0.0,0.0,0.0
10.36,919.9476648000001,0.0,4.445812800000001,-4.8304704,0.0,0.0,0.0,0.0
10.379999999999999,921.5301864,-0.650748,3.7953696000000003,-5.137404,0.0,0.0,0.0,0.0
10.4,923.5747848000001,0.37947600000000004,3.4158936000000004,-6.747662400000001,0.0,0.0,0.0,0.0
10.42,925.9872768,-0.4337304,4.445812800000001,-5.060594400000001,0.0,0.0,0.0,0.0
10.440000000000001,928.0788144,-0.4337304,4.012082400000001,-5.2139088000000005,0.0,0.0,0.0,0.0
10.46,929.8878024,-0.5422392,4.554321600000001,-5.137404,0.0,0.0,0.0,0.0
10.48,931.3410888000001,-0.5964936000000001,4.933797600000001,-4.907280000000001,0.0,0.0,0.0,0.0
10.5,932.7236616000001,-0.4879848,4.2833544,-4.8304704,0.0,0.0,0.0,0.0
10.52,934.0279008000001,0.0,4.120591200000001,-5.060594400000001,0.0,0.0,0.0,0.0
10.54,935.3123280000001,-0.2709672,5.1508152,-4.370527200000001,0.0,0.0,0.0,0.0
10.56,936.4525848000001,-1.4639544,4.7170848,-4.907280000000001,0.0,0.0,0.0,0.0
10.58,937.5788208,-1.3011912,5.205069600000001,-5.060594400000001,0.0,0.0,0.0,0.0
10.6,938.7471192,-1.030224,4.7170848,-5.2139088000000005,0.0,0.0,0.0,0.0
10.62,939.8544576,-1.4097000000000002,4.8795432000000005,-4.7539656,0.0,0.0,0.0,0.0
10.64,941.0651232,-0.7589520000000001,4.012082400000001,-4.907280000000001,0.0,0.0,0.0,0.0
10.66,942.377592,-1.3554456000000001,3.4158936000000004,-5.2139088000000005,0.0,0.0,0.0,0.0
10.68,943.7775384,-0.16276320000000002,4.0663368,-4.0638984,0.0,0.0,0.0,0.0
10.7,945.2125368000001,-0.3252216,4.554321600000001,-4.4473368,0.0,0.0,0.0,0.0
10.72,946.8063360000001,0.4337304,3.7953696000000003,-4.677156,0.0,0.0,0.0,0.0
10.74,948.5430864000001,0.4879848,4.608576,-4.907280000000001,0.0,0.0,0.0,0.0
10.76,950.4038904,-0.8674608,3.7953696000000003,-4.2172128,0.0,0.0,0.0,0.0
10.78,952.2686568,0.16276320000000002,3.7411152,-4.0638984,0.0,0.0,0.0,0.0
10.8,953.8770864,-0.4879848,3.198876,-4.523841600000001,0.0,0.0,0.0,0.0
10.82,955.529712,-0.4337304,3.7953696000000003,-4.4473368,0.0,0.0,0.0,0.0
10.84,957.184776,-2.0061936,3.6326064,-4.8304704,0.0,0.0,0.0,0.0
10.86,958.8614808000001,-1.0844784,3.2531304000000003,-5.060594400000001,0.0,0.0,0.0,0.0
10.88,960.5052672,-1.6264128000000002,2.9279088,-4.6006512,0.0,0.0,0.0,0.0
10.9,962.1216216,-0.4879848,3.6326064,-4.0638984,0.0,0.0,0.0,0.0
10.92,963.6187992,-0.3252216,4.2291,-3.8337744,0.0,0.0,0.0,0.0
10.94,965.3025144000001,-0.4337304,4.554321600000001,-4.0638984,0.0,0.0,0.0,0.0
10.96,966.9981167999999,-0.2170176,4.554321600000001,-3.7572696000000003,0.0,0.0,0.0,0.0
10.98,968.7053016,-0.5422392,4.554321600000001,-4.0638984,0.0,0.0,0.0,0.0
11.0,970.403952,-0.7589520000000001,4.7713392,-3.910584,0.0,0.0,0.0,0.0
11.02,971.9669664,-1.030224,3.957828,-4.2172128,0.0,0.0,0.0,0.0
11.040000000000001,973.4263488,-0.9217152000000001,3.957828,-4.1404032,0.0,0.0,0.0,0.0
11.06,974.9223072,-0.650748,3.3616392,-4.1404032,0.0,0.0,0.0,0.0
11.08,976.3393224000001,-0.2170176,3.1446216000000002,-4.1404032,0.0,0.0,0.0,0.0
11.1,977.719152,-0.8674608,3.1446216000000002,-3.8337744,0.0,0.0,0.0,0.0
11.12,979.0864848000001,-0.4879848,3.0903671999999998,-3.910584,0.0,0.0,0.0,0.0
11.14,980.5126440000001,-0.7046976,2.6566368,-3.910584,0.0,0.0,0.0,0.0
11.16,981.9141144000001,-0.2170176,3.4698432,-3.9870888,0.0,0.0,0.0,0.0
11.18,983.4396384,-0.2170176,3.7953696000000003,-3.6036504000000003,0.0,0.0,0.0,0.0
11.2,984.9255383999999,-0.5422392,3.7953696000000003,-3.6036504000000003,0.0,0.0,0.0,0.0
11.22,986.3163408,-1.3554456000000001,3.8496240000000004,-3.9870888,0.0,0.0,0.0,0.0
11.24,987.6797112,-1.1387328,3.8496240000000004,-3.7572696000000003,0.0,0.0,0.0,0.0
11.26,989.1095280000001,-1.4097000000000002,4.2291,-3.9870888,0.0,0.0,0.0,0.0
11.28,990.4418088,-1.3554456000000001,3.0903671999999998,-3.7572696000000003,0.0,0.0,0.0,0.0
11.3,991.672896,-0.4337304,3.7953696000000003,-3.5271456,0.0,0.0,0.0,0.0
11.32,992.9314152000001,-0.9217152000000001,3.7411152,-3.9870888,0.0,0.0,0.0,0.0
11.34,994.2091368,-1.3554456000000001,4.3915584,-3.1437072,0.0,0.0,0.0,0.0
11.36,995.6008536,-1.8434304000000001,4.6628304,-3.5271456,0.0,0.0,0.0,0.0
11.38,996.824016,-1.030224,3.957828,-3.3738312000000006,0.0,0.0,0.0,0.0
11.4,998.1309984000001,-0.4879848,3.7411152,-3.3738312000000006,0.0,0.0,0.0,0.0
11.42,999.4196928000001,-1.0844784,3.2531304000000003,-3.5271456,0.0,0.0,0.0,0.0
11.44,1000.7403912,-0.650748,3.4698432,-3.3738312000000006,0.0,0.0,0.0,0.0
11.46,1002.17478,-0.5964936000000001,3.4158936000000004,-3.3738312000000006,0.0,0.0,0.0,0.0
11.48,1003.5174240000001,-0.5422392,3.7953696000000003,-2.9135831999999997,0.0,0.0,0.0,0.0
11.5,1004.9286480000001,-0.650748,3.6868608000000003,-3.450336,0.0,0.0,0.0,0.0
11.52,1006.3468824,-1.3554456000000001,3.3073848000000003,-3.1437072,0.0,0.0,0.0,0.0
11.540000000000001,1007.7547536000001,-0.5422392,2.8194000000000004,-3.2970216000000003,0.0,0.0,0.0,0.0
11.56,1009.1796936000001,-0.4879848,2.8736544000000004,-3.2970216000000003,0.0,0.0,0.0,0.0
11.58,1010.6899776,-0.5422392,3.0361128,-3.1437072,0.0,0.0,0.0,0.0
11.6,1012.2654888000001,-0.4879848,2.8736544000000004,-3.1437072,0.0,0.0,0.0,0.0
11.62,1013.8306368,-0.4337304,2.7108912000000003,-2.5304496,0.0,0.0,0.0,0.0
11.64,1015.6356624,-0.8132064000000001,1.5724632,-1.2268200000000002,0.0,0.0,0.0,0.0
11.66,1019.3170368,-0.0542544,1.8976848000000002,-3.68046,0.0,0.0,0.0,0.0
11.68,1024.8903048000002,-2.3856696,3.7953696000000003,-3.5271456,0.0,0.0,0.0,0.0
11.7,1027.3911888,-0.7589520000000001,2.6023824,-3.3738312000000006,0.0,0.0,0.0,0.0
11.72,1030.455648,-0.9759696,2.7108912000000003,-3.1437072,0.0,0.0,0.0,0.0
11.74,1032.4377624,-0.650748,2.8194000000000004,-3.0672024,0.0,0.0,0.0,0.0
11.76,1033.6795176,-0.9217152000000001,3.0903671999999998,-3.0672024,0.0,0.0,0.0,0.0
11.78,1034.416524,-0.7046976,3.198876,-2.9903928,0.0,0.0,0.0,0.0
11.8,1034.792952,-0.9217152000000001,3.3073848000000003,-3.0672024,0.0,0.0,0.0,0.0
11.82,1034.9779656,-0.5422392,3.3616392,-2.9903928,0.0,0.0,0.0,0.0
11.84,1035.0617856,-1.1387328,3.4158936000000004,-2.6069544000000002,0.0,0.0,0.0,0.0
11.86,1035.2416176000002,-1.030224,3.6326064,-2.9135831999999997,0.0,0.0,0.0,0.0
11.88,1035.5113656,-1.3011912,3.6868608000000003,-2.8370784000000002,0.0,0.0,0.0,0.0
11.9,1035.7049136,-1.1387328,3.6326064,-2.7602688,0.0,0.0,0.0,0.0
11.92,1035.957288,-0.4879848,3.5240976,-2.7602688,0.0,0.0,0.0,0.0
11.94,1036.3998576000001,-0.7589520000000001,2.9279088,-2.9903928,0.0,0.0,0.0,0.0
11.96,1036.7098392,-0.9759696,3.1446216000000002,-2.6069544000000002,0.0,0.0,0.0,0.0
11.98,1037.2030056,-1.1387328,2.8736544000000004,-2.7602688,0.0,0.0,0.0,0.0
12.0,1037.7562176000001,-0.8674608,2.4941784,-2.683764,0.0,0.0,0.0,0.0
12.02,1038.5069400000002,-1.0844784,2.7108912000000003,-2.683764,0.0,0.0,0.0,0.0
12.040000000000001,1039.4749848000001,-0.650748,2.8194000000000004,-2.5304496,0.0,0.0,0.0,0.0
12.06,1040.4098064,-0.7046976,2.6566368,-2.8370784000000002,0.0,0.0,0.0,0.0
12.08,1041.6622296,-1.030224,2.2229064000000003,-1.9936968000000002,0.0,0.0,0.0,0.0
12.1,1043.4699984000001,-2.2229064000000003,1.5724632,1.0735056,0.0,0.0,0.0,0.0
12.12,1047.382716,0.37947600000000004,0.9217152000000001,-6.5175384,0.0,0.0,0.0,0.0
12.14,1051.9489248,-0.4337304,2.7108912000000003,-2.4536400000000005,0.0,0.0,0.0,0.0
12.16,1055.2383264,-0.4337304,2.2771608000000003,-2.4536400000000005,0.0,0.0,0.0,0.0
12.18,1057.5221928,-0.7589520000000001,2.4941784,-2.6069544000000002,0.0,0.0,0.0,0.0
12.2,1058.9312832,-0.3252216,2.6023824,-2.3003256,0.0,0.0,0.0,0.0
12.22,1060.0358784,-0.5422392,2.6023824,-2.4536400000000005,0.0,0.0,0.0,0.0
12.24,1060.7564256,-0.7046976,2.4399240000000004,-2.223516,0.0,0.0,0.0,0.0
12.26,1061.3641968000002,-0.16276320000000002,3.0903671999999998,-2.6069544000000002,0.0,0.0,0.0,0.0
12.28,1062.3423,-0.7589520000000001,2.4941784,-3.2205168000000004,0.0,0.0,0.0,0.0
12.3,1063.2097608000001,-0.8674608,2.2771608000000003,-2.4536400000000005,0.0,0.0,0.0,0.0
12.32,1063.666656,-0.8132064000000001,2.4399240000000004,-2.4536400000000005,0.0,0.0,0.0,0.0
12.34,1063.9156776,-0.9217152000000001,2.3314152,-2.4536400000000005,0.0,0.0,0.0,0.0
12.36,1064.1567744000001,-0.9759696,2.1686520000000002,-2.3003256,0.0,0.0,0.0,0.0
12.38,1064.320452,-1.030224,2.3314152,-2.223516,0.0,0.0,0.0,0.0
12.4,1064.6478072,-1.0844784,2.1686520000000002,-2.223516,0.0,0.0,0.0,0.0
12.42,1065.0934248,-1.2469368,2.2229064000000003,-2.683764,0.0,0.0,0.0,0.0
12.44,1065.4655856,-0.8674608,2.2771608000000003,-2.1470112,0.0,0.0,0.0,0.0
12.46,1065.8526816,-0.9759696,2.3856696,-2.223516,0.0,0.0,0.0,0.0
12.48,1066.3857768,-1.4639544,2.548128,-2.3768304000000002,0.0,0.0,0.0,0.0
12.5,1066.9685544000001,-0.650748,2.4941784,-2.0702016,0.0,0.0,0.0,0.0
12.52,1067.7037320000002,-0.9759696,2.3856696,-2.223516,0.0,0.0,0.0,0.0
12.540000000000001,1068.5138904,-0.9759696,2.3856696,-2.0702016,0.0,0.0,0.0,0.0
12.56,1069.416708,-0.8132064000000001,2.4399240000000004,-2.0702016,0.0,0.0,0.0,0.0
12.58,1070.3497008000002,-1.0844784,2.8194000000000004,-1.9936968000000002,0.0,0.0,0.0,0.0
12.6,1071.4381416,-0.9759696,2.2771608000000003,-1.9936968000000002,0.0,0.0,0.0,0.0
12.62,1072.5442608,-0.8132064000000001,2.3314152,-1.6867632000000001,0.0,0.0,0.0,0.0
12.64,1073.7177408,-1.030224,2.4399240000000004,-2.1470112,0.0,0.0,0.0,0.0
12.66,1074.8336136,-0.9217152000000001,2.3314152,-2.223516,0.0,0.0,0.0,0.0
12.68,1075.9558872,-0.9759696,2.3856696,-2.0702016,0.0,0.0,0.0,0.0
12.7,1077.0208584,-1.030224,2.1143976,-1.9936968000000002,0.0,0.0,0.0,0.0
12.72,1078.13856,-0.9217152000000001,2.2229064000000003,-1.9936968000000002,0.0,0.0,0.0,0.0
12.74,1079.2794264000001,-0.8674608,2.3856696,-1.9168872,0.0,0.0,0.0,0.0
12.76,1080.4333992,-0.9759696,2.1686520000000002,-1.9168872,0.0,0.0,0.0,0.0
12.78,1081.6379688,-1.1926824,2.1686520000000002,-2.223516,0.0,0.0,0.0,0.0
12.8,1082.8349184,-1.3011912,2.0601432,-2.0702016,0.0,0.0,0.0,0.0
12.82,1084.1336712000002,-1.1387328,2.1143976,-1.8400776,0.0,0.0,0.0,0.0
12.84,1085.3748168,-1.1926824,2.1686520000000002,-1.9168872,0.0,0.0,0.0,0.0
12.86,1086.4800216,-0.9759696,2.1686520000000002,-1.9168872,0.0,0.0,0.0,0.0
12.88,1087.5815688,-0.9759696,2.1686520000000002,-1.9936968000000002,0.0,0.0,0.0,0.0
12.9,1088.6648280000002,-0.8674608,1.9519392,-1.6102584000000002,0.0,0.0,0.0,0.0
12.92,1089.5865432,-0.8132064000000001,2.1143976,-1.6867632000000001,0.0,0.0,0.0,0.0
12.94,1090.44486,-0.8674608,1.9519392,-1.8400776,0.0,0.0,0.0,0.0
12.96,1091.1730272,-0.9217152000000001,1.8976848000000002,-1.6867632000000001,0.0,0.0,0.0,0.0
12.98,1092.1352808000001,-1.3011912,1.7349216,-0.6135624,0.0,0.0,0.0,0.0
13.0,1094.114652,-0.5964936000000001,0.2709672,-0.15331440000000002,0.0,0.0,0.0,0.0
13.02,1097.747868,10.247376,17.837810400000002,-1.0735056,0.0,0.0,0.0,0.0
13.040000000000001,1100.8912704,-1.4639544,2.0061936,-1.3801344,0.0,0.0,0.0,0.0
13.06,1102.7350056,-0.9759696,1.9519392,-1.5334488,0.0,0.0,0.0,0.0
13.08,1103.6268504,-0.7589520000000001,1.9519392,-1.6867632000000001,0.0,0.0,0.0,0.0
13.1,1103.9557296,-0.9759696,1.9519392,-1.6102584000000002,0.0,0.0,0.0,0.0
13.12,1104.002364,-0.9759696,2.0601432,-1.6102584000000002,0.0,0.0,0.0,0.0
13.14,1103.944452,-1.0844784,2.0601432,-1.4569440000000002,0.0,0.0,0.0,0.0
13.16,1103.9529864,-1.2469368,1.8976848000000002,-1.6867632000000001,0.0,0.0,0.0,0.0
13.18,1104.0752112,-1.0844784,1.9519392,-1.6102584000000002,0.0,0.0,0.0,0.0
13.2,1104.2376696,-1.030224,1.6806672000000002,-2.0702016,0.0,0.0,0.0,0.0
13.22,1104.6076968000002,-1.0844784,2.0601432,-1.3801344,0.0,0.0,0.0,0.0
13.24,1104.9313944,-1.0844784,2.0601432,-1.6102584000000002,0.0,0.0,0.0,0.0
13.26,1105.1191512,-1.0844784,1.9519392,-1.3036296,0.0,0.0,0.0,0.0
13.28,1105.3995672,-1.1387328,1.8976848000000002,-1.3801344,0.0,0.0,0.0,0.0
13.3,1105.742772,-1.3554456000000001,1.6806672000000002,-1.6867632000000001,0.0,0.0,0.0,0.0
13.32,1106.2676376000002,-1.1387328,2.0061936,-1.0735056,0.0,0.0,0.0,0.0
13.34,1106.9659344,-1.3011912,1.8434304000000001,-1.2268200000000002,0.0,0.0,0.0,0.0
13.36,1107.9193488,-1.0844784,1.8434304000000001,-1.4569440000000002,0.0,0.0,0.0,0.0
13.38,1109.1278808000002,-1.0844784,1.9519392,-1.3801344,0.0,0.0,0.0,0.0
13.4,1110.1004976,-1.1387328,1.8976848000000002,-1.4569440000000002,0.0,0.0,0.0,0.0
13.42,1110.9841128,-1.1926824,1.9519392,-1.3036296,0.0,0.0,0.0,0.0
13.44,1111.6836288,-1.1926824,1.8434304000000001,-1.4569440000000002,0.0,0.0,0.0,0.0
13.46,1112.4459336,-1.0844784,1.9519392,-1.1500104,0.0,0.0,0.0,0.0
13.48,1113.19056,-1.030224,1.789176,-1.3801344,0.0,0.0,0.0,0.0
13.5,1113.938844,-1.3554456000000001,1.789176,-1.3036296,0.0,0.0,0.0,0.0
13.52,1114.6606104,-0.8674608,1.8434304000000001,-1.1500104,0.0,0.0,0.0,0.0
13.540000000000001,1115.4905808,-1.3011912,1.7349216,-1.3801344,0.0,0.0,0.0,0.0
13.56,1116.27666,-1.1387328,1.789176,-1.3801344,0.0,0.0,0.0,0.0
13.58,1117.1764296000001,-0.9217152000000001,1.789176,-1.1500104,0.0,0.0,0.0,0.0
13.6,1118.0161536,-1.1387328,1.789176,-0.996696,0.0,0.0,0.0,0.0
13.62,1118.9479272,-0.9217152000000001,1.789176,-1.2268200000000002,0.0,0.0,0.0,0.0
13.64,1119.8309328,-1.0844784,1.8434304000000001,-1.3036296,0.0,0.0,0.0,0.0
13.66,1120.7169864,-1.030224,1.6806672000000002,-1.2268200000000002,0.0,0.0,0.0,0.0
13.68,1121.6844216,-0.8674608,1.8434304000000001,-1.1500104,0.0,0.0,0.0,0.0
13.7,1122.6674016,-1.1387328,1.6806672000000002,-1.0735056,0.0,0.0,0.0,0.0
13.72,1123.5561984,-1.030224,1.5724632,-1.0735056,0.0,0.0,0.0,0.0
13.74,1124.4462144000001,-1.030224,1.789176,-1.0735056,0.0,0.0,0.0,0.0
13.76,1125.3270864,-0.9759696,1.6264128000000002,-1.1500104,0.0,0.0,0.0,0.0
13.78,1126.2747096,-1.030224,1.4639544,-1.1500104,0.0,0.0,0.0,0.0
13.8,1127.1924624,-1.0844784,1.7349216,-0.996696,0.0,0.0,0.0,0.0
13.82,1127.9505000000001,-0.9759696,1.6264128000000002,-1.0735056,0.0,0.0,0.0,0.0
13.84,1128.7006128,-0.9217152000000001,1.6806672000000002,-1.0735056,0.0,0.0,0.0,0.0
13.86,1129.5494808,-1.030224,1.5724632,-0.996696,0.0,0.0,0.0,0.0
13.88,1130.2986792000002,-1.030224,1.5724632,-1.0735056,0.0,0.0,0.0,0.0
13.9,1131.05184,-0.9759696,1.5182088,-0.9201912000000001,0.0,0.0,0.0,0.0
13.92,1131.9241776,-1.030224,1.4639544,-0.9201912000000001,0.0,0.0,0.0,0.0
13.94,1132.7154384,-1.0844784,1.5182088,-0.996696,0.0,0.0,0.0,0.0
13.96,1133.50548,-0.9759696,1.5182088,-0.9201912000000001,0.0,0.0,0.0,0.0
13.98,1134.3278304,-0.9217152000000001,1.5724632,-0.7668768,0.0,0.0,0.0,0.0
14.0,1135.0303944,-0.9759696,1.4097000000000002,-1.0735056,0.0,0.0,0.0,0.0
14.02,1135.8557928,-0.9217152000000001,1.4639544,-0.9201912000000001,0.0,0.0,0.0,0.0
14.040000000000001,1136.6016384,-1.0844784,1.5182088,-0.9201912000000001,0.0,0.0,0.0,0.0
14.06,1137.1999608,-0.9759696,1.5182088,-0.7668768,0.0,0.0,0.0,0.0
14.08,1137.7674984,-0.9759696,1.4097000000000002,-0.9201912000000001,0.0,0.0,0.0,0.0
14.1,1138.4179416000002,-1.030224,1.4639544,-0.8433816000000001,0.0,0.0,0.0,0.0
14.12,1139.034552,-1.030224,1.4639544,-0.8433816000000001,0.0,0.0,0.0,0.0
14.14,1139.57862,-0.9759696,1.4097000000000002,-0.8433816000000001,0.0,0.0,0.0,0.0
14.16,1140.2305872000002,-0.8674608,1.3011912,-0.9201912000000001,0.0,0.0,0.0,0.0
14.18,1140.8057448,-0.9759696,1.4097000000000002,-0.8433816000000001,0.0,0.0,0.0,0.0
14.2,1141.4464344,-0.8674608,1.3011912,-0.7668768,0.0,0.0,0.0,0.0
14.22,1142.1971568000001,-1.1387328,1.3554456000000001,-0.7668768,0.0,0.0,0.0,0.0
14.24,1142.8649736,-1.1387328,1.4639544,-0.7668768,0.0,0.0,0.0,0.0
14.26,1143.6455664,-1.0844784,1.4097000000000002,-0.7668768,0.0,0.0,0.0,0.0
14.28,1144.4115288,-0.9217152000000001,1.3554456000000001,-0.6900672,0.0,0.0,0.0,0.0
14.3,1145.2174200000002,-0.8674608,1.1926824,-0.8433816000000001,0.0,0.0,0.0,0.0
14.32,1145.9599128,-1.0844784,1.4097000000000002,-0.8433816000000001,0.0,0.0,0.0,0.0
14.34,1146.5893248,-1.0844784,1.4097000000000002,-0.6900672,0.0,0.0,0.0,0.0
14.36,1147.1181528,-0.9759696,1.3011912,-0.6900672,0.0,0.0,0.0,0.0
14.38,1147.7951136000001,-0.9217152000000001,1.1387328,-0.6900672,0.0,0.0,0.0,0.0
14.4,1148.4412896000001,-0.9217152000000001,1.4639544,-0.6900672,0.0,0.0,0.0,0.0
14.42,1149.0271152,-0.8674608,1.4097000000000002,-0.7668768,0.0,0.0,0.0,0.0
14.44,1149.5538096,-1.0844784,1.3011912,-0.6135624,0.0,0.0,0.0,0.0
14.46,1150.0997064,-0.9759696,1.3011912,-0.7668768,0.0,0.0,0.0,0.0
14.48,1150.6971144000001,-0.9217152000000001,1.1387328,-0.6900672,0.0,0.0,0.0,0.0
14.5,1151.3435952,-0.9759696,1.4097000000000002,-0.6900672,0.0,0.0,0.0,0.0
14.52,1151.9150952,-0.8674608,1.3011912,-0.6135624,0.0,0.0,0.0,0.0
14.540000000000001,1152.5865696,-1.0844784,1.0844784,-0.6135624,0.0,0.0,0.0,0.0
14.56,1153.244328,-0.9759696,1.1926824,-0.6900672,0.0,0.0,0.0,0.0
14.58,1153.8008928000002,-0.9759696,0.9759696,-0.6900672,0.0,0.0,0.0,0.0
14.6,1154.3757456,-0.9217152000000001,1.030224,-0.7668768,0.0,0.0,0.0,0.0
14.62,1154.891772,-1.1926824,1.0844784,-0.5367528,0.0,0.0,0.0,0.0
14.64,1155.6732792,-1.0844784,1.0844784,-0.5367528,0.0,0.0,0.0,0.0
14.66,1156.4361936,-1.1926824,1.0844784,-0.6900672,0.0,0.0,0.0,0.0
14.68,1157.0841984,-0.9217152000000001,1.1387328,-0.6135624,0.0,0.0,0.0,0.0
14.7,1157.4850104000002,-1.030224,1.2469368,-0.4599432,0.0,0.0,0.0,0.0
14.72,1157.9297136,-1.030224,1.2469368,-0.6135624,0.0,0.0,0.0,0.0
14.74,1158.2747472,-0.8674608,0.9759696,-0.6135624,0.0,0.0,0.0,0.0
14.76,1158.5700984,-0.8132064000000001,1.1387328,-0.5367528,0.0,0.0,0.0,0.0
14.78,1158.8877,-0.7046976,0.7046976,-0.4599432,0.0,0.0,0.0,0.0
14.8,1159.2818064,-0.9759696,1.0844784,-0.7668768,0.0,0.0,0.0,0.0
14.82,1159.6874952,-1.030224,1.4639544,-0.6135624,0.0,0.0,0.0,0.0
14.84,1159.9718736,-0.9759696,1.0844784,-0.4599432,0.0,0.0,0.0,0.0
14.86,1160.3632368,-0.9217152000000001,1.030224,-0.6135624,0.0,0.0,0.0,0.0
14.88,1160.8027584000001,-0.7046976,0.8132064000000001,-0.3834384,0.0,0.0,0.0,0.0
14.9,1161.2209440000001,-0.8132064000000001,1.030224,-0.4599432,0.0,0.0,0.0,0.0
14.92,1161.544032,-0.8674608,1.1926824,-0.6135624,0.0,0.0,0.0,0.0
14.94,1161.9512448,-0.8674608,0.8674608,-0.6135624,0.0,0.0,0.0,0.0
14.96,1162.33956,-1.1387328,1.1387328,-0.5367528,0.0,0.0,0.0,0.0
14.98,1162.8452232,-1.030224,1.1387328,-0.6900672,0.0,0.0,0.0,0.0
15.0,1163.3185776,-0.9759696,0.8674608,-0.5367528,0.0,0.0,0.0,0.0
15.02,1163.8303368,-1.030224,1.1387328,-0.4599432,0.0,0.0,0.0,0.0
15.040000000000001,1164.271992,-1.030224,1.1387328,-0.5367528,0.0,0.0,0.0,0.0
15.06,1164.6767664000001,-0.9217152000000001,1.030224,-0.4599432,0.0,0.0,0.0,0.0
15.08,1165.09038,-1.0844784,0.9759696,-0.3834384,0.0,0.0,0.0,0.0
15.1,1165.4902776,-0.9759696,0.8674608,-0.6135624,0.0,0.0,0.0,0.0
15.12,1165.9624128,-0.9217152000000001,1.030224,-0.4599432,0.0,0.0,0.0,0.0
15.14,1166.3937048,-0.8674608,0.8674608,-0.4599432,0.0,0.0,0.0,0.0
15.16,1166.7003336,-0.7046976,0.8132064000000001,-0.4599432,0.0,0.0,0.0,0.0
15.18,1167.0346992,-0.7589520000000001,0.9759696,-0.3834384,0.0,0.0,0.0,0.0
15.2,1167.4787928,-1.030224,0.8132064000000001,-0.4599432,0.0,0.0,0.0,0.0
15.22,1167.7454928000002,-0.5422392,0.8674608,-0.5367528,0.0,0.0,0.0,0.0
15.24,1168.1859288,-1.1926824,0.9759696,-0.5367528,0.0,0.0,0.0,0.0
15.26,1168.4383032,-1.2469368,1.2469368,-0.4599432,0.0,0.0,0.0,0.0
