time,baro_altitude,accl_x,accl_y,accl_z,gps_altitude,gyro_roll,gyro_pitch,gyro_yaw
0.0,0.0,-5.1508152,-7.970215200000001,-0.8433816000000001,0.0,0.0,0.0,0.0
0.020000000000000462,0.0536448,-5.096560800000001,-7.915960800000001,-0.7668768,0.0,0.0,0.0,0.0
0.040000000000000036,0.1941576,-5.096560800000001,-7.807452,-0.7668768,0.0,0.0,0.0,0.0
0.05999999999999961,0.3389376,-5.0423064,-7.970215200000001,-0.7668768,0.0,0.0,0.0,0.0
0.08000000000000007,0.2502408,-5.096560800000001,-7.915960800000001,-0.8433816000000001,0.0,0.0,0.0,0.0
0.09999999999999964,0.176784,-5.1508152,-7.970215200000001,-0.6900672,0.0,0.0,0.0,0.0
0.1200000000000001,0.08290560000000001,-5.0423064,-7.8617064,-0.7668768,0.0,0.0,0.0,0.0
0.13999999999999968,0.0082296,-5.096560800000001,-7.915960800000001,-0.7668768,0.0,0.0,0.0,0.0
0.16000000000000014,-0.016459200000000004,-5.1508152,-7.970215200000001,-0.7668768,0.0,0.0,0.0,0.0
0.17999999999999972,-0.1664208,-5.096560800000001,-7.915960800000001,-0.7668768,0.0,0.0,0.0,0.0
0.20000000000000018,-0.0816864,-5.096560800000001,-7.915960800000001,-0.7668768,0.0,0.0,0.0,0.0
0.21999999999999975,-0.010058399999999997,-5.0423064,-7.970215200000001,-0.9201912000000001,0.0,0.0,0.0,0.0
0.2400000000000002,0.1313688,-5.205069600000001,-7.807452,-0.7668768,0.0,0.0,0.0,0.0
0.2599999999999998,0.029260800000000003,-5.0423064,-7.970215200000001,-0.6900672,0.0,0.0,0.0,0.0
0.28000000000000025,0.06309360000000001,-5.0423064,-7.8617064,-0.7668768,0.0,0.0,0.0,0.0
0.2999999999999998,0.0743712,-5.096560800000001,-7.915960800000001,-0.7668768,0.0,0.0,0.0,0.0
0.3200000000000003,0.1313688,-5.0423064,-7.970215200000001,-0.7668768,0.0,0.0,0.0,0.0
0.33999999999999986,0.1914144,-4.988052,-7.915960800000001,-0.6900672,0.0,0.0,0.0,0.0
0.3600000000000003,0.1383792,-5.096560800000001,-8.024164800000001,-0.8433816000000001,0.0,0.0,0.0,0.0
0.3799999999999999,0.06096000000000001,-5.1508152,-7.970215200000001,-0.6900672,0.0,0.0,0.0,0.0
0.40000000000000036,0.031089600000000005,-4.988052,-8.024164800000001,-0.7668768,0.0,0.0,0.0,0.0
0.41999999999999993,0.1225296,-5.096560800000001,-8.024164800000001,-0.6900672,0.0,0.0,0.0,0.0
0.4400000000000004,0.31120080000000006,-4.933797600000001,-7.970215200000001,-0.8433816000000001,0.0,0.0,0.0,0.0
0.45999999999999996,0.39075360000000003,-5.096560800000001,-7.915960800000001,-0.8433816000000001,0.0,0.0,0.0,0.0
0.4800000000000004,0.3486912,-5.0423064,-7.970215200000001,-0.7668768,0.0,0.0,0.0,0.0
0.5,0.4081272,-5.0423064,-7.970215200000001,-0.8433816000000001,0.0,0.0,0.0,0.0
0.5200000000000005,0.26730960000000004,-5.096560800000001,-7.915960800000001,-0.8433816000000001,0.0,0.0,0.0,0.0
0.54,0.2667,-5.0423064,-7.970215200000001,-0.7668768,0.0,0.0,0.0,0.0
0.56,0.26487120000000003,-5.096560800000001,-7.915960800000001,-0.7668768,0.0,0.0,0.0,0.0
0.5800000000000001,0.2444496,-4.988052,-7.915960800000001,-0.8433816000000001,0.0,0.0,0.0,0.0
0.6000000000000001,0.1121664,-5.0423064,-7.970215200000001,-0.7668768,0.0,0.0,0.0,0.0
0.6200000000000001,0.10759439999999999,-5.096560800000001,-7.915960800000001,-0.8433816000000001,0.0,0.0,0.0,0.0
0.6400000000000001,0.024384000000000003,-5.1508152,-7.970215200000001,-0.7668768,0.0,0.0,0.0,0.0
0.6600000000000001,-0.0545592,-5.096560800000001,-7.915960800000001,-0.7668768,0.0,0.0,0.0,0.0
0.6800000000000002,0.10088880000000001,-5.096560800000001,-7.915960800000001,-0.7668768,0.0,0.0,0.0,0.0
0.7000000000000002,-0.09966960000000001,-5.096560800000001,-7.915960800000001,-0.7668768,0.0,0.0,0.0,0.0
0.7200000000000002,-0.12252960000000002,-5.096560800000001,-7.915960800000001,-0.6900672,0.0,0.0,0.0,0.0
0.7400000000000002,0.030784800000000005,-5.096560800000001,-7.915960800000001,-0.6900672,0.0,0.0,0.0,0.0
0.7600000000000002,0.007620000000000003,-5.1508152,-7.970215200000001,-0.7668768,0.0,0.0,0.0,0.0
0.7800000000000002,0.1405128,-5.0423064,-7.970215200000001,-0.7668768,0.0,0.0,0.0,0.0
0.7999999999999998,0.14782800000000001,-4.988052,-7.915960800000001,-0.7668768,0.0,0.0,0.0,0.0
0.8199999999999998,0.10302240000000001,-5.096560800000001,-7.915960800000001,-0.7668768,0.0,0.0,0.0,0.0
0.8399999999999999,0.051206400000000006,-5.096560800000001,-7.915960800000001,-0.7668768,0.0,0.0,0.0,0.0
0.8599999999999999,-0.039319200000000006,-5.1508152,-7.970215200000001,-0.6900672,0.0,0.0,0.0,0.0
0.8799999999999999,0.2691384,-5.096560800000001,-7.915960800000001,-0.6900672,0.0,0.0,0.0,0.0
0.8999999999999999,0.05151120000000001,-5.096560800000001,-7.915960800000001,-0.6900672,0.0,0.0,0.0,0.0
0.9199999999999999,-0.08900160000000001,-5.096560800000001,-7.915960800000001,-0.8433816000000001,0.0,0.0,0.0,0.0
0.94,-0.0832104,-4.988052,-7.915960800000001,-0.8433816000000001,0.0,0.0,0.0,0.0
0.96,0.006400800000000002,-5.0423064,-7.970215200000001,-0.7668768,0.0,0.0,0.0,0.0
0.98,-0.05029200000000001,-5.0423064,-7.970215200000001,-0.7668768,0.0,0.0,0.0,0.0
1.0,0.10302240000000001,-5.096560800000001,-7.915960800000001,-0.7668768,0.0,0.0,0.0,0.0
1.02,0.0923544,-4.988052,-8.024164800000001,-0.7668768,0.0,0.0,0.0,0.0
1.04,0.1816608,-5.096560800000001,-7.915960800000001,-0.7668768,0.0,0.0,0.0,0.0
1.06,0.10180320000000001,-5.0423064,-7.970215200000001,-0.7668768,0.0,0.0,0.0,0.0
1.08,0.1353312,-5.0423064,-7.970215200000001,-0.6900672,0.0,0.0,0.0,0.0
1.1,0.07802880000000001,-5.0423064,-7.8617064,-0.6900672,0.0,0.0,0.0,0.0
1.12,0.09631680000000001,-5.0423064,-7.970215200000001,-0.6900672,0.0,0.0,0.0,0.0
1.1400000000000001,0.06096000000000001,-5.096560800000001,-7.915960800000001,-0.8433816000000001,0.0,0.0,0.0,0.0
1.1600000000000001,-0.0832104,-5.0423064,-7.970215200000001,-0.7668768,0.0,0.0,0.0,0.0
1.1800000000000002,-0.19537680000000002,-5.096560800000001,-7.915960800000001,-0.7668768,0.0,0.0,0.0,0.0
1.2000000000000002,-0.2307336,-5.096560800000001,-7.915960800000001,-0.7668768,0.0,0.0,0.0,0.0
1.2200000000000002,-0.13685520000000004,-5.096560800000001,-7.915960800000001,-0.7668768,0.0,0.0,0.0,0.0
1.2400000000000002,-0.0749808,-5.096560800000001,-8.024164800000001,-0.7668768,0.0,0.0,0.0,0.0
1.2600000000000002,-0.056388,-5.096560800000001,-7.915960800000001,-0.7668768,0.0,0.0,0.0,0.0
1.2800000000000002,0.041757600000000006,-5.0423064,-7.8617064,-0.7668768,0.0,0.0,0.0,0.0
1.2999999999999998,-0.060350400000000005,-5.0423064,-7.8617064,-0.8433816000000001,0.0,0.0,0.0,0.0
1.3199999999999998,0.006705600000000002,-5.0423064,-7.970215200000001,-0.7668768,0.0,0.0,0.0,0.0
1.3399999999999999,0.1905,-5.096560800000001,-7.915960800000001,-0.9201912000000001,0.0,0.0,0.0,0.0
1.3599999999999999,0.23561040000000003,-5.096560800000001,-7.915960800000001,-0.7668768,0.0,0.0,0.0,0.0
1.38,0.11734800000000001,-5.0423064,-7.8617064,-0.7668768,0.0,0.0,0.0,0.0
1.4,0.1840992,-5.0423064,-7.8617064,-0.8433816000000001,0.0,0.0,0.0,0.0
1.42,0.10180320000000001,-5.0423064,-7.970215200000001,-0.7668768,0.0,0.0,0.0,0.0
1.44,0.09966960000000001,-4.988052,-8.024164800000001,-0.7668768,0.0,0.0,0.0,0.0
1.46,0.24475439999999998,-4.988052,-7.915960800000001,-0.7668768,0.0,0.0,0.0,0.0
1.48,0.2892552,-5.0423064,-7.970215200000001,-0.7668768,0.0,0.0,0.0,0.0
1.5,0.0560832,-5.0423064,-7.970215200000001,-0.8433816000000001,0.0,0.0,0.0,0.0
1.52,-0.08138160000000001,-5.096560800000001,-8.024164800000001,-0.7668768,0.0,0.0,0.0,0.0
1.54,-0.08900160000000001,-5.1508152,-7.8617064,-0.7668768,0.0,0.0,0.0,0.0
1.56,-0.10698480000000002,-5.1508152,-8.0784192,-0.7668768,0.0,0.0,0.0,0.0
1.58,-0.08412480000000001,-5.096560800000001,-7.915960800000001,-0.7668768,0.0,0.0,0.0,0.0
1.6,-0.062484000000000005,-5.096560800000001,-7.915960800000001,-0.7668768,0.0,0.0,0.0,0.0
1.62,-0.041757600000000006,-4.988052,-7.915960800000001,-0.8433816000000001,0.0,0.0,0.0,0.0
1.6400000000000001,-0.0560832,-5.096560800000001,-7.915960800000001,-0.6900672,0.0,0.0,0.0,0.0
1.6600000000000001,-0.015240000000000002,-5.096560800000001,-7.915960800000001,-0.7668768,0.0,0.0,0.0,0.0
1.6800000000000002,-0.0798576,-5.1508152,-7.970215200000001,-0.7668768,0.0,0.0,0.0,0.0
1.7000000000000002,-0.0643128,-5.096560800000001,-7.915960800000001,-0.9201912000000001,0.0,0.0,0.0,0.0
1.7200000000000002,-0.13289280000000003,-5.096560800000001,-7.915960800000001,-0.7668768,0.0,0.0,0.0,0.0
1.7400000000000002,-0.2167128,-5.0423064,-7.970215200000001,-0.7668768,0.0,0.0,0.0,0.0
1.7600000000000002,-0.24597360000000001,-5.096560800000001,-7.915960800000001,-0.7668768,0.0,0.0,0.0,0.0
1.7800000000000002,-0.16459200000000002,-5.0423064,-7.970215200000001,-0.7668768,0.0,0.0,0.0,0.0
1.7999999999999998,-0.27919679999999997,-5.1508152,-7.970215200000001,-0.7668768,0.0,0.0,0.0,0.0
1.8199999999999998,-0.26730960000000004,-5.0423064,-7.8617064,-0.8433816000000001,0.0,0.0,0.0,0.0
1.8399999999999999,-0.054864,-5.0423064,-7.970215200000001,-0.8433816000000001,0.0,0.0,0.0,0.0
1.8599999999999999,-0.0018288000000000017,-5.096560800000001,-7.915960800000001,-0.7668768,0.0,0.0,0.0,0.0
1.88,-0.010667999999999997,-5.0423064,-7.8617064,-0.6900672,0.0,0.0,0.0,0.0
1.9,-0.037185600000000006,-5.0423064,-7.970215200000001,-0.9201912000000001,0.0,0.0,0.0,0.0
1.92,0.0057912000000000016,-5.096560800000001,-7.915960800000001,-0.6900672,0.0,0.0,0.0,0.0
1.94,0.0368808,-5.1508152,-7.970215200000001,-0.7668768,0.0,0.0,0.0,0.0
1.96,-0.008534400000000004,-5.0423064,-7.970215200000001,-0.7668768,0.0,0.0,0.0,0.0
1.98,0.06979919999999999,-5.096560800000001,-8.024164800000001,-0.7668768,0.0,0.0,0.0,0.0
2.0,0.17617440000000004,-5.0423064,-7.8617064,-0.8433816000000001,0.0,0.0,0.0,0.0
2.02,0.1414272,-5.096560800000001,-7.915960800000001,-0.8433816000000001,0.0,0.0,0.0,0.0
2.04,0.2886456,-5.096560800000001,-7.915960800000001,-0.8433816000000001,0.0,0.0,0.0,0.0
2.06,0.2505456,-5.1508152,-7.970215200000001,-0.7668768,0.0,0.0,0.0,0.0
2.08,0.1331976,-5.096560800000001,-8.024164800000001,-0.6900672,0.0,0.0,0.0,0.0
2.1,0.16703040000000002,-4.988052,-7.915960800000001,-0.7668768,0.0,0.0,0.0,0.0
2.12,0.2404872,-5.1508152,-7.8617064,-0.9201912000000001,0.0,0.0,0.0,0.0
2.14,0.24475439999999998,-5.1508152,-7.970215200000001,-0.7668768,0.0,0.0,0.0,0.0
2.16,0.22738080000000002,-4.988052,-8.024164800000001,-0.8433816000000001,0.0,0.0,0.0,0.0
2.18,0.2599944,-5.0423064,-7.8617064,-0.8433816000000001,0.0,0.0,0.0,0.0
2.2,0.23317200000000002,-5.096560800000001,-7.915960800000001,-0.7668768,0.0,0.0,0.0,0.0
2.22,0.19232880000000002,-5.0423064,-7.970215200000001,-0.7668768,0.0,0.0,0.0,0.0
2.24,0.257556,-5.0423064,-7.970215200000001,-0.6900672,0.0,0.0,0.0,0.0
2.2600000000000002,0.24262080000000003,-5.096560800000001,-8.024164800000001,-0.7668768,0.0,0.0,0.0,0.0
2.2800000000000002,0.0978408,-5.096560800000001,-7.915960800000001,-0.6135624,0.0,0.0,0.0,0.0
2.3,0.0999744,-5.0423064,-7.970215200000001,-0.6900672,0.0,0.0,0.0,0.0
2.32,-0.028956,-5.096560800000001,-7.915960800000001,-0.6900672,0.0,0.0,0.0,0.0
2.34,0.1207008,-5.0423064,-7.970215200000001,-0.8433816000000001,0.0,0.0,0.0,0.0
2.36,0.1115568,-5.205069600000001,-7.915960800000001,-0.7668768,0.0,0.0,0.0,0.0
2.38,0.0713232,-5.1508152,-7.970215200000001,-0.6900672,0.0,0.0,0.0,0.0
2.4,0.15727680000000002,-5.096560800000001,-7.915960800000001,-0.6900672,0.0,0.0,0.0,0.0
2.42,0.2267712,-5.0423064,-7.970215200000001,-0.8433816000000001,0.0,0.0,0.0,0.0
2.44,0.31516320000000003,-5.096560800000001,-7.915960800000001,-0.7668768,0.0,0.0,0.0,0.0
2.46,0.2170176,-5.096560800000001,-8.024164800000001,-0.9201912000000001,0.0,0.0,0.0,0.0
2.48,0.3020568,-5.096560800000001,-7.915960800000001,-0.7668768,0.0,0.0,0.0,0.0
2.5,0.005181600000000001,-5.096560800000001,-8.024164800000001,-0.7668768,0.0,0.0,0.0,0.0
2.52,0.1347216,-5.1508152,-7.8617064,-0.8433816000000001,0.0,0.0,0.0,0.0
2.54,-0.024384000000000003,-5.096560800000001,-7.915960800000001,-0.8433816000000001,0.0,0.0,0.0,0.0
2.56,-0.06400800000000001,-5.0423064,-7.970215200000001,-0.7668768,0.0,0.0,0.0,0.0
2.58,-0.07589520000000001,-5.096560800000001,-7.807452,-0.7668768,0.0,0.0,0.0,0.0
2.6,0.0018288000000000017,-5.096560800000001,-8.024164800000001,-0.8433816000000001,0.0,0.0,0.0,0.0
2.62,0.050901600000000005,-5.0423064,-7.970215200000001,-0.7668768,0.0,0.0,0.0,0.0
2.64,0.1258824,-4.988052,-7.915960800000001,-0.7668768,0.0,0.0,0.0,0.0
2.66,0.2173224,-5.096560800000001,-7.915960800000001,-0.7668768,0.0,0.0,0.0,0.0
2.6799999999999997,0.04236720000000001,-5.096560800000001,-8.024164800000001,-0.6135624,0.0,0.0,0.0,0.0
2.7,0.10027920000000001,-5.096560800000001,-7.915960800000001,-0.8433816000000001,0.0,0.0,0.0,0.0
2.7199999999999998,0.2121408,-5.096560800000001,-7.915960800000001,-0.6900672,0.0,0.0,0.0,0.0
2.74,0.2816352,-4.988052,-7.915960800000001,-0.8433816000000001,0.0,0.0,0.0,0.0
2.76,0.135636,-5.0423064,-7.8617064,-0.7668768,0.0,0.0,0.0,0.0
2.7800000000000002,0.265176,-5.1508152,-7.970215200000001,-0.7668768,0.0,0.0,0.0,0.0
2.8,0.08442960000000001,-5.1508152,-7.970215200000001,-0.6900672,0.0,0.0,0.0,0.0
2.8200000000000003,0.0893064,-5.1508152,-7.8617064,-0.7668768,0.0,0.0,0.0,0.0
2.84,0.109728,-5.0423064,-7.970215200000001,-0.8433816000000001,0.0,0.0,0.0,0.0
2.8600000000000003,-0.07071360000000002,-5.096560800000001,-7.915960800000001,-0.8433816000000001,0.0,0.0,0.0,0.0
2.88,0.10088880000000001,-5.1508152,-7.970215200000001,-0.7668768,0.0,0.0,0.0,0.0
2.9000000000000004,0.0088392,-5.096560800000001,-7.915960800000001,-0.8433816000000001,0.0,0.0,0.0,0.0
2.92,-0.0783336,-5.096560800000001,-7.915960800000001,-0.8433816000000001,0.0,0.0,0.0,0.0
2.94,-0.0301752,-5.1508152,-7.8617064,-0.7668768,0.0,0.0,0.0,0.0
2.96,-0.12070080000000001,-5.1508152,-7.8617064,-0.8433816000000001,0.0,0.0,0.0,0.0
2.98,-0.1551432,-4.988052,-7.915960800000001,-0.8433816000000001,0.0,0.0,0.0,0.0
3.0,-0.04511040000000001,-4.933797600000001,-7.970215200000001,-0.7668768,0.0,0.0,0.0,0.0
3.02,-0.07040880000000002,-5.096560800000001,-7.915960800000001,-0.7668768,0.0,0.0,0.0,0.0
3.04,-0.0722376,-4.988052,-8.024164800000001,-0.7668768,0.0,0.0,0.0,0.0
3.06,-0.004572,-5.096560800000001,-7.915960800000001,-0.8433816000000001,0.0,0.0,0.0,0.0
3.08,-0.0649224,-5.096560800000001,-7.915960800000001,-0.8433816000000001,0.0,0.0,0.0,0.0
3.1,0.11765280000000002,-5.096560800000001,-8.024164800000001,-0.9201912000000001,0.0,0.0,0.0,0.0
3.12,0.1133856,-5.0423064,-7.8617064,-0.7668768,0.0,0.0,0.0,0.0
3.14,0.0737616,-5.096560800000001,-7.915960800000001,-0.7668768,0.0,0.0,0.0,0.0
3.16,0.0402336,-5.1508152,-7.8617064,-0.6900672,0.0,0.0,0.0,0.0
3.1799999999999997,-0.06949440000000001,-5.096560800000001,-7.915960800000001,-0.6900672,0.0,0.0,0.0,0.0
3.2,-0.041452800000000005,-4.988052,-7.915960800000001,-0.7668768,0.0,0.0,0.0,0.0
3.2199999999999998,-0.0353568,-5.1508152,-7.970215200000001,-0.7668768,0.0,0.0,0.0,0.0
3.24,-0.1435608,-5.096560800000001,-7.915960800000001,-0.7668768,0.0,0.0,0.0,0.0
3.26,-0.24505920000000003,-5.0423064,-7.8617064,-0.7668768,0.0,0.0,0.0,0.0
3.2800000000000002,-0.2215896,-5.1508152,-7.8617064,-0.7668768,0.0,0.0,0.0,0.0
3.3,-0.051816000000000015,-5.0423064,-7.970215200000001,-0.8433816000000001,0.0,0.0,0.0,0.0
3.3200000000000003,0.2161032,-4.988052,-7.915960800000001,-0.8433816000000001,0.0,0.0,0.0,0.0
3.34,0.2938272,-5.096560800000001,-7.915960800000001,-0.9201912000000001,0.0,0.0,0.0,0.0
3.3600000000000003,0.216408,-5.096560800000001,-7.915960800000001,-0.8433816000000001,0.0,0.0,0.0,0.0
3.38,0.09906000000000001,-5.096560800000001,-7.915960800000001,-0.6900672,0.0,0.0,0.0,0.0
3.4000000000000004,0.08534400000000002,-5.0423064,-7.970215200000001,-0.7668768,0.0,0.0,0.0,0.0
3.42,0.2855976,-5.1508152,-7.970215200000001,-0.6900672,0.0,0.0,0.0,0.0
3.44,0.1441704,-5.096560800000001,-7.915960800000001,-0.7668768,0.0,0.0,0.0,0.0
3.46,0.1100328,-5.1508152,-7.8617064,-0.7668768,0.0,0.0,0.0,0.0
3.48,0.0164592,-5.096560800000001,-7.807452,-0.8433816000000001,0.0,0.0,0.0,0.0
3.5,-0.025908000000000004,-5.096560800000001,-7.915960800000001,-0.8433816000000001,0.0,0.0,0.0,0.0
3.52,-0.057607200000000004,-5.0423064,-7.970215200000001,-0.8433816000000001,0.0,0.0,0.0,0.0
3.54,-0.1789176,-5.0423064,-7.970215200000001,-0.8433816000000001,0.0,0.0,0.0,0.0
3.56,-0.0728472,-5.0423064,-7.8617064,-0.7668768,0.0,0.0,0.0,0.0
3.58,0.0643128,-5.0423064,-7.970215200000001,-0.8433816000000001,0.0,0.0,0.0,0.0
3.6,0.0917448,-5.0423064,-7.970215200000001,-0.7668768,0.0,0.0,0.0,0.0
3.62,0.1459992,-5.096560800000001,-7.915960800000001,-0.7668768,0.0,0.0,0.0,0.0
3.64,0.022250400000000004,-5.1508152,-7.970215200000001,-0.8433816000000001,0.0,0.0,0.0,0.0
3.66,0.0719328,-5.0423064,-7.970215200000001,-0.6900672,0.0,0.0,0.0,0.0
3.68,0.1118616,-5.096560800000001,-7.915960800000001,-0.6900672,0.0,0.0,0.0,0.0
3.7,0.010668000000000002,-5.096560800000001,-8.024164800000001,-0.7668768,0.0,0.0,0.0,0.0
3.72,0.24292560000000002,-5.096560800000001,-7.915960800000001,-0.7668768,0.0,0.0,0.0,0.0
3.74,0.24384,-5.096560800000001,-7.915960800000001,-0.7668768,0.0,0.0,0.0,0.0
3.76,0.2063496,-5.0423064,-7.8617064,-0.7668768,0.0,0.0,0.0,0.0
3.7800000000000002,0.0755904,-5.1508152,-7.970215200000001,-0.6900672,0.0,0.0,0.0,0.0
3.8,0.06858,-5.096560800000001,-8.024164800000001,-0.8433816000000001,0.0,0.0,0.0,0.0
3.8200000000000003,0.0643128,-5.0423064,-7.970215200000001,-0.8433816000000001,0.0,0.0,0.0,0.0
3.84,0.1106424,-5.0423064,-7.8617064,-0.8433816000000001,0.0,0.0,0.0,0.0
3.86,0.2130552,-5.096560800000001,-7.915960800000001,-0.7668768,0.0,0.0,0.0,0.0
3.88,0.0789432,-4.988052,-7.915960800000001,-0.7668768,0.0,0.0,0.0,0.0
3.9,0.10393680000000001,-5.0423064,-7.970215200000001,-0.9201912000000001,0.0,0.0,0.0,0.0
3.92,0.0740664,-5.1508152,-7.8617064,-0.8433816000000001,0.0,0.0,0.0,0.0
3.94,0.11704320000000001,-5.096560800000001,-7.807452,-0.6900672,0.0,0.0,0.0,0.0
3.96,-0.06339840000000001,-5.096560800000001,-7.915960800000001,-0.8433816000000001,0.0,0.0,0.0,0.0
3.98,0.0768096,-5.096560800000001,-7.915960800000001,-0.7668768,0.0,0.0,0.0,0.0
4.0,0.1078992,-5.0423064,-7.970215200000001,-0.7668768,0.0,0.0,0.0,0.0
4.02,0.2633472,-5.096560800000001,-7.915960800000001,-0.6900672,0.0,0.0,0.0,0.0
4.04,0.3998976,-4.988052,-7.915960800000001,-0.7668768,0.0,0.0,0.0,0.0
4.0600000000000005,0.2892552,-5.0423064,-7.970215200000001,-0.7668768,0.0,0.0,0.0,0.0
4.08,0.3127248,-5.096560800000001,-7.915960800000001,-0.7668768,0.0,0.0,0.0,0.0
4.1,0.2282952,-5.096560800000001,-7.915960800000001,-0.8433816000000001,0.0,0.0,0.0,0.0
4.12,0.30693360000000003,-5.096560800000001,-7.915960800000001,-0.8433816000000001,0.0,0.0,0.0,0.0
4.14,0.10363200000000002,-5.0423064,-7.970215200000001,-0.6900672,0.0,0.0,0.0,0.0
4.16,0.0734568,-5.0423064,-7.970215200000001,-0.7668768,0.0,0.0,0.0,0.0
4.18,0.06858,-5.0423064,-7.970215200000001,-0.7668768,0.0,0.0,0.0,0.0
4.2,-0.0972312,-5.096560800000001,-7.807452,-0.9201912000000001,0.0,0.0,0.0,0.0
4.22,-0.10881360000000002,-4.988052,-7.915960800000001,-0.7668768,0.0,0.0,0.0,0.0
4.24,-0.0789432,-5.096560800000001,-7.915960800000001,-0.8433816000000001,0.0,0.0,0.0,0.0
4.26,-0.08260080000000002,-5.096560800000001,-8.024164800000001,-0.7668768,0.0,0.0,0.0,0.0
4.28,-0.03048,-5.096560800000001,-7.915960800000001,-0.6900672,0.0,0.0,0.0,0.0
4.3,0.0795528,-5.205069600000001,-7.915960800000001,-0.8433816000000001,0.0,0.0,0.0,0.0
4.32,0.0216408,-5.096560800000001,-7.915960800000001,-0.7668768,0.0,0.0,0.0,0.0
4.34,0.05852160000000001,-4.988052,-7.915960800000001,-0.8433816000000001,0.0,0.0,0.0,0.0
4.36,0.0725424,-5.096560800000001,-8.024164800000001,-0.7668768,0.0,0.0,0.0,0.0
4.38,-0.0323088,-5.0423064,-7.970215200000001,-0.8433816000000001,0.0,0.0,0.0,0.0
4.4,0.0164592,-5.0423064,-7.970215200000001,-0.8433816000000001,0.0,0.0,0.0,0.0
4.42,0.025298400000000002,-5.096560800000001,-7.915960800000001,-0.7668768,0.0,0.0,0.0,0.0
4.44,0.1466088,-5.096560800000001,-7.807452,-0.7668768,0.0,0.0,0.0,0.0
4.46,0.1429512,-5.0423064,-7.970215200000001,-0.8433816000000001,0.0,0.0,0.0,0.0
4.48,0.10485120000000002,-5.1508152,-7.8617064,-0.7668768,0.0,0.0,0.0,0.0
4.5,0.071628,-5.096560800000001,-7.915960800000001,-0.6900672,0.0,0.0,0.0,0.0
4.5200000000000005,0.324612,-5.205069600000001,-8.024164800000001,-0.7668768,0.0,0.0,0.0,0.0
4.54,0.3557016,-5.0423064,-7.970215200000001,-0.7668768,0.0,0.0,0.0,0.0
4.56,0.3252216,-5.0423064,-7.970215200000001,-0.8433816000000001,0.0,0.0,0.0,0.0
4.58,0.2938272,-5.096560800000001,-7.915960800000001,-0.7668768,0.0,0.0,0.0,0.0
4.6,0.1664208,-5.1508152,-7.970215200000001,-0.8433816000000001,0.0,0.0,0.0,0.0
4.62,0.1121664,-5.0423064,-7.8617064,-0.8433816000000001,0.0,0.0,0.0,0.0
4.64,0.0530352,-31.8802512,-55.8448464,-27.1433544,0.0,0.0,0.0,0.0
4.66,0.1392936,-85.5564456,-136.5217488,63.9479544,0.0,0.0,0.0,0.0
4.68,0.2734056,-77.3152632,-128.9310096,32.357263200000006,0.0,0.0,0.0,0.0
4.7,0.5596128,-68.8031136,-132.99734640000003,23.0029512,0.0,0.0,0.0,0.0
4.72,0.7787640000000001,-72.16444800000001,-126.3828816,30.133747200000002,0.0,0.0,0.0,0.0
4.74,0.9896856000000002,-71.4597504,-128.8228056,31.8205104,0.0,0.0,0.0,0.0
4.76,1.2079224000000002,-71.5682592,-133.59384,16.178784,0.0,0.0,0.0,0.0
4.78,1.443228,-78.453996,-139.0698768,29.673804000000004,0.0,0.0,0.0,0.0
4.8,1.606296,-79.3757112,-138.25667040000002,34.4277696,0.0,0.0,0.0,0.0
4.82,1.7757648,-79.59242400000001,-142.4857704,36.9579144,0.0,0.0,0.0,0.0
4.84,1.8169127999999999,-78.7249632,-143.3532312,36.0377232,0.0,0.0,0.0,0.0
4.86,1.7900904,-79.7009328,-142.37726160000003,36.3446568,0.0,0.0,0.0,0.0
4.88,2.007108,-80.0804088,-141.99778560000001,37.801296,0.0,0.0,0.0,0.0
4.9,2.2378416,-79.8094416,-142.26875280000002,37.571476800000006,0.0,0.0,0.0,0.0
4.92,2.5249632,-78.7249632,-141.401292,37.417857600000005,0.0,0.0,0.0,0.0
4.94,2.9044392,-78.7792176,-139.28689440000002,38.874801600000005,0.0,0.0,0.0,0.0
4.96,3.4168080000000005,-75.79705440000001,-138.3651792,39.1814304,0.0,0.0,0.0,0.0
4.98,4.308652800000001,-74.4416088,-136.792716,40.254936,0.0,0.0,0.0,0.0
5.0,5.3397912000000005,-72.056244,-133.865112,40.9450032,0.0,0.0,0.0,0.0
5.02,6.595872000000001,-70.3210176,-134.51555520000002,42.4019472,0.0,0.0,0.0,0.0
5.04,8.239353600000001,-68.69460480000001,-132.0216816,43.5519576,0.0,0.0,0.0,0.0
5.0600000000000005,10.5259632,-68.7488592,-133.2686184,46.4658456,0.0,0.0,0.0,0.0
5.08,12.8253744,-68.2608744,-131.5879512,46.9257888,0.0,0.0,0.0,0.0
5.1,15.376245599999999,-66.30893520000001,-130.0697424,48.1526088,0.0,0.0,0.0,0.0
5.12,17.8557936,-66.0922224,-130.7201856,48.6893616,0.0,0.0,0.0,0.0
5.14,19.781520000000004,-67.0139376,-128.7142968,48.61285680000001,0.0,0.0,0.0,0.0
5.16,20.915376000000002,-67.2849048,-127.14183360000001,49.456238400000004,0.0,0.0,0.0,0.0
5.18,20.890382400000004,-67.0139376,-126.9793752,48.1526088,0.0,0.0,0.0,0.0
5.2,19.934224800000003,-68.7488592,-125.1359448,46.0824072,0.0,0.0,0.0,0.0
5.22,19.174968,-69.8872872,-126.27437280000001,45.162216,0.0,0.0,0.0,0.0
5.24,18.007584,-71.6225136,-125.5154208,44.2423296,0.0,0.0,0.0,0.0
5.26,16.5405816,-73.6284024,-124.5937056,43.32213840000001,0.0,0.0,0.0,0.0
5.28,15.118994399999998,-75.4718328,-123.1840056,41.71188,0.0,0.0,0.0,0.0
5.3,13.740384,-76.9357872,-122.37079920000001,41.635070400000004,0.0,0.0,0.0,0.0
5.32,12.662916,-78.3997416,-122.53325760000001,41.86519440000001,0.0,0.0,0.0,0.0
5.34,11.9844312,-80.1346632,-122.64176640000001,42.248632799999996,0.0,0.0,0.0,0.0
5.36,11.605564800000002,-80.5141392,-121.9370688,43.5519576,0.0,0.0,0.0,0.0
5.38,11.5665504,-80.8936152,-120.3646056,46.235721600000005,0.0,0.0,0.0,0.0
5.4,11.743639199999999,-80.29742639999999,-119.8766208,47.3092272,0.0,0.0,0.0,0.0
5.42,12.1685304,-75.25512,-121.449084,48.459542400000004,0.0,0.0,0.0,0.0
5.44,12.627864,-73.5198936,-120.9068448,47.5393512,0.0,0.0,0.0,0.0
5.46,12.843052799999999,-70.0500504,-123.1840056,47.615856,0.0,0.0,0.0,0.0
5.48,12.836651999999999,-66.47169840000001,-124.9189272,47.999294400000004,0.0,0.0,0.0,0.0
5.5,12.9256536,-64.5740136,-128.1178032,45.545654400000004,0.0,0.0,0.0,0.0
5.52,12.9076704,-63.598044,-130.2864552,44.16552,0.0,0.0,0.0,0.0
5.54,12.597079200000001,-62.6220744,-129.636012,41.788689600000005,0.0,0.0,0.0,0.0
5.5600000000000005,12.3355608,-64.4112504,-128.9310096,40.791688799999996,0.0,0.0,0.0,0.0
5.58,12.046915199999999,-67.0139376,-128.9310096,40.9450032,0.0,0.0,0.0,0.0
5.6,11.9637048,-68.85736800000001,-126.6538488,41.5585656,0.0,0.0,0.0,0.0
5.62,12.008815199999999,-69.7790832,-125.29840320000001,45.392340000000004,0.0,0.0,0.0,0.0
5.640000000000001,12.2694192,-70.8632568,-123.3467688,47.2324176,0.0,0.0,0.0,0.0
5.66,12.686995199999998,-70.754748,-125.406912,47.46254160000001,0.0,0.0,0.0,0.0
5.68,13.19784,-67.71863520000001,-125.406912,46.235721600000005,0.0,0.0,0.0,0.0
5.7,13.6151112,-65.2247616,-129.2022816,47.692665600000005,0.0,0.0,0.0,0.0
5.72,13.9000992,-62.567820000000005,-128.4972792,43.7055768,0.0,0.0,0.0,0.0
5.74,14.0430504,-61.3751376,-129.7984704,41.0983176,0.0,0.0,0.0,0.0
5.76,14.178686399999998,-61.2123744,-130.0697424,39.4115544,0.0,0.0,0.0,0.0
5.78,14.176248,-62.730583200000005,-130.6119816,36.267847200000006,0.0,0.0,0.0,0.0
5.8,14.1134592,-64.1402832,-128.985264,35.57778,0.0,0.0,0.0,0.0
5.82,14.093037599999999,-64.79072640000001,-127.9010904,37.878105600000005,0.0,0.0,0.0,0.0
5.84,14.144243999999999,-64.248792,-126.27437280000001,40.71518400000001,0.0,0.0,0.0,0.0
5.86,14.2564104,-66.6884112,-126.7623576,43.7055768,0.0,0.0,0.0,0.0
5.88,14.3603472,-64.4112504,-125.786388,44.6254632,0.0,0.0,0.0,0.0
5.9,14.514271200000001,-61.6461048,-124.4309424,45.085711200000006,0.0,0.0,0.0,0.0
5.92,14.5676112,-61.6461048,-123.23826,41.0983176,0.0,0.0,0.0,0.0
5.9399999999999995,14.5926048,-64.7367768,-124.9189272,39.1814304,0.0,0.0,0.0,0.0
5.96,14.4868392,-67.88139840000001,-123.7262448,35.5009704,0.0,0.0,0.0,0.0
5.98,14.163751199999998,-70.754748,-124.64796,35.57778,0.0,0.0,0.0,0.0
6.0,14.025067199999999,-72.7066872,-120.7440816,33.8910168,0.0,0.0,0.0,0.0
6.02,13.8802872,-72.5981784,-119.4428904,33.50757840000001,0.0,0.0,0.0,0.0
6.04,13.7797032,-69.8330328,-121.0153536,34.7343984,0.0,0.0,0.0,0.0
6.0600000000000005,13.599566399999999,-67.0139376,-122.208036,35.9612184,0.0,0.0,0.0,0.0
6.08,13.2700776,-64.248792,-124.4309424,33.8910168,0.0,0.0,0.0,0.0
6.1,12.864084,-64.8449808,-124.2681792,34.9645224,0.0,0.0,0.0,0.0
6.12,12.31392,-64.1402832,-124.5394512,32.9708256,0.0,0.0,0.0,0.0
6.140000000000001,11.6927376,-68.3151288,-121.7743056,35.2711512,0.0,0.0,0.0,0.0
6.16,11.1355632,-73.73691120000001,-121.449084,34.7343984,0.0,0.0,0.0,0.0
6.18,10.673486399999998,-74.3873544,-119.388636,39.564868800000006,0.0,0.0,0.0,0.0
6.2,10.120884,-69.7790832,-123.78049920000001,37.3413528,0.0,0.0,0.0,0.0
6.22,9.553956000000001,-66.14617199999999,-120.5816232,37.1112288,0.0,0.0,0.0,0.0
6.24,8.908389600000001,-63.706552800000004,-117.3827472,32.203948800000006,0.0,0.0,0.0,0.0
6.26,8.2826352,-59.856928800000006,-110.2799928,28.9837368,0.0,0.0,0.0,0.0
6.28,7.5373992,-57.3088008,-99.05695200000001,24.459590400000003,0.0,0.0,0.0,0.0
6.3,6.9430392,-51.182016,-83.4963024,24.229771200000002,0.0,0.0,0.0,0.0
6.32,6.352641600000001,-44.350533600000006,-69.3993024,22.0059504,0.0,0.0,0.0,0.0
6.34,6.064300800000001,-36.2721144,-59.260740000000006,19.5523104,0.0,0.0,0.0,0.0
6.36,6.188659200000001,-28.8441384,-49.121872800000006,15.2585928,0.0,0.0,0.0,0.0
6.38,6.579412800000001,-23.747577600000003,-39.57949920000001,11.654637600000001,0.0,0.0,0.0,0.0
6.4,7.5465432,-18.5967624,-31.3922664,8.5109304,0.0,0.0,0.0,0.0
6.42,9.065361600000001,-13.3919976,-22.609149600000002,4.2172128,0.0,0.0,0.0,0.0
6.4399999999999995,10.9779816,-7.753197600000001,-14.367967200000002,3.0672024,0.0,0.0,0.0,0.0
6.46,13.324332,-1.8976848000000002,-6.777228,0.3834384,0.0,0.0,0.0,0.0
6.48,16.215664800000003,1.4639544,-0.4879848,0.0,0.0,0.0,0.0,0.0
6.5,19.6379592,5.964021600000001,4.3376088,-0.23012400000000002,0.0,0.0,0.0,0.0
6.52,23.608893600000002,9.3256608,11.1690912,-2.3768304000000002,0.0,0.0,0.0,0.0
6.54,28.0687272,11.6028216,10.3013256,-2.0702016,0.0,0.0,0.0,0.0
6.5600000000000005,33.10493760000001,13.662964800000001,13.229234400000001,-3.5271456,0.0,0.0,0.0,0.0
6.58,38.56329600000001,16.590873600000002,13.012521600000001,-0.996696,0.0,0.0,0.0,0.0
6.6,44.3685168,15.994380000000001,14.693188800000001,0.15331440000000002,0.0,0.0,0.0,0.0
6.62,50.4437904,14.205204,17.3498256,3.2205168000000004,0.0,0.0,0.0,0.0
6.640000000000001,56.6031888,12.524536800000002,17.9463192,5.4440328000000004,0.0,0.0,0.0,0.0
6.66,62.9628408,9.867595200000002,20.0607168,3.6036504000000003,0.0,0.0,0.0,0.0
6.68,69.3746136,8.241182400000001,19.952208,1.9936968000000002,0.0,0.0,0.0,0.0
6.7,75.8686824,7.3737216000000005,19.952208,-0.23012400000000002,0.0,0.0,0.0,0.0
6.720000000000001,82.4017656,7.6446888,19.572732000000002,-1.5334488,0.0,0.0,0.0,0.0
6.74,88.96350000000001,8.295436800000001,19.1390016,-1.3801344,0.0,0.0,0.0,0.0
6.76,95.54900880000001,9.596628,18.81378,-0.5367528,0.0,0.0,0.0,0.0
6.78,101.8592832,10.681106400000001,17.837810400000002,-0.0768096,0.0,0.0,0.0,0.0
6.8,108.0708024,10.8978192,17.837810400000002,0.30662880000000003,0.0,0.0,0.0,0.0
6.82,114.22440960000002,10.0303584,18.3800496,0.5367528,0.0,0.0,0.0,0.0
6.84,120.22317840000001,9.813645600000001,18.5967624,0.5367528,0.0,0.0,0.0,0.0
6.859999999999999,125.9308632,8.94588,18.81378,0.5367528,0.0,0.0,0.0,0.0
6.88,131.6900592,8.4582,18.7595256,0.0768096,0.0,0.0,0.0,0.0
6.9,137.3416608,8.6206584,18.3800496,-0.15331440000000002,0.0,0.0,0.0,0.0
6.92,143.0283144,8.6749128,18.434304,-0.30662880000000003,0.0,0.0,0.0,0.0
6.9399999999999995,148.5985344,8.5121496,18.2715408,-0.4599432,0.0,0.0,0.0,0.0
6.96,154.0206216,8.94588,18.054828,-1.2268200000000002,0.0,0.0,0.0,0.0
6.98,159.41466720000003,9.5423736,17.458334400000002,-0.6135624,0.0,0.0,0.0,0.0
7.0,164.7273312,10.0846128,17.3498256,0.15331440000000002,0.0,0.0,0.0,0.0
7.02,170.01317279999998,10.4098344,17.2413168,0.7668768,0.0,0.0,0.0,0.0
7.04,175.41514320000002,9.9218496,17.40408,1.7635728,0.0,0.0,0.0,0.0
7.0600000000000005,180.75493440000002,9.108643200000001,18.000573600000003,2.0702016,0.0,0.0,0.0,0.0
7.08,186.0252312,8.8919304,17.8920648,1.4569440000000002,0.0,0.0,0.0,0.0
7.1,191.2781544,8.6206584,17.2955712,0.0768096,0.0,0.0,0.0,0.0
7.12,196.44207600000001,8.295436800000001,17.1870624,-0.30662880000000003,0.0,0.0,0.0,0.0
7.140000000000001,201.69530400000002,9.108643200000001,17.1331128,-0.30662880000000003,0.0,0.0,0.0,0.0
7.16,207.046068,9.217152,16.9160952,-0.0768096,0.0,0.0,0.0,0.0
7.18,212.37793440000002,9.217152,16.6993824,0.3834384,0.0,0.0,0.0,0.0
7.2,217.6787112,9.6508824,16.590873600000002,0.8433816000000001,0.0,0.0,0.0,0.0
7.220000000000001,223.16419679999998,9.3256608,16.482364800000003,0.6135624,0.0,0.0,0.0,0.0
7.24,228.60762,9.1628976,16.4281104,0.30662880000000003,0.0,0.0,0.0,0.0
7.26,234.020868,8.837676,16.5366192,1.1500104,0.0,0.0,0.0,0.0
7.28,239.37620400000003,8.3496912,16.6993824,0.4599432,0.0,0.0,0.0,0.0
7.3,244.71294720000003,8.186928,16.5366192,0.15331440000000002,0.0,0.0,0.0,0.0
7.32,249.92777039999999,8.295436800000001,16.645128,-0.0768096,0.0,0.0,0.0,0.0
7.34,255.20263920000002,8.3496912,16.1571432,-0.6135624,0.0,0.0,0.0,0.0
7.359999999999999,260.483604,8.295436800000001,16.4281104,0.0768096,0.0,0.0,0.0,0.0
7.38,265.5951,8.566404,16.0486344,0.23012400000000002,0.0,0.0,0.0,0.0
7.4,270.89252400000004,9.2714064,15.994380000000001,0.8433816000000001,0.0,0.0,0.0,0.0
7.42,276.0997272,9.217152,15.7234128,0.996696,0.0,0.0,0.0,0.0
7.4399999999999995,281.1752568,8.241182400000001,16.0486344,0.6900672,0.0,0.0,0.0,0.0
7.46,286.1773296,7.4822304,16.373856,0.3834384,0.0,0.0,0.0,0.0
7.48,291.2309136,7.5364848,16.102888800000002,0.5367528,0.0,0.0,0.0,0.0
7.5,296.309796,7.3194672,16.4281104,0.3834384,0.0,0.0,0.0,0.0
7.52,301.4636592,7.4822304,15.9401256,0.15331440000000002,0.0,0.0,0.0,0.0
7.54,306.6370296,8.024164800000001,15.506395200000002,0.15331440000000002,0.0,0.0,0.0,0.0
7.5600000000000005,311.87867520000003,8.295436800000001,15.4521408,0.15331440000000002,0.0,0.0,0.0,0.0
7.58,317.0800872000001,7.915960800000001,15.2896824,0.0768096,0.0,0.0,0.0,0.0
7.6,322.09374240000005,7.3194672,15.560649600000001,0.0,0.0,0.0,0.0,0.0
7.62,327.09490080000006,6.885736800000001,15.777667200000002,-0.0768096,0.0,0.0,0.0,0.0
7.640000000000001,332.0155920000001,7.1024496,15.560649600000001,0.0768096,0.0,0.0,0.0,0.0
7.66,337.02924720000004,7.5364848,15.4521408,0.5367528,0.0,0.0,0.0,0.0
7.68,342.08892720000006,7.8617064,15.1269192,0.8433816000000001,0.0,0.0,0.0,0.0
7.7,346.9465248,8.186928,14.909901600000001,0.9201912000000001,0.0,0.0,0.0,0.0
7.720000000000001,351.68464080000007,8.241182400000001,14.421916800000002,0.5367528,0.0,0.0,0.0,0.0
7.74,356.61417120000004,7.970215200000001,14.58468,0.0,0.0,0.0,0.0,0.0
7.76,361.41080880000004,7.6446888,14.58468,0.23012400000000002,0.0,0.0,0.0,0.0
7.78,366.2287824,6.9942456,14.909901600000001,0.30662880000000003,0.0,0.0,0.0,0.0
7.8,370.9699464,6.7229735999999995,15.0726648,0.6900672,0.0,0.0,0.0,0.0
7.82,375.8080368000001,7.4822304,14.747443200000001,1.4569440000000002,0.0,0.0,0.0,0.0
7.84,380.6485656000001,6.777228,14.476171200000001,0.7668768,0.0,0.0,0.0,0.0
7.859999999999999,385.4668440000001,7.2652128,14.5304256,0.3834384,0.0,0.0,0.0,0.0
7.88,390.19642560000005,6.4520064,14.476171200000001,0.0768096,0.0,0.0,0.0,0.0
7.9,394.9159488000001,7.3194672,14.259458400000002,0.0768096,0.0,0.0,0.0,0.0
7.92,399.7747656000001,7.1024496,14.1509496,0.15331440000000002,0.0,0.0,0.0,0.0
7.9399999999999995,404.57018400000004,6.614769600000001,13.988186400000002,0.3834384,0.0,0.0,0.0,0.0
7.96,409.22874720000004,7.210958400000001,13.825728,0.5367528,0.0,0.0,0.0,0.0
7.98,413.83305600000006,7.156704,13.8799824,0.30662880000000003,0.0,0.0,0.0,0.0
8.0,418.4678448000001,7.3737216000000005,13.662964800000001,0.30662880000000003,0.0,0.0,0.0,0.0
8.02,423.07306800000003,7.048500000000001,13.554456,0.3834384,0.0,0.0,0.0,0.0
8.04,427.66670880000004,7.3737216000000005,13.662964800000001,0.23012400000000002,0.0,0.0,0.0,0.0
8.06,432.22865040000005,6.8314824000000005,13.771473600000002,0.7668768,0.0,0.0,0.0,0.0
8.08,436.82594880000005,6.777228,13.608710400000001,0.5367528,0.0,0.0,0.0,0.0
8.1,441.4360488000001,6.9942456,13.3919976,0.4599432,0.0,0.0,0.0,0.0
8.120000000000001,446.0299944,6.9399912,13.554456,0.6135624,0.0,0.0,0.0,0.0
8.14,450.6272928000001,6.4520064,13.283488800000002,0.23012400000000002,0.0,0.0,0.0,0.0
8.16,455.22946800000005,6.397752,13.446252000000001,0.0768096,0.0,0.0,0.0,0.0
8.18,459.66705120000006,6.343497600000001,13.283488800000002,-0.23012400000000002,0.0,0.0,0.0,0.0
8.2,464.16193680000003,6.018276,13.174980000000001,-0.30662880000000003,0.0,0.0,0.0,0.0
8.22,468.59647200000006,6.343497600000001,13.174980000000001,-0.0768096,0.0,0.0,0.0,0.0
8.24,472.92249840000005,6.018276,13.0664712,-0.3834384,0.0,0.0,0.0,0.0
8.26,477.4274424,5.7470040000000004,13.229234400000001,-0.15331440000000002,0.0,0.0,0.0,0.0
8.280000000000001,481.79736,5.5302912,13.229234400000001,0.23012400000000002,0.0,0.0,0.0,0.0
8.3,486.14929440000003,6.2349888,12.8497584,0.30662880000000003,0.0,0.0,0.0,0.0
8.32,490.3911960000001,6.9942456,12.7412496,0.5367528,0.0,0.0,0.0,0.0
8.34,494.83853280000005,7.048500000000001,12.4702824,0.5367528,0.0,0.0,0.0,0.0
8.36,499.18254240000005,7.1024496,12.416028,0.6135624,0.0,0.0,0.0,0.0
8.379999999999999,503.5628232000001,6.7229735999999995,12.5787912,0.6900672,0.0,0.0,0.0,0.0
8.4,507.78978960000006,6.018276,12.6327408,0.4599432,0.0,0.0,0.0,0.0
8.42,512.0234616000001,6.018276,12.7412496,0.23012400000000002,0.0,0.0,0.0,0.0
8.44,516.35406,5.5845456,12.8497584,0.5367528,0.0,0.0,0.0,0.0
8.46,520.6090680000001,5.5302912,12.795504,0.23012400000000002,0.0,0.0,0.0,0.0
8.48,524.9515536000001,5.5845456,12.3075192,0.15331440000000002,0.0,0.0,0.0,0.0
8.5,529.2815424,5.421782400000001,12.686995200000002,0.23012400000000002,0.0,0.0,0.0,0.0
8.52,533.4213360000001,5.9097672,12.416028,0.0768096,0.0,0.0,0.0,0.0
8.54,537.6327576000001,5.8555128,12.144756000000001,0.0768096,0.0,0.0,0.0,0.0
8.559999999999999,541.8453984,5.801258400000001,12.199010400000002,0.3834384,0.0,0.0,0.0,0.0
8.58,546.0997968,6.1807343999999995,12.144756000000001,0.4599432,0.0,0.0,0.0,0.0
8.6,550.295064,5.801258400000001,11.873788800000002,0.30662880000000003,0.0,0.0,0.0,0.0
8.620000000000001,554.4735672,6.018276,12.416028,0.3834384,0.0,0.0,0.0,0.0
8.64,558.6523752,5.638800000000001,11.928043200000001,0.23012400000000002,0.0,0.0,0.0,0.0
8.66,562.7760144000001,5.3132736,12.144756000000001,0.3834384,0.0,0.0,0.0,0.0
8.68,566.8902048000001,5.7470040000000004,11.7110256,0.15331440000000002,0.0,0.0,0.0,0.0
8.7,570.923928,5.205069600000001,11.928043200000001,0.15331440000000002,0.0,0.0,0.0,0.0
8.719999999999999,575.0765232000001,5.421782400000001,12.036552,0.3834384,0.0,0.0,0.0,0.0
8.74,579.0358752000001,5.5302912,11.7110256,0.15331440000000002,0.0,0.0,0.0,0.0
8.76,583.0686840000001,5.638800000000001,11.4943128,0.0768096,0.0,0.0,0.0,0.0
8.780000000000001,587.1822648,5.5845456,11.3315496,0.15331440000000002,0.0,0.0,0.0,0.0
8.8,591.3763128,5.5845456,11.3315496,0.23012400000000002,0.0,0.0,0.0,0.0
8.82,595.5026952000001,5.9097672,11.2230408,0.23012400000000002,0.0,0.0,0.0,0.0
8.84,599.5351992000001,6.1267848,11.3315496,0.3834384,0.0,0.0,0.0,0.0
8.86,603.52686,5.9097672,11.1148368,0.4599432,0.0,0.0,0.0,0.0
8.879999999999999,607.5477816,5.259324,11.3315496,0.4599432,0.0,0.0,0.0,0.0
8.9,611.4236184000001,4.988052,11.1690912,0.4599432,0.0,0.0,0.0,0.0
8.92,615.4393584000001,4.5000672,11.440058400000002,0.4599432,0.0,0.0,0.0,0.0
8.940000000000001,619.4733864000001,4.6628304,11.385804,0.23012400000000002,0.0,0.0,0.0,0.0
8.96,623.5260072000001,4.7170848,11.2230408,0.4599432,0.0,0.0,0.0,0.0
8.98,627.4451256,4.8795432000000005,11.1690912,0.0768096,0.0,0.0,0.0,0.0
9.0,631.5385896,5.0423064,10.681106400000001,0.0768096,0.0,0.0,0.0,0.0
9.02,635.5128768000001,4.8795432000000005,11.385804,0.3834384,0.0,0.0,0.0,0.0
9.04,639.5316648,5.096560800000001,10.4098344,0.0,0.0,0.0,0.0,0.0
9.059999999999999,643.5800184,5.801258400000001,10.4640888,-0.4599432,0.0,0.0,0.0,0.0
9.08,647.5616208,5.5845456,10.681106400000001,-0.15331440000000002,0.0,0.0,0.0,0.0
9.1,651.4057584,4.5000672,10.789310400000002,0.15331440000000002,0.0,0.0,0.0,0.0
9.120000000000001,655.3117704,4.608576,10.8978192,0.30662880000000003,0.0,0.0,0.0,0.0
9.14,659.3055648000001,4.5000672,10.789310400000002,0.3834384,0.0,0.0,0.0,0.0
9.16,663.1134312,5.259324,10.5725976,0.4599432,0.0,0.0,0.0,0.0
9.18,666.8892936,5.0423064,10.247376,0.5367528,0.0,0.0,0.0,0.0
9.2,670.6401624,4.7713392,10.4098344,0.4599432,0.0,0.0,0.0,0.0
9.219999999999999,674.3803631999999,4.933797600000001,10.5725976,0.30662880000000003,0.0,0.0,0.0,0.0
9.24,678.1300127999999,4.554321600000001,9.976104,0.15331440000000002,0.0,0.0,0.0,0.0
9.26,681.92904,4.608576,10.5725976,0.15331440000000002,0.0,0.0,0.0,0.0
9.280000000000001,685.7707392,4.5000672,10.355580000000002,0.0768096,0.0,0.0,0.0,0.0
9.3,689.4262056,4.0663368,10.355580000000002,0.0768096,0.0,0.0,0.0,0.0
9.32,693.1383648000001,4.0663368,10.355580000000002,0.15331440000000002,0.0,0.0,0.0,0.0
9.34,696.8041944,4.3376088,10.193121600000001,0.15331440000000002,0.0,0.0,0.0,0.0
9.36,700.578228,4.2291,10.0846128,0.23012400000000002,0.0,0.0,0.0,0.0
9.379999999999999,704.4275472,5.096560800000001,9.7593912,0.0768096,0.0,0.0,0.0,0.0
9.4,708.0988632,4.933797600000001,9.813645600000001,0.15331440000000002,0.0,0.0,0.0,0.0
9.42,711.8064504,5.1508152,9.488119200000002,0.15331440000000002,0.0,0.0,0.0,0.0
9.440000000000001,715.4991024000001,4.8252888,9.7051368,0.23012400000000002,0.0,0.0,0.0,0.0
9.46,719.2825847999999,5.367528,9.813645600000001,0.23012400000000002,0.0,0.0,0.0,0.0
9.48,723.0087648,4.7713392,9.217152,0.6135624,0.0,0.0,0.0,0.0
9.5,726.7212288,4.8795432000000005,9.5423736,0.0768096,0.0,0.0,0.0,0.0
9.52,730.40748,4.6628304,9.6508824,0.4599432,0.0,0.0,0.0,0.0
9.54,734.1900479999999,4.0663368,9.813645600000001,0.4599432,0.0,0.0,0.0,0.0
9.559999999999999,737.9756639999999,4.012082400000001,9.867595200000002,0.3834384,0.0,0.0,0.0,0.0
9.58,741.8060856,4.120591200000001,9.7593912,0.4599432,0.0,0.0,0.0,0.0
9.6,745.5395808000001,3.8496240000000004,9.596628,0.23012400000000002,0.0,0.0,0.0,0.0
9.620000000000001,749.1852936,4.3376088,9.5423736,-0.15331440000000002,0.0,0.0,0.0,0.0
9.64,752.668548,3.578352,9.6508824,0.30662880000000003,0.0,0.0,0.0,0.0
9.66,756.143268,5.259324,9.0543888,0.6900672,0.0,0.0,0.0,0.0
9.68,759.6277416,5.0423064,8.6206584,0.0768096,0.0,0.0,0.0,0.0
9.7,763.2051792,5.1508152,8.729167200000001,0.0768096,0.0,0.0,0.0,0.0
9.719999999999999,766.7445167999999,4.554321600000001,8.8919304,0.0768096,0.0,0.0,0.0,0.0
9.74,770.2116168,3.9035736000000005,9.217152,0.0768096,0.0,0.0,0.0,0.0
9.76,773.8122192,3.7953696000000003,9.4338648,0.15331440000000002,0.0,0.0,0.0,0.0
9.780000000000001,777.3905712,2.9818584,9.379915200000001,0.30662880000000003,0.0,0.0,0.0,0.0
9.8,781.0899288,3.3616392,9.5423736,0.5367528,0.0,0.0,0.0,0.0
9.82,784.7801423999999,3.0903671999999998,9.488119200000002,0.4599432,0.0,0.0,0.0,0.0
9.84,788.3075928,3.957828,9.0543888,0.6135624,0.0,0.0,0.0,0.0
9.86,791.734764,4.3376088,8.6749128,0.30662880000000003,0.0,0.0,0.0,0.0
9.879999999999999,795.0650088,4.7170848,8.5121496,0.15331440000000002,0.0,0.0,0.0,0.0
9.9,798.3538007999999,4.7713392,8.4582,0.0768096,0.0,0.0,0.0,0.0
9.92,801.671244,4.5000672,8.4039456,0.0,0.0,0.0,0.0,0.0
9.940000000000001,804.9868584,4.3915584,8.4039456,-0.0768096,0.0,0.0,0.0,0.0
9.96,808.3207608,4.3376088,8.3496912,0.0768096,0.0,0.0,0.0,0.0
9.98,811.6817904000001,3.6326064,8.6206584,0.0768096,0.0,0.0,0.0,0.0
10.0,815.0364192000001,3.957828,8.729167200000001,0.15331440000000002,0.0,0.0,0.0,0.0
10.02,818.3157624,3.4158936000000004,8.5121496,0.23012400000000002,0.0,0.0,0.0,0.0
10.04,821.6460072,3.3616392,8.4582,0.0768096,0.0,0.0,0.0,0.0
10.059999999999999,825.0990864,3.4158936000000004,8.837676,0.0768096,0.0,0.0,0.0,0.0
10.08,828.6030671999999,3.0361128,8.6749128,0.0768096,0.0,0.0,0.0,0.0
10.1,831.9299592000001,3.3616392,8.566404,0.0768096,0.0,0.0,0.0,0.0
10.120000000000001,835.3635312,3.6326064,8.729167200000001,0.15331440000000002,0.0,0.0,0.0,0.0
10.14,838.7093208,3.2531304000000003,8.241182400000001,0.0768096,0.0,0.0,0.0,0.0
10.16,842.0112192,3.6868608000000003,8.4582,0.0768096,0.0,0.0,0.0,0.0
10.18,845.166204,3.6326064,8.0784192,0.0768096,0.0,0.0,0.0,0.0
10.2,848.3516688000001,3.9035736000000005,8.241182400000001,0.0768096,0.0,0.0,0.0,0.0
10.219999999999999,851.5508496,3.6868608000000003,8.1326736,0.0768096,0.0,0.0,0.0,0.0
10.24,854.7600888,3.8496240000000004,8.0784192,0.0768096,0.0,0.0,0.0,0.0
10.26,858.066864,3.6868608000000003,7.6989432,-0.15331440000000002,0.0,0.0,0.0,0.0
10.280000000000001,861.3583992,3.4158936000000004,8.0784192,0.0768096,0.0,0.0,0.0,0.0
10.3,864.6270744000001,3.5240976,8.186928,0.0768096,0.0,0.0,0.0,0.0
10.32,867.8350944000001,3.198876,8.0784192,0.0768096,0.0,0.0,0.0,0.0
10.34,871.2519024000001,3.0903671999999998,8.0784192,0.15331440000000002,0.0,0.0,0.0,0.0
10.36,874.4571791999999,3.4158936000000004,7.970215200000001,0.0768096,0.0,0.0,0.0,0.0
10.379999999999999,877.7535912,3.1446216000000002,7.6989432,0.0768096,0.0,0.0,0.0,0.0
10.4,881.022876,3.7411152,7.8617064,0.0768096,0.0,0.0,0.0,0.0
10.42,884.4058512,3.1446216000000002,8.024164800000001,0.15331440000000002,0.0,0.0,0.0,0.0
10.440000000000001,887.6333784000001,3.3616392,7.5904344,0.0768096,0.0,0.0,0.0,0.0
10.46,890.7600168,3.6868608000000003,7.6989432,0.0768096,0.0,0.0,0.0,0.0
10.48,893.9137824000001,3.0361128,7.6989432,0.0768096,0.0,0.0,0.0,0.0
10.5,897.0876648000001,3.578352,7.4822304,0.0768096,0.0,0.0,0.0,0.0
10.52,900.229848,3.0903671999999998,7.427976000000001,0.0768096,0.0,0.0,0.0,0.0
10.54,903.36624,3.6868608000000003,7.807452,0.0768096,0.0,0.0,0.0,0.0
10.559999999999999,906.6340008,3.1446216000000002,7.2652128,0.0,0.0,0.0,0.0,0.0
10.58,909.7688688000001,3.0903671999999998,7.5364848,0.23012400000000002,0.0,0.0,0.0,0.0
10.6,912.7964472000001,3.3616392,7.6989432,0.23012400000000002,0.0,0.0,0.0,0.0
10.620000000000001,915.818844,2.8194000000000004,7.156704,0.0768096,0.0,0.0,0.0,0.0
10.64,918.7885104,3.4698432,7.5904344,0.15331440000000002,0.0,0.0,0.0,0.0
10.66,921.7953624,3.198876,7.427976000000001,0.15331440000000002,0.0,0.0,0.0,0.0
10.68,924.8476296,3.2531304000000003,7.2652128,0.0768096,0.0,0.0,0.0,0.0
10.7,927.9462264,3.4158936000000004,7.210958400000001,0.15331440000000002,0.0,0.0,0.0,0.0
10.719999999999999,931.0414704,3.198876,7.1024496,0.0768096,0.0,0.0,0.0,0.0
10.74,934.1162928,3.4698432,7.4822304,0.30662880000000003,0.0,0.0,0.0,0.0
10.76,937.0225608000001,2.9818584,6.9942456,0.0768096,0.0,0.0,0.0,0.0
10.780000000000001,939.9681479999999,2.8194000000000004,7.3737216000000005,0.0768096,0.0,0.0,0.0,0.0
10.8,942.9234888,3.3073848000000003,7.1024496,0.0768096,0.0,0.0,0.0,0.0
10.82,945.9964824000001,2.7651456,7.210958400000001,0.15331440000000002,0.0,0.0,0.0,0.0
10.84,949.0929455999999,3.0361128,7.3737216000000005,0.23012400000000002,0.0,0.0,0.0,0.0
10.86,952.0720608,2.548128,7.210958400000001,0.15331440000000002,0.0,0.0,0.0,0.0
10.879999999999999,955.0642824,2.7651456,7.210958400000001,0.0768096,0.0,0.0,0.0,0.0
10.9,957.9778656,2.4941784,7.156704,0.23012400000000002,0.0,0.0,0.0,0.0
10.92,960.955152,2.7651456,6.885736800000001,0.0768096,0.0,0.0,0.0,0.0
10.940000000000001,963.8690399999999,3.0361128,6.9399912,0.0768096,0.0,0.0,0.0,0.0
10.96,966.8402304,2.7651456,6.777228,0.0768096,0.0,0.0,0.0,0.0
10.98,969.8397672,2.9818584,6.777228,0.0768096,0.0,0.0,0.0,0.0
11.0,972.6698352000001,3.0361128,6.7229735999999995,0.0,0.0,0.0,0.0,0.0
11.02,975.6715056,3.0903671999999998,6.777228,0.15331440000000002,0.0,0.0,0.0,0.0
11.04,978.677748,2.7651456,6.5605152,0.0,0.0,0.0,0.0,0.0
11.059999999999999,981.7278816,2.8194000000000004,6.7229735999999995,0.15331440000000002,0.0,0.0,0.0,0.0
11.08,984.6637152000001,2.7108912000000003,6.8314824000000005,0.0768096,0.0,0.0,0.0,0.0
11.1,987.5620584000001,2.6566368,6.777228,0.0768096,0.0,0.0,0.0,0.0
11.120000000000001,990.5494032,2.9279088,6.506260800000001,0.0768096,0.0,0.0,0.0,0.0
11.14,993.3974544,2.6566368,6.777228,0.15331440000000002,0.0,0.0,0.0,0.0
11.16,996.1878984000001,2.548128,6.777228,0.0768096,0.0,0.0,0.0,0.0
11.18,999.0319872,2.6023824,6.506260800000001,0.0768096,0.0,0.0,0.0,0.0
11.2,1001.9891568,2.4399240000000004,6.668719200000001,0.0,0.0,0.0,0.0,0.0
11.219999999999999,1004.8762224,2.2229064000000003,6.668719200000001,0.0768096,0.0,0.0,0.0,0.0
11.24,1007.7361608000001,2.3856696,6.614769600000001,0.0768096,0.0,0.0,0.0,0.0
11.26,1010.4903336000001,2.2229064000000003,6.5605152,0.0768096,0.0,0.0,0.0,0.0
11.280000000000001,1013.296932,2.4941784,6.2892432000000005,0.0768096,0.0,0.0,0.0,0.0
11.3,1015.9956312,2.7108912000000003,6.506260800000001,0.0768096,0.0,0.0,0.0,0.0
11.32,1018.803144,2.7108912000000003,6.397752,0.0768096,0.0,0.0,0.0,0.0
11.34,1021.6450992,2.548128,6.343497600000001,0.23012400000000002,0.0,0.0,0.0,0.0
11.36,1024.3745832,2.8194000000000004,6.397752,0.15331440000000002,0.0,0.0,0.0,0.0
11.379999999999999,1027.1650272,2.6566368,6.1267848,0.0768096,0.0,0.0,0.0,0.0
11.4,1029.8969496,2.7651456,6.1267848,0.0768096,0.0,0.0,0.0,0.0
11.42,1032.6858696,2.3856696,6.0725304,0.0768096,0.0,0.0,0.0,0.0
11.440000000000001,1035.333972,2.6023824,6.0725304,0.0768096,0.0,0.0,0.0,0.0
11.46,1038.0140784,2.4941784,6.397752,0.0768096,0.0,0.0,0.0,0.0
11.48,1040.7322848,2.2229064000000003,6.018276,0.0768096,0.0,0.0,0.0,0.0
11.5,1043.4532344,2.6023824,6.2892432000000005,0.0768096,0.0,0.0,0.0,0.0
11.52,1046.1226728000001,2.2771608000000003,6.0725304,0.0768096,0.0,0.0,0.0,0.0
11.54,1048.8027792,2.2771608000000003,6.2892432000000005,0.0768096,0.0,0.0,0.0,0.0
11.559999999999999,1051.54476,2.1686520000000002,6.0725304,0.15331440000000002,0.0,0.0,0.0,0.0
11.58,1054.2760728,2.4941784,5.8555128,0.0768096,0.0,0.0,0.0,0.0
11.6,1056.9558744,2.0601432,6.1807343999999995,0.0768096,0.0,0.0,0.0,0.0
11.620000000000001,1059.6887112,2.1686520000000002,6.0725304,0.0768096,0.0,0.0,0.0,0.0
11.64,1062.4194144,2.2771608000000003,6.0725304,0.0768096,0.0,0.0,0.0,0.0
11.66,1065.0989112,2.0601432,5.7470040000000004,0.0768096,0.0,0.0,0.0,0.0
11.68,1067.8094976,2.3314152,5.9097672,0.0768096,0.0,0.0,0.0,0.0
11.7,1070.399688,2.0061936,5.9097672,0.0768096,0.0,0.0,0.0,0.0
11.719999999999999,1072.9341,2.2771608000000003,5.8555128,0.0768096,0.0,0.0,0.0,0.0
11.74,1075.5319104,2.1686520000000002,5.8555128,0.0768096,0.0,0.0,0.0,0.0
11.76,1078.225428,2.548128,5.9097672,0.0768096,0.0,0.0,0.0,0.0
11.780000000000001,1080.9515592,2.3314152,5.5845456,0.0768096,0.0,0.0,0.0,0.0
11.8,1083.6475152,2.3856696,5.638800000000001,0.0768096,0.0,0.0,0.0,0.0
11.82,1086.2239896,2.3314152,5.6930544,0.0768096,0.0,0.0,0.0,0.0
11.84,1088.8193615999999,2.2771608000000003,5.5302912,0.0768096,0.0,0.0,0.0,0.0
11.86,1091.3723664000001,2.1143976,5.6930544,0.0768096,0.0,0.0,0.0,0.0
11.879999999999999,1093.9223232,2.0601432,5.5302912,0.0,0.0,0.0,0.0,0.0
11.9,1096.452468,2.1686520000000002,5.8555128,0.0768096,0.0,0.0,0.0,0.0
11.92,1099.0069968,2.0061936,5.801258400000001,0.15331440000000002,0.0,0.0,0.0,0.0
11.940000000000001,1101.5901768,2.0601432,5.421782400000001,0.0768096,0.0,0.0,0.0,0.0
11.96,1104.2580912,1.9519392,5.7470040000000004,0.15331440000000002,0.0,0.0,0.0,0.0
11.98,1106.8013424,2.0061936,5.5845456,0.15331440000000002,0.0,0.0,0.0,0.0
12.0,1109.3601384,2.2229064000000003,5.5845456,0.15331440000000002,0.0,0.0,0.0,0.0
12.02,1111.87992,1.789176,5.476036800000001,0.30662880000000003,0.0,0.0,0.0,0.0
12.04,1114.3987872,1.9519392,5.421782400000001,0.0768096,0.0,0.0,0.0,0.0
12.059999999999999,1116.9396000000002,1.7349216,5.5302912,0.0768096,0.0,0.0,0.0,0.0
12.08,1119.513636,1.6264128000000002,5.5302912,0.0768096,0.0,0.0,0.0,0.0
12.1,1121.9300904000002,1.9519392,5.638800000000001,0.0,0.0,0.0,0.0,0.0
12.120000000000001,1124.5221096,1.8434304000000001,5.421782400000001,-0.3834384,0.0,0.0,0.0,0.0
12.14,1126.9617288,1.8976848000000002,5.5845456,-0.0768096,0.0,0.0,0.0,0.0
12.16,1129.3748304,1.5724632,5.259324,0.0,0.0,0.0,0.0,0.0
12.18,1131.7867128,2.0601432,5.3132736,0.0768096,0.0,0.0,0.0,0.0
12.2,1134.2686992,1.9519392,5.3132736,0.15331440000000002,0.0,0.0,0.0,0.0
12.219999999999999,1136.7826896,2.0061936,5.367528,0.0768096,0.0,0.0,0.0,0.0
12.24,1139.1558624,2.0601432,5.3132736,0.0768096,0.0,0.0,0.0,0.0
12.26,1141.6576608,2.0601432,5.205069600000001,0.0,0.0,0.0,0.0,0.0
12.280000000000001,1144.0658856,1.8976848000000002,5.1508152,0.0768096,0.0,0.0,0.0,0.0
12.3,1146.3226248,1.8976848000000002,5.259324,0.0768096,0.0,0.0,0.0,0.0
12.32,1148.7119519999999,1.6806672000000002,5.1508152,-0.0768096,0.0,0.0,0.0,0.0
12.34,1151.0997552000001,1.6806672000000002,5.0423064,0.0768096,0.0,0.0,0.0,0.0
12.36,1153.5250488000001,1.7349216,4.988052,0.0768096,0.0,0.0,0.0,0.0
12.379999999999999,1155.8857248,1.789176,5.0423064,0.0768096,0.0,0.0,0.0,0.0
12.4,1158.297912,1.6806672000000002,4.933797600000001,0.0768096,0.0,0.0,0.0,0.0
12.42,1160.7750216000002,1.8976848000000002,5.1508152,0.0768096,0.0,0.0,0.0,0.0
12.440000000000001,1163.2118976,1.7349216,5.096560800000001,0.15331440000000002,0.0,0.0,0.0,0.0
12.46,1165.6082352,1.6264128000000002,4.8795432000000005,0.0768096,0.0,0.0,0.0,0.0
12.48,1167.9734832,1.6264128000000002,4.988052,0.0768096,0.0,0.0,0.0,0.0
12.5,1170.2524728,1.6806672000000002,5.0423064,0.0768096,0.0,0.0,0.0,0.0
12.52,1172.6927016,1.6264128000000002,4.8795432000000005,-0.0768096,0.0,0.0,0.0,0.0
12.54,1175.1240912,1.6264128000000002,4.988052,0.15331440000000002,0.0,0.0,0.0,0.0
12.559999999999999,1177.529268,1.6806672000000002,4.933797600000001,0.0768096,0.0,0.0,0.0,0.0
12.579999999999998,1179.9253008,1.4639544,4.933797600000001,0.0768096,0.0,0.0,0.0,0.0
12.600000000000001,1182.2606784,1.5182088,4.988052,0.15331440000000002,0.0,0.0,0.0,0.0
12.620000000000001,1184.5576512,1.3554456000000001,5.0423064,0.0768096,0.0,0.0,0.0,0.0
12.64,1186.9100976,1.3011912,4.988052,0.15331440000000002,0.0,0.0,0.0,0.0
12.66,1189.2174336,1.2469368,4.933797600000001,0.15331440000000002,0.0,0.0,0.0,0.0
12.68,1191.4470456,1.1387328,4.933797600000001,0.0768096,0.0,0.0,0.0,0.0
12.7,1193.7784608,1.1926824,4.988052,0.0768096,0.0,0.0,0.0,0.0
12.719999999999999,1196.0053296,1.4639544,4.933797600000001,0.0768096,0.0,0.0,0.0,0.0
12.739999999999998,1198.289196,1.3554456000000001,4.7170848,-0.0768096,0.0,0.0,0.0,0.0
12.760000000000002,1200.5316096000001,1.4097000000000002,4.6628304,-0.0768096,0.0,0.0,0.0,0.0
12.780000000000001,1202.7520776,1.5724632,4.7170848,-0.23012400000000002,0.0,0.0,0.0,0.0
12.8,1205.0889792,1.5182088,4.6628304,-0.0768096,0.0,0.0,0.0,0.0
12.82,1207.3393176,1.4639544,4.608576,-0.23012400000000002,0.0,0.0,0.0,0.0
12.84,1209.4902912,1.5724632,4.7170848,0.0,0.0,0.0,0.0,0.0
12.86,1211.74764,1.5724632,4.7170848,-0.0768096,0.0,0.0,0.0,0.0
12.879999999999999,1213.8943464,1.4097000000000002,4.554321600000001,0.0768096,0.0,0.0,0.0,0.0
12.899999999999999,1216.184004,1.5182088,4.554321600000001,0.0768096,0.0,0.0,0.0,0.0
12.920000000000002,1218.4072152,1.4639544,4.608576,0.0768096,0.0,0.0,0.0,0.0
12.940000000000001,1220.6209776,1.4097000000000002,4.3376088,-0.0768096,0.0,0.0,0.0,0.0
12.96,1222.7807904000001,1.5724632,4.7170848,0.0768096,0.0,0.0,0.0,0.0
12.98,1225.0424064,1.4097000000000002,4.554321600000001,0.0768096,0.0,0.0,0.0,0.0
13.0,1227.3683352,1.2469368,4.5000672,0.0768096,0.0,0.0,0.0,0.0
13.02,1229.5897176,1.3554456000000001,4.608576,0.23012400000000002,0.0,0.0,0.0,0.0
13.04,1231.7510544,1.3554456000000001,4.5000672,0.15331440000000002,0.0,0.0,0.0,0.0
13.059999999999999,1233.8794728,1.1926824,4.554321600000001,0.15331440000000002,0.0,0.0,0.0,0.0
13.079999999999998,1235.98686,1.2469368,4.3915584,0.0768096,0.0,0.0,0.0,0.0
13.100000000000001,1238.1954408000001,1.030224,4.5000672,0.23012400000000002,0.0,0.0,0.0,0.0
13.120000000000001,1240.3747608,1.2469368,4.3915584,0.0768096,0.0,0.0,0.0,0.0
13.14,1242.5495088,1.1926824,4.554321600000001,0.0768096,0.0,0.0,0.0,0.0
13.16,1244.6166624,1.030224,4.2833544,0.0768096,0.0,0.0,0.0,0.0
13.18,1246.6079208,1.1926824,4.3376088,0.0768096,0.0,0.0,0.0,0.0
13.2,1248.7659048,1.1387328,4.3915584,0.0768096,0.0,0.0,0.0,0.0
13.219999999999999,1250.7547248,1.030224,4.2833544,0.0768096,0.0,0.0,0.0,0.0
13.239999999999998,1252.8206592000001,1.1387328,4.3915584,0.15331440000000002,0.0,0.0,0.0,0.0
13.260000000000002,1254.8908608,1.0844784,4.2291,0.0768096,0.0,0.0,0.0,0.0
13.280000000000001,1257.0092208,1.030224,4.2833544,0.0768096,0.0,0.0,0.0,0.0
13.3,1259.1495264000002,1.3554456000000001,4.5000672,0.0768096,0.0,0.0,0.0,0.0
13.32,1261.2428928,1.0844784,4.2291,0.0768096,0.0,0.0,0.0,0.0
13.34,1263.2628024,1.1926824,4.3376088,0.0768096,0.0,0.0,0.0,0.0
13.36,1265.4277968000001,0.9759696,4.120591200000001,0.0768096,0.0,0.0,0.0,0.0
13.379999999999999,1267.4580696,1.1926824,4.3376088,0.0768096,0.0,0.0,0.0,0.0
13.399999999999999,1269.5435112,0.9759696,4.2291,0.0768096,0.0,0.0,0.0,0.0
13.420000000000002,1271.8066512,1.1387328,4.2833544,0.0768096,0.0,0.0,0.0,0.0
13.440000000000001,1273.9579296000002,0.9217152000000001,4.1748456,0.0768096,0.0,0.0,0.0,0.0
13.46,1276.1326776,1.0844784,4.2291,0.0768096,0.0,0.0,0.0,0.0
13.48,1278.2333592,0.9759696,4.2291,0.0768096,0.0,0.0,0.0,0.0
13.5,1280.3785416,0.9217152000000001,4.0663368,0.0768096,0.0,0.0,0.0,0.0
13.52,1282.4133864,0.9759696,4.120591200000001,0.0768096,0.0,0.0,0.0,0.0
13.54,1284.425676,1.030224,4.1748456,0.0768096,0.0,0.0,0.0,0.0
13.559999999999999,1286.4458904,0.8674608,4.012082400000001,0.0768096,0.0,0.0,0.0,0.0
13.579999999999998,1288.4100216000002,0.9217152000000001,4.1748456,0.0768096,0.0,0.0,0.0,0.0
13.600000000000001,1290.3750672,0.9759696,4.2291,0.0768096,0.0,0.0,0.0,0.0
13.620000000000001,1292.2017336,0.8132064000000001,4.0663368,0.0768096,0.0,0.0,0.0,0.0
13.64,1294.1265456,0.8674608,4.120591200000001,0.0768096,0.0,0.0,0.0,0.0
13.66,1296.0044184,0.8132064000000001,4.0663368,0.0768096,0.0,0.0,0.0,0.0
13.68,1297.9301447999999,0.8674608,4.012082400000001,0.0768096,0.0,0.0,0.0,0.0
13.7,1299.7821096,0.8674608,4.012082400000001,0.0768096,0.0,0.0,0.0,0.0
13.719999999999999,1301.7602616000001,0.8674608,3.9035736000000005,-0.0768096,0.0,0.0,0.0,0.0
13.739999999999998,1303.7100672000001,1.030224,3.957828,0.0768096,0.0,0.0,0.0,0.0
13.760000000000002,1305.6674928,0.8132064000000001,3.8496240000000004,0.0768096,0.0,0.0,0.0,0.0
13.780000000000001,1307.6718576,0.9759696,4.012082400000001,0.0768096,0.0,0.0,0.0,0.0
13.8,1309.6667736,0.9217152000000001,3.8496240000000004,-0.0768096,0.0,0.0,0.0,0.0
13.82,1311.6336480000002,0.8132064000000001,3.8496240000000004,0.0,0.0,0.0,0.0,0.0
13.84,1313.5767480000002,0.8132064000000001,3.8496240000000004,0.0,0.0,0.0,0.0,0.0
13.86,1315.4061576,0.8132064000000001,3.957828,0.0768096,0.0,0.0,0.0,0.0
13.879999999999999,1317.2203272000002,0.8132064000000001,3.8496240000000004,0.0768096,0.0,0.0,0.0,0.0
13.899999999999999,1319.1847632,0.7046976,3.8496240000000004,-0.0768096,0.0,0.0,0.0,0.0
13.920000000000002,1321.0964688,0.650748,3.9035736000000005,0.0768096,0.0,0.0,0.0,0.0
13.940000000000001,1322.7929856,0.650748,3.9035736000000005,0.0768096,0.0,0.0,0.0,0.0
13.96,1324.7007288000002,0.7589520000000001,3.9035736000000005,0.0768096,0.0,0.0,0.0,0.0
13.98,1326.5377583999998,0.5964936000000001,3.7411152,0.15331440000000002,0.0,0.0,0.0,0.0
14.0,1328.4400151999998,0.7589520000000001,3.7953696000000003,0.0768096,0.0,0.0,0.0,0.0
14.02,1330.2605856000002,0.7589520000000001,3.9035736000000005,0.15331440000000002,0.0,0.0,0.0,0.0
14.04,1332.1677192,0.5964936000000001,3.6326064,0.0768096,0.0,0.0,0.0,0.0
14.059999999999999,1333.9846320000001,0.7046976,3.7411152,0.0768096,0.0,0.0,0.0,0.0
14.079999999999998,1335.7372320000002,0.7589520000000001,3.7953696000000003,0.0768096,0.0,0.0,0.0,0.0
14.100000000000001,1337.4937944,0.7589520000000001,3.6868608000000003,0.0768096,0.0,0.0,0.0,0.0
14.120000000000001,1339.3536840000002,0.650748,3.578352,0.0,0.0,0.0,0.0,0.0
14.14,1341.1855320000002,0.650748,3.6868608000000003,0.0,0.0,0.0,0.0,0.0
14.16,1343.0978472,0.5422392,3.6868608000000003,0.0,0.0,0.0,0.0,0.0
14.18,1344.9208560000002,0.5964936000000001,3.7411152,0.0,0.0,0.0,0.0,0.0
14.2,1346.8084824,0.37947600000000004,3.6326064,-0.0768096,0.0,0.0,0.0,0.0
14.219999999999999,1348.57998,0.4337304,3.578352,0.0,0.0,0.0,0.0,0.0
14.239999999999998,1350.4279824,0.37947600000000004,3.5240976,-0.0768096,0.0,0.0,0.0,0.0
14.260000000000002,1352.2339224,0.5422392,3.6868608000000003,-0.0768096,0.0,0.0,0.0,0.0
14.280000000000001,1354.0179168,0.4879848,3.6326064,0.0,0.0,0.0,0.0,0.0
14.3,1355.7778320000002,0.4337304,3.578352,0.0,0.0,0.0,0.0,0.0
14.32,1357.5706656,0.4879848,3.5240976,0.0768096,0.0,0.0,0.0,0.0
14.34,1359.2882136,0.5964936000000001,3.5240976,0.0768096,0.0,0.0,0.0,0.0
14.36,1361.0987255999999,0.5964936000000001,3.5240976,0.0768096,0.0,0.0,0.0,0.0
14.379999999999999,1362.8671752,0.4879848,3.3073848000000003,0.0768096,0.0,0.0,0.0,0.0
14.399999999999999,1364.6331864,0.7589520000000001,3.3616392,0.0768096,0.0,0.0,0.0,0.0
14.420000000000002,1366.4116944,0.8132064000000001,3.4158936000000004,0.0768096,0.0,0.0,0.0,0.0
14.440000000000001,1368.1277184,0.8132064000000001,3.198876,0.0768096,0.0,0.0,0.0,0.0
14.46,1370.0400336,0.7589520000000001,3.1446216000000002,0.0768096,0.0,0.0,0.0,0.0
14.48,1371.7231391999999,0.9217152000000001,3.198876,0.0,0.0,0.0,0.0,0.0
14.5,1373.6250912,0.8132064000000001,3.3073848000000003,0.0768096,0.0,0.0,0.0,0.0
14.52,1375.5520368,0.5964936000000001,3.0903671999999998,0.0,0.0,0.0,0.0,0.0
14.54,1377.4046112,0.650748,3.3616392,0.0768096,0.0,0.0,0.0,0.0
14.559999999999999,1379.1654408,0.4337304,3.2531304000000003,0.0768096,0.0,0.0,0.0,0.0
14.579999999999998,1380.9908879999998,0.4879848,3.198876,0.0768096,0.0,0.0,0.0,0.0
14.600000000000001,1382.7078264000002,0.4337304,3.3616392,0.0,0.0,0.0,0.0,0.0
14.620000000000001,1384.3918464,0.37947600000000004,3.3073848000000003,0.0768096,0.0,0.0,0.0,0.0
14.64,1385.9996664,0.2170176,3.3616392,0.0768096,0.0,0.0,0.0,0.0
14.66,1387.7129472,0.2709672,3.3073848000000003,0.0768096,0.0,0.0,0.0,0.0
14.68,1389.3094896,0.0542544,3.4158936000000004,0.0768096,0.0,0.0,0.0,0.0
14.7,1390.845072,0.16276320000000002,3.3073848000000003,0.0768096,0.0,0.0,0.0,0.0
14.719999999999999,1392.4285080000002,0.16276320000000002,3.3073848000000003,0.0768096,0.0,0.0,0.0,0.0
14.739999999999998,1394.0216976000002,0.16276320000000002,3.3073848000000003,0.0768096,0.0,0.0,0.0,0.0
