time,baro_altitude,accl_x,accl_y,accl_z,gps_altitude,gyro_roll,gyro_pitch,gyro_yaw
0.0,0.0,-7.5364848,-2.548128,-5.6741568000000004,0.0,0.0,0.0,0.0
0.020000000000000462,-0.26974800000000004,-7.4822304,-2.4941784,-5.597347200000001,0.0,0.0,0.0,0.0
0.040000000000000036,-0.2481072,-7.4822304,-2.6023824,-5.6741568000000004,0.0,0.0,0.0,0.0
0.0600000000000005,-0.2200656,-7.3737216000000005,-2.4941784,-5.597347200000001,0.0,0.0,0.0,0.0
0.08000000000000007,-0.1749552,-7.427976000000001,-2.4399240000000004,-5.597347200000001,0.0,0.0,0.0,0.0
0.10000000000000053,-0.252984,-7.3737216000000005,-2.4941784,-5.5205376,0.0,0.0,0.0,0.0
0.1200000000000001,-0.2883408,-7.4822304,-2.6023824,-5.6741568000000004,0.0,0.0,0.0,0.0
0.14000000000000057,-0.34015680000000004,-7.5364848,-2.548128,-5.597347200000001,0.0,0.0,0.0,0.0
0.16000000000000014,-0.34290000000000004,-7.4822304,-2.4941784,-5.597347200000001,0.0,0.0,0.0,0.0
0.1800000000000006,-0.5056632,-7.4822304,-2.6023824,-5.5205376,0.0,0.0,0.0,0.0
0.20000000000000018,-0.6970776,-7.427976000000001,-2.548128,-5.597347200000001,0.0,0.0,0.0,0.0
0.22000000000000064,-0.5763768,-7.4822304,-2.4941784,-5.597347200000001,0.0,0.0,0.0,0.0
0.2400000000000002,-0.4687824,-7.5364848,-2.548128,-5.597347200000001,0.0,0.0,0.0,0.0
0.2600000000000007,-0.38465760000000004,-7.4822304,-2.6023824,-5.597347200000001,0.0,0.0,0.0,0.0
0.28000000000000025,-0.36179760000000005,-7.427976000000001,-2.548128,-5.597347200000001,0.0,0.0,0.0,0.0
0.3000000000000007,-0.2907792,-7.427976000000001,-2.4399240000000004,-5.5205376,0.0,0.0,0.0,0.0
0.3200000000000003,-0.34899600000000003,-7.427976000000001,-2.548128,-5.903976000000001,0.0,0.0,0.0,0.0
0.34000000000000075,-0.27432,-7.4822304,-2.6023824,-5.6741568000000004,0.0,0.0,0.0,0.0
0.3600000000000003,-0.05486399999999998,-7.3194672,-2.548128,-5.597347200000001,0.0,0.0,0.0,0.0
0.3800000000000008,-0.1243584,-7.427976000000001,-2.4399240000000004,-5.750661600000001,0.0,0.0,0.0,0.0
0.40000000000000036,-0.2770632,-7.427976000000001,-2.548128,-5.597347200000001,0.0,0.0,0.0,0.0
0.4200000000000008,-0.23561040000000003,-7.427976000000001,-2.548128,-5.6741568000000004,0.0,0.0,0.0,0.0
0.4400000000000004,-0.1411224,-7.5364848,-2.548128,-5.597347200000001,0.0,0.0,0.0,0.0
0.46000000000000085,-0.18562320000000002,-7.5364848,-2.548128,-5.6741568000000004,0.0,0.0,0.0,0.0
0.4800000000000004,-0.39806880000000006,-7.427976000000001,-2.548128,-5.6741568000000004,0.0,0.0,0.0,0.0
0.5000000000000004,-0.422148,-7.4822304,-2.4941784,-5.5205376,0.0,0.0,0.0,0.0
0.5200000000000005,-0.6525768000000001,-7.427976000000001,-2.548128,-5.5205376,0.0,0.0,0.0,0.0
0.5400000000000005,-0.5672328,-7.5364848,-2.548128,-5.597347200000001,0.0,0.0,0.0,0.0
0.5600000000000005,-0.4474464,-7.5904344,-2.4941784,-5.597347200000001,0.0,0.0,0.0,0.0
0.5800000000000005,-0.45445680000000005,-7.427976000000001,-2.548128,-5.6741568000000004,0.0,0.0,0.0,0.0
0.6000000000000005,-0.257556,-7.427976000000001,-2.4399240000000004,-5.6741568000000004,0.0,0.0,0.0,0.0
0.6200000000000006,-0.1959864,-7.427976000000001,-2.548128,-5.597347200000001,0.0,0.0,0.0,0.0
0.6400000000000006,-0.1840992,-7.427976000000001,-2.548128,-5.6741568000000004,0.0,0.0,0.0,0.0
0.6600000000000006,-0.2121408,-7.5904344,-2.4941784,-5.6741568000000004,0.0,0.0,0.0,0.0
0.6800000000000006,-0.2596896,-7.3737216000000005,-2.6023824,-5.597347200000001,0.0,0.0,0.0,0.0
0.7000000000000006,-0.27553920000000004,-7.5364848,-2.548128,-5.750661600000001,0.0,0.0,0.0,0.0
0.7200000000000006,-0.1222248,-7.3737216000000005,-2.6023824,-5.597347200000001,0.0,0.0,0.0,0.0
0.7400000000000002,-0.1755648,-7.4822304,-2.4941784,-5.597347200000001,0.0,0.0,0.0,0.0
0.7600000000000002,-0.3112008,-7.427976000000001,-2.548128,-5.597347200000001,0.0,0.0,0.0,0.0
0.7800000000000002,-0.184404,-7.3737216000000005,-2.4941784,-5.597347200000001,0.0,0.0,0.0,0.0
0.8000000000000003,-0.3864864,-7.4822304,-2.4941784,-5.6741568000000004,0.0,0.0,0.0,0.0
0.8200000000000003,-0.214884,-7.5364848,-2.548128,-5.597347200000001,0.0,0.0,0.0,0.0
0.8400000000000003,-0.1865376,-7.5364848,-2.4399240000000004,-5.6741568000000004,0.0,0.0,0.0,0.0
0.8600000000000003,-0.2298192,-7.4822304,-2.6023824,-5.6741568000000004,0.0,0.0,0.0,0.0
0.8800000000000003,-0.2932176,-7.5904344,-2.6023824,-5.597347200000001,0.0,0.0,0.0,0.0
0.9000000000000004,-0.2694432,-7.427976000000001,-2.548128,-5.750661600000001,0.0,0.0,0.0,0.0
0.9200000000000004,-0.32369760000000003,-7.4822304,-2.4941784,-5.6741568000000004,0.0,0.0,0.0,0.0
0.9400000000000004,-0.4376928,-7.427976000000001,-2.548128,-5.6741568000000004,0.0,0.0,0.0,0.0
0.9600000000000004,-0.4824984,-7.5364848,-2.548128,-5.597347200000001,0.0,0.0,0.0,0.0
0.9800000000000004,-0.513588,-7.5364848,-2.548128,-5.750661600000001,0.0,0.0,0.0,0.0
1.0000000000000004,-0.5108448,-7.4822304,-2.4941784,-5.6741568000000004,0.0,0.0,0.0,0.0
1.0200000000000005,-0.43586400000000003,-7.4822304,-2.4941784,-5.6741568000000004,0.0,0.0,0.0,0.0
1.0400000000000005,-0.4346448,-7.427976000000001,-2.4399240000000004,-5.597347200000001,0.0,0.0,0.0,0.0
1.0600000000000005,-0.2456688,-7.4822304,-2.4941784,-5.6741568000000004,0.0,0.0,0.0,0.0
1.0800000000000005,-0.1520952,-7.4822304,-2.4941784,-5.750661600000001,0.0,0.0,0.0,0.0
1.1000000000000005,-0.1255776,-7.4822304,-2.6023824,-5.597347200000001,0.0,0.0,0.0,0.0
1.1200000000000006,-0.23896320000000001,-7.4822304,-2.6023824,-5.6741568000000004,0.0,0.0,0.0,0.0
1.1400000000000006,-0.1944624,-7.4822304,-2.4941784,-5.6741568000000004,0.0,0.0,0.0,0.0
1.1600000000000006,-0.2197608,-7.4822304,-2.4941784,-5.827471200000001,0.0,0.0,0.0,0.0
1.1800000000000006,-0.25633680000000003,-7.5364848,-2.4399240000000004,-5.750661600000001,0.0,0.0,0.0,0.0
1.2000000000000006,-0.2572512,-7.4822304,-2.4941784,-5.6741568000000004,0.0,0.0,0.0,0.0
1.2200000000000006,-0.34076639999999997,-7.427976000000001,-2.548128,-5.6741568000000004,0.0,0.0,0.0,0.0
1.2400000000000002,-0.3928872,-7.5364848,-2.548128,-5.597347200000001,0.0,0.0,0.0,0.0
1.2600000000000002,-0.504444,-7.5364848,-2.548128,-5.6741568000000004,0.0,0.0,0.0,0.0
1.2800000000000002,-0.42702480000000004,-7.4822304,-2.6023824,-5.6741568000000004,0.0,0.0,0.0,0.0
1.3000000000000003,-0.2228088,-7.4822304,-2.4941784,-5.597347200000001,0.0,0.0,0.0,0.0
1.3200000000000003,-0.11521440000000001,-7.5364848,-2.548128,-5.6741568000000004,0.0,0.0,0.0,0.0
1.3400000000000003,-0.214884,-7.5364848,-2.4399240000000004,-5.597347200000001,0.0,0.0,0.0,0.0
1.3600000000000003,-0.19903440000000003,-7.4822304,-2.4941784,-5.6741568000000004,0.0,0.0,0.0,0.0
1.3800000000000003,-0.11247120000000001,-7.4822304,-2.6023824,-5.597347200000001,0.0,0.0,0.0,0.0
1.4000000000000004,-0.35082480000000005,-7.5364848,-2.548128,-5.597347200000001,0.0,0.0,0.0,0.0
1.4200000000000004,-0.2109216,-7.5364848,-2.548128,-5.597347200000001,0.0,0.0,0.0,0.0
1.4400000000000004,-0.3136392,-7.3737216000000005,-2.4941784,-5.5205376,0.0,0.0,0.0,0.0
1.4600000000000004,-0.36911279999999996,-7.427976000000001,-2.548128,-5.6741568000000004,0.0,0.0,0.0,0.0
1.4800000000000004,-0.3953256,-7.4822304,-2.4941784,-5.5205376,0.0,0.0,0.0,0.0
1.5000000000000004,-0.405384,-7.5904344,-2.6023824,-5.597347200000001,0.0,0.0,0.0,0.0
1.5200000000000005,-0.6620256,-7.5904344,-2.4941784,-5.6741568000000004,0.0,0.0,0.0,0.0
1.5400000000000005,-0.5492496,-7.3737216000000005,-2.6023824,-5.6741568000000004,0.0,0.0,0.0,0.0
1.5600000000000005,-0.5093208,-7.5364848,-2.548128,-5.597347200000001,0.0,0.0,0.0,0.0
1.5800000000000005,-0.45933360000000006,-7.4822304,-2.4941784,-5.6741568000000004,0.0,0.0,0.0,0.0
1.6000000000000005,-0.473964,-7.5364848,-2.548128,-5.597347200000001,0.0,0.0,0.0,0.0
1.6200000000000006,-0.31546799999999997,-7.427976000000001,-2.548128,-5.597347200000001,0.0,0.0,0.0,0.0
1.6400000000000006,-0.1840992,-7.4822304,-2.4941784,-5.6741568000000004,0.0,0.0,0.0,0.0
1.6600000000000006,-0.015239999999999981,-7.4822304,-2.4941784,-5.597347200000001,0.0,0.0,0.0,0.0
1.6800000000000006,0.14112240000000004,-7.5364848,-2.4399240000000004,-5.6741568000000004,0.0,0.0,0.0,0.0
1.7000000000000006,0.1530096,-7.427976000000001,-2.548128,-5.597347200000001,0.0,0.0,0.0,0.0
1.7200000000000006,-0.018592799999999982,-7.5364848,-2.4399240000000004,-5.6741568000000004,0.0,0.0,0.0,0.0
1.7400000000000002,-0.012801599999999979,-7.3737216000000005,-2.4941784,-5.6741568000000004,0.0,0.0,0.0,0.0
1.7600000000000002,-0.15057120000000002,-7.4822304,-2.4941784,-5.6741568000000004,0.0,0.0,0.0,0.0
1.7800000000000002,-0.265176,-7.4822304,-2.6023824,-5.6741568000000004,0.0,0.0,0.0,0.0
1.8000000000000003,-0.3044952,-7.4822304,-2.4941784,-5.6741568000000004,0.0,0.0,0.0,0.0
1.8200000000000003,-0.0984504,-7.4822304,-2.6023824,-5.597347200000001,0.0,0.0,0.0,0.0
1.8400000000000003,-0.1514856,-7.427976000000001,-2.548128,-5.6741568000000004,0.0,0.0,0.0,0.0
1.8600000000000003,-0.3105912,-7.4822304,-2.4941784,-5.6741568000000004,0.0,0.0,0.0,0.0
1.8800000000000003,-0.303276,-7.4822304,-2.4941784,-5.597347200000001,0.0,0.0,0.0,0.0
1.9000000000000004,-0.1146048,-7.4822304,-2.4941784,-5.597347200000001,0.0,0.0,0.0,0.0
1.9200000000000004,0.04297680000000001,-7.4822304,-2.4941784,-5.597347200000001,0.0,0.0,0.0,0.0
1.9400000000000004,-0.007315200000000007,-7.427976000000001,-2.4399240000000004,-5.6741568000000004,0.0,0.0,0.0,0.0
1.9600000000000004,-0.10485119999999999,-7.4822304,-2.4941784,-5.6741568000000004,0.0,0.0,0.0,0.0
1.9800000000000004,-0.20574000000000003,-7.5364848,-2.4399240000000004,-5.5205376,0.0,0.0,0.0,0.0
2.0000000000000004,-0.05760719999999998,-7.5364848,-2.6566368,-5.597347200000001,0.0,0.0,0.0,0.0
2.0200000000000005,-0.1444752,-7.4822304,-2.6023824,-5.6741568000000004,0.0,0.0,0.0,0.0
2.0400000000000005,-0.19354800000000003,-7.427976000000001,-2.548128,-5.597347200000001,0.0,0.0,0.0,0.0
2.0600000000000005,-0.3590544,-7.5364848,-2.548128,-5.6741568000000004,0.0,0.0,0.0,0.0
2.0800000000000005,-0.3465576,-7.427976000000001,-2.548128,-5.750661600000001,0.0,0.0,0.0,0.0
2.1000000000000005,-0.185928,-7.5364848,-2.548128,-5.6741568000000004,0.0,0.0,0.0,0.0
2.1200000000000006,-0.2441448,-7.427976000000001,-2.548128,-5.6741568000000004,0.0,0.0,0.0,0.0
2.1400000000000006,-0.3044952,-7.4822304,-2.6023824,-5.597347200000001,0.0,0.0,0.0,0.0
2.1600000000000006,-0.2916936,-7.4822304,-2.6023824,-5.6741568000000004,0.0,0.0,0.0,0.0
2.1800000000000006,-0.298704,-7.427976000000001,-2.548128,-5.6741568000000004,0.0,0.0,0.0,0.0
2.2000000000000006,-0.3995928,-7.5364848,-2.548128,-5.597347200000001,0.0,0.0,0.0,0.0
2.2200000000000006,-0.339852,-7.3737216000000005,-2.6023824,-5.597347200000001,0.0,0.0,0.0,0.0
2.24,-0.5468112,-7.4822304,-2.4941784,-5.6741568000000004,0.0,0.0,0.0,0.0
2.2600000000000002,-0.5236464000000001,-7.4822304,-2.6023824,-5.5205376,0.0,0.0,0.0,0.0
2.2800000000000002,-0.4529328,-7.427976000000001,-2.548128,-5.6741568000000004,0.0,0.0,0.0,0.0
2.3000000000000003,-0.3965448,-7.4822304,-2.4941784,-5.597347200000001,0.0,0.0,0.0,0.0
2.3200000000000003,-0.3989832,-7.5364848,-2.548128,-5.597347200000001,0.0,0.0,0.0,0.0
2.3400000000000003,-0.283464,-7.4822304,-2.4941784,-5.597347200000001,0.0,0.0,0.0,0.0
2.3600000000000003,-0.2258568,-7.3737216000000005,-2.4941784,-5.597347200000001,0.0,0.0,0.0,0.0
2.3800000000000003,-0.1789176,-7.4822304,-2.4941784,-5.6741568000000004,0.0,0.0,0.0,0.0
2.4000000000000004,-0.330708,-7.5364848,-2.548128,-5.6741568000000004,0.0,0.0,0.0,0.0
2.4200000000000004,-0.39867840000000004,-7.4822304,-2.4941784,-5.597347200000001,0.0,0.0,0.0,0.0
2.4400000000000004,-0.32857440000000004,-7.4822304,-2.6023824,-5.597347200000001,0.0,0.0,0.0,0.0
2.4600000000000004,-0.2170176,-7.427976000000001,-2.4399240000000004,-5.597347200000001,0.0,0.0,0.0,0.0
2.4800000000000004,-0.1072896,-7.5364848,-2.4399240000000004,-5.6741568000000004,0.0,0.0,0.0,0.0
2.5000000000000004,-0.0667512,-7.427976000000001,-2.548128,-5.6741568000000004,0.0,0.0,0.0,0.0
2.5200000000000005,-0.06217919999999999,-7.4822304,-2.6023824,-5.597347200000001,0.0,0.0,0.0,0.0
2.5400000000000005,-0.09448799999999999,-7.5364848,-2.4399240000000004,-5.597347200000001,0.0,0.0,0.0,0.0
2.5600000000000005,-0.05151119999999998,-7.5364848,-2.548128,-5.6741568000000004,0.0,0.0,0.0,0.0
2.5800000000000005,-0.26761440000000003,-7.427976000000001,-2.548128,-5.6741568000000004,0.0,0.0,0.0,0.0
2.6000000000000005,-0.2587752,-7.427976000000001,-2.548128,-5.597347200000001,0.0,0.0,0.0,0.0
2.62,-0.2593848,-7.4822304,-2.4941784,-5.5205376,0.0,0.0,0.0,0.0
2.6400000000000006,-0.2913888,-7.4822304,-2.4941784,-5.6741568000000004,0.0,0.0,0.0,0.0
2.66,-0.12161519999999999,-7.5364848,-2.548128,-5.6741568000000004,0.0,0.0,0.0,0.0
2.6800000000000006,-0.064008,-7.5364848,-2.548128,-5.6741568000000004,0.0,0.0,0.0,0.0
2.7,-0.2267712,-7.4822304,-2.6023824,-5.597347200000001,0.0,0.0,0.0,0.0
2.7200000000000006,-0.22067520000000002,-7.427976000000001,-2.4399240000000004,-5.6741568000000004,0.0,0.0,0.0,0.0
2.74,-0.1194816,-7.4822304,-2.6023824,-5.6741568000000004,0.0,0.0,0.0,0.0
2.7600000000000007,-0.04206240000000001,-7.5364848,-2.548128,-5.597347200000001,0.0,0.0,0.0,0.0
2.7800000000000002,-0.1228344,-7.5364848,-2.4399240000000004,-5.6741568000000004,0.0,0.0,0.0,0.0
2.8000000000000007,-0.0789432,-7.5364848,-2.548128,-5.597347200000001,0.0,0.0,0.0,0.0
2.8200000000000003,-0.2215896,-7.427976000000001,-2.548128,-5.750661600000001,0.0,0.0,0.0,0.0
2.8400000000000007,-0.15057120000000002,-7.5364848,-2.548128,-5.597347200000001,0.0,0.0,0.0,0.0
2.8600000000000003,-0.20574000000000003,-7.5364848,-2.548128,-5.597347200000001,0.0,0.0,0.0,0.0
2.8800000000000003,-0.3742944,-7.427976000000001,-2.4399240000000004,-5.597347200000001,0.0,0.0,0.0,0.0
2.9000000000000004,-0.3502152,-7.427976000000001,-2.548128,-5.6741568000000004,0.0,0.0,0.0,0.0
2.9200000000000004,-0.5084064,-7.427976000000001,-2.548128,-5.750661600000001,0.0,0.0,0.0,0.0
2.9400000000000004,-0.5477256,-7.5364848,-2.548128,-5.6741568000000004,0.0,0.0,0.0,0.0
2.9600000000000004,-0.5266944,-7.4822304,-2.4941784,-5.750661600000001,0.0,0.0,0.0,0.0
2.9800000000000004,-0.554736,-7.4822304,-2.6023824,-5.597347200000001,0.0,0.0,0.0,0.0
3.0000000000000004,-0.43433999999999995,-7.5364848,-2.548128,-5.6741568000000004,0.0,0.0,0.0,0.0
3.0200000000000005,-0.43007280000000003,-7.4822304,-2.4941784,-5.597347200000001,0.0,0.0,0.0,0.0
3.0400000000000005,-0.35143440000000004,-7.5364848,-2.548128,-5.597347200000001,0.0,0.0,0.0,0.0
3.0600000000000005,-0.172212,-7.427976000000001,-2.548128,-5.6741568000000004,0.0,0.0,0.0,0.0
3.0800000000000005,-0.26974800000000004,-7.427976000000001,-2.548128,-5.597347200000001,0.0,0.0,0.0,0.0
3.1000000000000005,-0.2798064,-7.4822304,-2.4941784,-5.6741568000000004,0.0,0.0,0.0,0.0
3.12,-0.2014728,-7.5364848,-2.548128,-5.597347200000001,0.0,0.0,0.0,0.0
3.1400000000000006,-0.17038319999999998,-7.427976000000001,-2.4399240000000004,-5.6741568000000004,0.0,0.0,0.0,0.0
3.16,-0.064008,-7.4822304,-2.4941784,-5.6741568000000004,0.0,0.0,0.0,0.0
3.1800000000000006,-0.11673839999999999,-7.427976000000001,-2.4399240000000004,-5.597347200000001,0.0,0.0,0.0,0.0
3.2,-0.179832,-7.4822304,-2.6023824,-5.597347200000001,0.0,0.0,0.0,0.0
3.2200000000000006,-0.2014728,-7.427976000000001,-2.548128,-5.6741568000000004,0.0,0.0,0.0,0.0
3.24,-0.34686239999999996,-7.427976000000001,-2.548128,-5.5205376,0.0,0.0,0.0,0.0
3.2600000000000007,-0.43586400000000003,-7.3737216000000005,-2.4941784,-5.597347200000001,0.0,0.0,0.0,0.0
3.2800000000000002,-0.3880104,-7.4822304,-2.4941784,-5.5205376,0.0,0.0,0.0,0.0
3.3000000000000007,-0.5885688,-7.5364848,-2.4399240000000004,-5.597347200000001,0.0,0.0,0.0,0.0
3.3200000000000003,-0.5443728,-7.427976000000001,-2.548128,-5.6741568000000004,0.0,0.0,0.0,0.0
3.3400000000000007,-0.4672584,-7.5364848,-2.548128,-5.597347200000001,0.0,0.0,0.0,0.0
3.3600000000000003,-0.36423599999999995,-7.5364848,-2.548128,-5.6741568000000004,0.0,0.0,0.0,0.0
3.3800000000000003,-0.467868,-7.3737216000000005,-2.4941784,-5.6741568000000004,0.0,0.0,0.0,0.0
3.4000000000000004,-0.6178296000000001,-7.4822304,-2.4941784,-5.6741568000000004,0.0,0.0,0.0,0.0
3.4200000000000004,-0.5038344,-7.5364848,-2.548128,-5.597347200000001,0.0,0.0,0.0,0.0
3.4400000000000004,-0.44958000000000004,-7.4822304,-2.4941784,-5.597347200000001,0.0,0.0,0.0,0.0
3.4600000000000004,-0.2508504,-7.427976000000001,-2.4399240000000004,-5.750661600000001,0.0,0.0,0.0,0.0
3.4800000000000004,-0.35448240000000003,-7.5364848,-2.548128,-5.6741568000000004,0.0,0.0,0.0,0.0
3.5000000000000004,-0.19507200000000002,-7.5904344,-2.4941784,-5.597347200000001,0.0,0.0,0.0,0.0
3.5200000000000005,-0.3218688,-7.427976000000001,-2.548128,-5.6741568000000004,0.0,0.0,0.0,0.0
3.5400000000000005,-0.5007864000000001,-7.427976000000001,-2.548128,-5.6741568000000004,0.0,0.0,0.0,0.0
3.5600000000000005,-0.550164,-7.4822304,-2.6023824,-5.597347200000001,0.0,0.0,0.0,0.0
3.5800000000000005,-0.7598664,-7.4822304,-2.4941784,-5.6741568000000004,0.0,0.0,0.0,0.0
3.6000000000000005,-0.8421624,-7.427976000000001,-2.548128,-5.597347200000001,0.0,0.0,0.0,0.0
3.6200000000000006,-0.9204960000000001,-7.427976000000001,-2.548128,-5.6741568000000004,0.0,0.0,0.0,0.0
3.6400000000000006,-0.854964,-7.4822304,-2.4941784,-5.750661600000001,0.0,0.0,0.0,0.0
3.6600000000000006,-0.6961632,-7.5364848,-2.548128,-5.597347200000001,0.0,0.0,0.0,0.0
3.6800000000000006,-0.7086600000000001,-7.5364848,-2.4399240000000004,-5.6741568000000004,0.0,0.0,0.0,0.0
3.7,-0.5769864,-7.427976000000001,-2.4399240000000004,-5.6741568000000004,0.0,0.0,0.0,0.0
3.7200000000000006,-0.5096256,-7.4822304,-2.6023824,-5.597347200000001,0.0,0.0,0.0,0.0
3.74,-0.405384,-7.4822304,-2.4941784,-5.597347200000001,0.0,0.0,0.0,0.0
3.7600000000000007,-0.2968752,-7.427976000000001,-2.548128,-5.6741568000000004,0.0,0.0,0.0,0.0
3.7800000000000002,-0.22890480000000002,-7.5364848,-2.548128,-5.597347200000001,0.0,0.0,0.0,0.0
3.8000000000000003,-0.26487120000000003,-7.427976000000001,-2.4399240000000004,-5.6741568000000004,0.0,0.0,0.0,0.0
3.8200000000000003,-0.02743199999999999,-7.427976000000001,-2.6566368,-5.6741568000000004,0.0,0.0,0.0,0.0
3.8400000000000003,-0.09113519999999999,-7.3737216000000005,-2.4941784,-5.597347200000001,0.0,0.0,0.0,0.0
3.8600000000000003,-0.05669279999999999,-7.427976000000001,-2.548128,-5.597347200000001,0.0,0.0,0.0,0.0
3.8800000000000003,-0.19659600000000002,-7.427976000000001,-2.548128,-5.750661600000001,0.0,0.0,0.0,0.0
3.9000000000000004,-0.30662880000000003,-7.427976000000001,-2.548128,-5.6741568000000004,0.0,0.0,0.0,0.0
3.9200000000000004,-0.15179040000000002,-7.4822304,-2.6023824,-5.597347200000001,0.0,0.0,0.0,0.0
3.9400000000000004,-0.0734568,-7.427976000000001,-2.548128,-5.5205376,0.0,0.0,0.0,0.0
3.9600000000000004,-0.163068,-7.4822304,-2.6023824,-5.6741568000000004,0.0,0.0,0.0,0.0
3.9800000000000004,-0.2581656,-7.4822304,-2.6023824,-5.6741568000000004,0.0,0.0,0.0,0.0
4.0,-0.42092880000000005,-7.4822304,-2.6023824,-5.6741568000000004,0.0,0.0,0.0,0.0
4.0200000000000005,-0.5081015999999999,-7.427976000000001,-2.4399240000000004,-5.597347200000001,0.0,0.0,0.0,0.0
4.04,-0.45232320000000004,-7.4822304,-2.4941784,-5.597347200000001,0.0,0.0,0.0,0.0
4.0600000000000005,-0.49712880000000004,-7.4822304,-2.4941784,-5.6741568000000004,0.0,0.0,0.0,0.0
4.08,-0.5596128,-7.427976000000001,-2.548128,-5.597347200000001,0.0,0.0,0.0,0.0
4.1000000000000005,-0.47914560000000006,-7.5364848,-2.548128,-5.597347200000001,0.0,0.0,0.0,0.0
4.12,-0.5379720000000001,-7.4822304,-2.4941784,-5.597347200000001,0.0,0.0,0.0,0.0
4.140000000000001,-0.4797552,-7.4822304,-2.4941784,-5.6741568000000004,0.0,0.0,0.0,0.0
4.16,-0.44348400000000004,-7.3737216000000005,-2.6023824,-5.6741568000000004,0.0,0.0,0.0,0.0
4.180000000000001,-0.45201840000000004,-7.4822304,-2.4941784,-5.6741568000000004,0.0,0.0,0.0,0.0
4.2,-0.3148584,-7.4822304,-2.4941784,-5.6741568000000004,0.0,0.0,0.0,0.0
4.220000000000001,-0.313944,-7.5364848,-2.548128,-5.597347200000001,0.0,0.0,0.0,0.0
4.24,-0.32491680000000006,-7.4822304,-2.4941784,-5.6741568000000004,0.0,0.0,0.0,0.0
4.260000000000001,-0.29718,-7.427976000000001,-2.4399240000000004,-5.597347200000001,0.0,0.0,0.0,0.0
4.28,-0.2609088,-7.5364848,-2.548128,-5.597347200000001,0.0,0.0,0.0,0.0
4.300000000000001,-0.252984,-7.427976000000001,-2.548128,-5.6741568000000004,0.0,0.0,0.0,0.0
4.32,-0.35143440000000004,-7.5364848,-2.548128,-5.597347200000001,0.0,0.0,0.0,0.0
4.340000000000001,-0.3950208,-7.5364848,-2.4399240000000004,-5.827471200000001,0.0,0.0,0.0,0.0
4.36,-0.48524160000000005,-3.3616392,-5.638800000000001,-10.274503200000002,0.0,0.0,0.0,0.0
4.380000000000001,-0.5388864,-7.427976000000001,-1.789176,-7.2076056,0.0,0.0,0.0,0.0
4.4,-0.43860720000000003,-7.5364848,-2.4399240000000004,-6.4407288000000005,0.0,0.0,0.0,0.0
4.420000000000001,-0.580644,-9.217152,-0.5422392,-6.9009768,0.0,0.0,0.0,0.0
4.44,-0.6638544000000001,-6.9942456,0.2709672,-2.0702016,0.0,0.0,0.0,0.0
4.460000000000001,-0.6464808000000001,-12.5787912,1.7349216,-2.223516,0.0,0.0,0.0,0.0
4.48,-0.6653784,-6.885736800000001,-1.5724632,-8.58774,0.0,0.0,0.0,0.0
4.5,-0.649224,-5.476036800000001,-1.1387328,-10.1979984,0.0,0.0,0.0,0.0
4.5200000000000005,-0.5797296,-12.795504,-0.1085088,-5.2139088000000005,0.0,0.0,0.0,0.0
4.54,-0.5577840000000001,-19.4102736,-5.205069600000001,-15.718536,0.0,0.0,0.0,0.0
4.5600000000000005,-0.7799832000000001,-30.4705512,-6.1807343999999995,-23.1562656,0.0,0.0,0.0,0.0
4.58,-0.7443216000000001,-54.9231312,-12.0908064,-28.753612800000003,0.0,0.0,0.0,0.0
4.6000000000000005,-0.7107936,-75.5260872,-10.5725976,-44.395644000000004,0.0,0.0,0.0,0.0
4.62,-0.5748528,-89.0265936,-7.156704,-59.73074160000001,0.0,0.0,0.0,0.0
4.640000000000001,-0.3621024,-111.0931992,-12.416028,-74.1459528,0.0,0.0,0.0,0.0
4.66,-0.0771144,-137.60592240000003,-12.5787912,-91.16811840000001,0.0,0.0,0.0,0.0
4.680000000000001,0.20299679999999998,-141.1303248,-2.9818584,-105.42971040000002,0.0,0.0,0.0,0.0
4.7,0.44531279999999995,-156.79917840000002,-16.0486344,-100.44592560000001,0.0,0.0,0.0,0.0
4.720000000000001,0.9003792,-155.985972,-10.5725976,-96.1519032,0.0,0.0,0.0,0.0
4.74,1.4627352,-137.4977184,-10.4098344,-87.48765840000002,0.0,0.0,0.0,0.0
4.760000000000001,2.1619464,-110.3885016,-6.7229735999999995,-70.925436,0.0,0.0,0.0,0.0
4.78,2.9574744000000006,-93.418152,-2.548128,-62.797944,0.0,0.0,0.0,0.0
4.800000000000001,3.7740336,-89.67703680000001,-1.1926824,-58.7340456,0.0,0.0,0.0,0.0
4.82,4.5339,-81.9238392,-2.0061936,-50.4529344,0.0,0.0,0.0,0.0
4.840000000000001,5.209946400000001,-76.4478024,-4.8795432000000005,-48.3059232,0.0,0.0,0.0,0.0
4.86,6.040221600000001,-72.43572,-8.024164800000001,-44.47214880000001,0.0,0.0,0.0,0.0
4.880000000000001,6.624828,-73.574148,-10.5725976,-43.628767200000006,0.0,0.0,0.0,0.0
4.9,7.025639999999999,-74.4416088,-12.0908064,-43.0920144,0.0,0.0,0.0,0.0
4.920000000000001,7.671816,-71.40549600000001,-8.94588,-43.0920144,0.0,0.0,0.0,0.0
4.94,8.5219032,-70.3210176,-4.7170848,-45.62246400000001,0.0,0.0,0.0,0.0
4.960000000000001,9.4085664,-65.8209504,-5.205069600000001,-46.235721600000005,0.0,0.0,0.0,0.0
4.98,10.2912672,-65.33296560000001,-4.7170848,-45.62246400000001,0.0,0.0,0.0,0.0
5.0,11.1029496,-65.33296560000001,-4.933797600000001,-42.0185088,0.0,0.0,0.0,0.0
5.0200000000000005,12.0362472,-66.3631896,-5.7470040000000004,-39.25824000000001,0.0,0.0,0.0,0.0
5.040000000000001,13.0765296,-63.3813312,-5.801258400000001,-38.721487200000006,0.0,0.0,0.0,0.0
5.0600000000000005,13.993977600000001,-64.0317744,-5.1508152,-38.4913632,0.0,0.0,0.0,0.0
5.08,14.918436000000002,-60.399168,-5.638800000000001,-39.4115544,0.0,0.0,0.0,0.0
5.1000000000000005,15.8834328,-59.5317072,-6.9399912,-39.641678399999996,0.0,0.0,0.0,0.0
5.12,17.0986704,-60.4534224,-5.0423064,-39.4115544,0.0,0.0,0.0,0.0
5.140000000000001,18.2977536,-60.344913600000005,-3.3073848000000003,-38.1847344,0.0,0.0,0.0,0.0
5.16,19.4861688,-58.230516,-5.421782400000001,-36.267847200000006,0.0,0.0,0.0,0.0
5.180000000000001,20.745907200000005,-59.5859616,-4.1748456,-37.034724,0.0,0.0,0.0,0.0
5.2,22.040392800000003,-57.7425312,-3.3073848000000003,-37.6479816,0.0,0.0,0.0,0.0
5.220000000000001,23.158704000000004,-59.0437224,-6.777228,-37.571476800000006,0.0,0.0,0.0,0.0
5.24,24.236476800000002,-56.1158136,-6.5605152,-37.417857600000005,0.0,0.0,0.0,0.0
5.260000000000001,25.337109600000005,-53.62194000000001,-6.5605152,-38.3380488,0.0,0.0,0.0,0.0
5.28,26.510894400000005,-55.6820832,-4.7170848,-34.810903200000006,0.0,0.0,0.0,0.0
5.300000000000001,27.795016800000003,-57.2545464,-2.2771608000000003,-34.35096,0.0,0.0,0.0,0.0
5.32,29.0514024,-56.6037984,-4.2291,-32.357263200000006,0.0,0.0,0.0,0.0
5.340000000000001,30.284623200000006,-55.6278288,-3.9035736000000005,-35.807904,0.0,0.0,0.0,0.0
5.36,31.499556000000002,-56.549544000000004,-3.957828,-36.3446568,0.0,0.0,0.0,0.0
5.380000000000001,32.7800208,-42.7783752,-5.0423064,-27.6801072,0.0,0.0,0.0,0.0
5.4,34.2781128,-13.988186400000002,1.3011912,-11.654637600000001,0.0,0.0,0.0,0.0
5.42,35.596372800000005,4.1748456,2.6566368,0.8433816000000001,0.0,0.0,0.0,0.0
5.44,36.7884456,4.2291,-1.4097000000000002,9.737750400000001,0.0,0.0,0.0,0.0
5.460000000000001,37.92992160000001,11.1148368,3.957828,5.4440328000000004,0.0,0.0,0.0,0.0
5.48,38.84950320000001,13.554456,1.7349216,3.8337744,0.0,0.0,0.0,0.0
5.5,39.8705832,13.3377432,1.9519392,3.6036504000000003,0.0,0.0,0.0,0.0
5.5200000000000005,41.0294328,10.5725976,1.8976848000000002,5.903976000000001,0.0,0.0,0.0,0.0
5.540000000000001,42.1312848,10.789310400000002,1.3554456000000001,6.1341,0.0,0.0,0.0,0.0
5.5600000000000005,43.2782472,10.8978192,1.4639544,6.364224,0.0,0.0,0.0,0.0
5.58,44.438925600000005,12.958267200000002,0.37947600000000004,3.3738312000000006,0.0,0.0,0.0,0.0
5.6000000000000005,45.5435208,12.416028,1.5724632,4.0638984,0.0,0.0,0.0,0.0
5.62,46.75632,10.843564800000001,-1.6264128000000002,4.6006512,0.0,0.0,0.0,0.0
5.640000000000001,47.963328,10.193121600000001,3.6868608000000003,5.4440328000000004,0.0,0.0,0.0,0.0
5.66,49.11486240000001,11.385804,1.5182088,3.910584,0.0,0.0,0.0,0.0
5.680000000000001,50.242927200000004,11.982297599999999,0.37947600000000004,4.2172128,0.0,0.0,0.0,0.0
5.7,51.4020816,12.6327408,0.37947600000000004,3.6036504000000003,0.0,0.0,0.0,0.0
5.720000000000001,52.6542,10.355580000000002,0.9217152000000001,4.2937176,0.0,0.0,0.0,0.0
5.74,53.8295088,9.9218496,2.6566368,4.907280000000001,0.0,0.0,0.0,0.0
5.760000000000001,55.085284800000004,10.735360799999999,1.9519392,3.3738312000000006,0.0,0.0,0.0,0.0
5.78,56.163362400000004,10.8978192,-0.8132064000000001,3.6036504000000003,0.0,0.0,0.0,0.0
5.800000000000001,57.290208,9.813645600000001,0.16276320000000002,4.6006512,0.0,0.0,0.0,0.0
5.82,58.4121768,9.867595200000002,1.5182088,3.910584,0.0,0.0,0.0,0.0
5.840000000000001,59.499398400000004,9.379915200000001,1.5724632,4.0638984,0.0,0.0,0.0,0.0
5.86,60.641179199999996,8.94588,1.6806672000000002,4.7539656,0.0,0.0,0.0,0.0
5.880000000000001,61.7412024,9.6508824,2.4941784,3.68046,0.0,0.0,0.0,0.0
5.9,62.8174512,9.5423736,1.8434304000000001,3.6036504000000003,0.0,0.0,0.0,0.0
5.92,63.968680799999994,10.193121600000001,0.5422392,4.0638984,0.0,0.0,0.0,0.0
5.94,65.0421864,10.138867200000002,1.1387328,3.68046,0.0,0.0,0.0,0.0
5.960000000000001,66.08886960000001,9.7051368,-0.4879848,2.9135831999999997,0.0,0.0,0.0,0.0
5.98,67.0425888,9.0001344,2.0601432,3.910584,0.0,0.0,0.0,0.0
6.0,68.06671680000001,8.295436800000001,2.3314152,4.6006512,0.0,0.0,0.0,0.0
6.0200000000000005,69.0012336,8.837676,1.030224,4.677156,0.0,0.0,0.0,0.0
6.040000000000001,70.0207896,9.217152,1.0844784,3.9870888,0.0,0.0,0.0,0.0
6.0600000000000005,70.9577448,8.729167200000001,0.7046976,3.1437072,0.0,0.0,0.0,0.0
6.08,72.021192,9.5423736,1.3011912,3.0672024,0.0,0.0,0.0,0.0
6.1000000000000005,73.130664,8.729167200000001,1.2469368,3.8337744,0.0,0.0,0.0,0.0
6.12,74.1291888,9.1628976,1.6806672000000002,3.8337744,0.0,0.0,0.0,0.0
6.140000000000001,75.00366,8.4039456,1.3554456000000001,3.7572696000000003,0.0,0.0,0.0,0.0
6.16,75.8790456,8.8919304,1.5182088,2.9903928,0.0,0.0,0.0,0.0
6.180000000000001,76.8544056,9.108643200000001,-0.1085088,2.5304496,0.0,0.0,0.0,0.0
6.2,77.848968,8.3496912,-0.5422392,3.450336,0.0,0.0,0.0,0.0
6.220000000000001,78.7703784,7.970215200000001,0.5964936000000001,3.6036504000000003,0.0,0.0,0.0,0.0
6.24,79.73568000000002,8.5121496,0.2709672,2.683764,0.0,0.0,0.0,0.0
6.260000000000001,80.63331600000001,8.729167200000001,0.2709672,2.8370784000000002,0.0,0.0,0.0,0.0
6.28,81.5940456,7.753197600000001,0.0542544,3.2205168000000004,0.0,0.0,0.0,0.0
6.300000000000001,82.52917200000002,7.427976000000001,1.1387328,3.2205168000000004,0.0,0.0,0.0,0.0
6.32,83.4652128,7.427976000000001,0.7046976,3.2205168000000004,0.0,0.0,0.0,0.0
6.340000000000001,84.45550800000001,7.4822304,0.5422392,3.1437072,0.0,0.0,0.0,0.0
6.36,85.379052,7.4822304,-0.4337304,2.8370784000000002,0.0,0.0,0.0,0.0
6.380000000000001,86.20384080000001,7.3194672,0.8132064000000001,2.683764,0.0,0.0,0.0,0.0
6.4,87.00394080000001,7.6446888,0.0542544,3.2970216000000003,0.0,0.0,0.0,0.0
6.42,87.95948880000002,7.5904344,1.0844784,2.223516,0.0,0.0,0.0,0.0
6.44,88.83548400000002,6.9942456,0.37947600000000004,2.0702016,0.0,0.0,0.0,0.0
6.460000000000001,89.646252,6.9399912,-0.4337304,2.1470112,0.0,0.0,0.0,0.0
6.48,90.46738320000001,6.777228,0.5964936000000001,2.683764,0.0,0.0,0.0,0.0
6.5,91.3503888,7.427976000000001,0.5964936000000001,2.8370784000000002,0.0,0.0,0.0,0.0
6.5200000000000005,92.26814160000002,6.5605152,1.1387328,2.3768304000000002,0.0,0.0,0.0,0.0
6.540000000000001,93.07677600000001,6.885736800000001,0.7046976,2.1470112,0.0,0.0,0.0,0.0
6.5600000000000005,94.0131216,6.018276,0.7046976,2.7602688,0.0,0.0,0.0,0.0
6.58,94.85741760000002,6.777228,-0.7046976,2.6069544000000002,0.0,0.0,0.0,0.0
6.6000000000000005,95.65538400000001,6.5605152,-0.5964936000000001,2.1470112,0.0,0.0,0.0,0.0
6.620000000000001,96.33112560000001,6.9399912,0.5422392,1.9168872,0.0,0.0,0.0,0.0
6.640000000000001,97.1205576,6.7229735999999995,0.4337304,1.7635728,0.0,0.0,0.0,0.0
6.66,98.00630640000001,6.1807343999999995,1.3011912,2.4536400000000005,0.0,0.0,0.0,0.0
6.680000000000001,98.90485680000002,5.7470040000000004,1.5182088,2.4536400000000005,0.0,0.0,0.0,0.0
6.700000000000001,99.82596240000001,6.0725304,-0.4337304,1.6867632000000001,0.0,0.0,0.0,0.0
6.720000000000001,100.68763200000001,6.2349888,-0.0542544,1.4569440000000002,0.0,0.0,0.0,0.0
6.74,101.46731040000002,5.7470040000000004,0.3252216,2.3768304000000002,0.0,0.0,0.0,0.0
6.76,102.21742320000001,6.0725304,0.3252216,1.9168872,0.0,0.0,0.0,0.0
6.78,102.98673840000002,5.9097672,0.16276320000000002,2.1470112,0.0,0.0,0.0,0.0
6.800000000000001,103.9020528,5.801258400000001,-0.2709672,2.3003256,0.0,0.0,0.0,0.0
6.82,104.79999360000001,5.6930544,-0.37947600000000004,1.9936968000000002,0.0,0.0,0.0,0.0
6.84,105.54340080000001,5.3132736,-0.2170176,2.223516,0.0,0.0,0.0,0.0
6.86,106.26943440000001,5.8555128,-0.3252216,1.3801344,0.0,0.0,0.0,0.0
6.880000000000001,106.9701696,6.1807343999999995,0.1085088,0.9201912000000001,0.0,0.0,0.0,0.0
6.9,107.67060000000001,4.8795432000000005,0.7589520000000001,2.223516,0.0,0.0,0.0,0.0
6.92,108.42772320000002,5.7470040000000004,-0.3252216,1.3036296,0.0,0.0,0.0,0.0
6.94,109.09523520000002,5.0423064,0.8132064000000001,1.4569440000000002,0.0,0.0,0.0,0.0
6.960000000000001,109.79017920000001,4.933797600000001,-0.16276320000000002,1.9168872,0.0,0.0,0.0,0.0
6.98,110.51286000000002,4.8252888,0.5964936000000001,1.5334488,0.0,0.0,0.0,0.0
7.0,111.20170800000001,4.933797600000001,-0.37947600000000004,1.3036296,0.0,0.0,0.0,0.0
7.0200000000000005,111.9295704,4.933797600000001,-0.9217152000000001,1.2268200000000002,0.0,0.0,0.0,0.0
7.040000000000001,112.6300008,5.205069600000001,-0.4337304,0.9201912000000001,0.0,0.0,0.0,0.0
7.0600000000000005,113.23868640000002,4.8252888,0.8132064000000001,1.5334488,0.0,0.0,0.0,0.0
7.08,114.00983040000001,4.988052,0.7589520000000001,1.4569440000000002,0.0,0.0,0.0,0.0
7.1000000000000005,114.74744640000002,4.7170848,1.1387328,0.9201912000000001,0.0,0.0,0.0,0.0
7.120000000000001,115.44056160000001,5.0423064,0.5964936000000001,1.1500104,0.0,0.0,0.0,0.0
7.140000000000001,116.13184800000002,4.7170848,0.2709672,1.3036296,0.0,0.0,0.0,0.0
7.16,116.88531360000002,4.8252888,-0.4879848,1.3801344,0.0,0.0,0.0,0.0
7.180000000000001,117.55922640000001,3.957828,0.0542544,1.7635728,0.0,0.0,0.0,0.0
7.200000000000001,118.15785360000002,3.8496240000000004,0.2709672,1.9168872,0.0,0.0,0.0,0.0
7.220000000000001,118.73453520000001,3.957828,0.2709672,1.3036296,0.0,0.0,0.0,0.0
7.24,119.4194208,4.6628304,0.650748,1.2268200000000002,0.0,0.0,0.0,0.0
7.26,120.08876160000001,4.608576,0.16276320000000002,0.6900672,0.0,0.0,0.0,0.0
7.28,120.6971424,4.2291,0.2170176,0.996696,0.0,0.0,0.0,0.0
7.300000000000001,121.26071760000002,4.445812800000001,0.4337304,1.2268200000000002,0.0,0.0,0.0,0.0
7.32,121.8825096,4.445812800000001,0.4337304,0.996696,0.0,0.0,0.0,0.0
7.34,122.44273200000002,4.012082400000001,-0.5422392,0.9201912000000001,0.0,0.0,0.0,0.0
7.36,123.09713760000001,3.4158936000000004,0.16276320000000002,0.8433816000000001,0.0,0.0,0.0,0.0
7.380000000000001,123.74544720000002,3.5240976,-0.0542544,0.6900672,0.0,0.0,0.0,0.0
7.4,124.44740160000002,3.7411152,0.37947600000000004,0.7668768,0.0,0.0,0.0,0.0
7.42,125.06736480000001,4.2833544,-0.0542544,0.6135624,0.0,0.0,0.0,0.0
7.44,125.7065304,4.1748456,-0.0542544,0.7668768,0.0,0.0,0.0,0.0
7.460000000000001,126.32314080000002,3.957828,-0.16276320000000002,0.8433816000000001,0.0,0.0,0.0,0.0
7.48,126.84678720000002,3.9035736000000005,0.2170176,0.7668768,0.0,0.0,0.0,0.0
7.5,127.4350512,3.6868608000000003,0.4337304,0.996696,0.0,0.0,0.0,0.0
7.5200000000000005,128.02453440000002,3.1446216000000002,0.4337304,0.9201912000000001,0.0,0.0,0.0,0.0
7.540000000000001,128.54665680000002,3.7953696000000003,0.0,0.8433816000000001,0.0,0.0,0.0,0.0
7.5600000000000005,129.0556728,3.8496240000000004,-0.37947600000000004,0.7668768,0.0,0.0,0.0,0.0
7.58,129.5744424,3.578352,-0.1085088,0.6900672,0.0,0.0,0.0,0.0
7.6000000000000005,130.1508192,3.578352,-0.1085088,0.7668768,0.0,0.0,0.0,0.0
7.620000000000001,130.80705360000002,3.5240976,-0.16276320000000002,0.6900672,0.0,0.0,0.0,0.0
7.640000000000001,131.36483760000002,3.7411152,-0.16276320000000002,0.8433816000000001,0.0,0.0,0.0,0.0
7.66,131.8741584,3.6326064,-0.16276320000000002,0.8433816000000001,0.0,0.0,0.0,0.0
7.680000000000001,132.38195520000002,3.578352,0.2170176,0.7668768,0.0,0.0,0.0,0.0
7.700000000000001,132.93699600000002,3.5240976,0.0542544,0.6900672,0.0,0.0,0.0,0.0
7.720000000000001,133.4883792,3.7411152,-0.4879848,0.5367528,0.0,0.0,0.0,0.0
7.74,134.0428104,3.4158936000000004,-0.0542544,0.6900672,0.0,0.0,0.0,0.0
7.76,134.558532,3.7411152,-0.2709672,0.3834384,0.0,0.0,0.0,0.0
7.78,135.0498696,3.5240976,-0.2709672,0.5367528,0.0,0.0,0.0,0.0
7.800000000000001,135.6887304,3.4158936000000004,-0.4879848,0.5367528,0.0,0.0,0.0,0.0
7.82,136.21512,2.9279088,0.2170176,0.6135624,0.0,0.0,0.0,0.0
7.84,136.76650320000002,3.0361128,0.1085088,0.6135624,0.0,0.0,0.0,0.0
7.86,137.2197408,3.198876,0.0542544,0.6135624,0.0,0.0,0.0,0.0
7.880000000000001,137.7065064,3.2531304000000003,0.0,0.3834384,0.0,0.0,0.0,0.0
7.9,138.2033304,2.8736544000000004,-0.0542544,0.3834384,0.0,0.0,0.0,0.0
7.92,138.6617496,3.1446216000000002,-0.3252216,0.30662880000000003,0.0,0.0,0.0,0.0
7.94,139.0409208,2.8194000000000004,-0.2170176,0.6900672,0.0,0.0,0.0,0.0
7.960000000000001,139.47983280000003,2.8194000000000004,-0.1085088,0.4599432,0.0,0.0,0.0,0.0
7.98,139.9233168,2.6566368,-0.0542544,0.3834384,0.0,0.0,0.0,0.0
8.0,140.3744208,2.4941784,-0.2170176,0.30662880000000003,0.0,0.0,0.0,0.0
8.02,140.8776456,2.3856696,-0.2170176,0.3834384,0.0,0.0,0.0,0.0
8.040000000000001,141.37264080000003,2.2229064000000003,-0.16276320000000002,0.30662880000000003,0.0,0.0,0.0,0.0
8.06,141.8801328,2.8194000000000004,0.0,0.30662880000000003,0.0,0.0,0.0,0.0
8.08,142.37878560000001,3.0361128,-0.5422392,0.0768096,0.0,0.0,0.0,0.0
8.100000000000001,142.7954472,2.1686520000000002,-0.650748,0.23012400000000002,0.0,0.0,0.0,0.0
8.120000000000001,143.18315280000002,2.548128,-0.37947600000000004,0.15331440000000002,0.0,0.0,0.0,0.0
8.14,143.6345616,2.548128,-0.7046976,0.23012400000000002,0.0,0.0,0.0,0.0
8.16,144.0259248,2.2771608000000003,-0.2170176,0.3834384,0.0,0.0,0.0,0.0
8.18,144.45721680000003,2.4399240000000004,-0.4879848,0.3834384,0.0,0.0,0.0,0.0
8.200000000000001,144.93910560000003,2.0601432,-0.650748,0.30662880000000003,0.0,0.0,0.0,0.0
8.22,145.39478160000002,2.4941784,-0.3252216,0.30662880000000003,0.0,0.0,0.0,0.0
8.24,145.80595680000002,2.4941784,-0.4337304,0.3834384,0.0,0.0,0.0,0.0
8.26,146.3296032,2.4941784,-0.3252216,0.3834384,0.0,0.0,0.0,0.0
8.280000000000001,146.84410560000003,2.2229064000000003,-0.37947600000000004,0.30662880000000003,0.0,0.0,0.0,0.0
8.3,147.21047520000002,2.3856696,-0.2170176,0.30662880000000003,0.0,0.0,0.0,0.0
8.32,147.61494480000002,2.3856696,-0.2170176,0.3834384,0.0,0.0,0.0,0.0
8.34,147.99137280000002,2.2771608000000003,-0.4337304,0.4599432,0.0,0.0,0.0,0.0
8.36,148.428456,2.0601432,-0.5422392,0.30662880000000003,0.0,0.0,0.0,0.0
8.38,148.7695272,1.7349216,-0.8674608,0.4599432,0.0,0.0,0.0,0.0
8.4,149.06000160000002,1.5724632,-0.4879848,0.5367528,0.0,0.0,0.0,0.0
8.42,149.38187040000003,1.5724632,-0.4879848,0.30662880000000003,0.0,0.0,0.0,0.0
8.440000000000001,149.64796080000002,2.1143976,-0.4879848,0.23012400000000002,0.0,0.0,0.0,0.0
8.46,149.9853744,1.9519392,-0.5422392,0.30662880000000003,0.0,0.0,0.0,0.0
8.48,150.3511344,1.789176,-0.5964936000000001,0.23012400000000002,0.0,0.0,0.0,0.0
8.5,150.7275624,1.6264128000000002,-0.1085088,0.23012400000000002,0.0,0.0,0.0,0.0
8.52,151.10338080000002,2.1143976,-0.37947600000000004,0.30662880000000003,0.0,0.0,0.0,0.0
8.54,151.34965920000002,1.6806672000000002,-0.37947600000000004,0.30662880000000003,0.0,0.0,0.0,0.0
8.56,151.6876824,1.8434304000000001,-0.8674608,0.23012400000000002,0.0,0.0,0.0,0.0
8.58,152.0302776,2.0601432,-0.4337304,0.30662880000000003,0.0,0.0,0.0,0.0
8.600000000000001,152.25369600000002,1.789176,-0.37947600000000004,0.3834384,0.0,0.0,0.0,0.0
8.620000000000001,152.5496568,1.8976848000000002,-0.4879848,0.3834384,0.0,0.0,0.0,0.0
8.64,152.83921680000003,1.6264128000000002,-0.4337304,0.30662880000000003,0.0,0.0,0.0,0.0
8.66,153.24734400000003,1.789176,-0.7046976,0.23012400000000002,0.0,0.0,0.0,0.0
8.68,153.6021312,2.0061936,-0.9217152000000001,0.23012400000000002,0.0,0.0,0.0,0.0
8.7,153.89534880000002,2.1143976,-0.5964936000000001,0.30662880000000003,0.0,0.0,0.0,0.0
8.72,154.216608,2.0601432,-0.5422392,0.15331440000000002,0.0,0.0,0.0,0.0
8.74,154.4708112,1.7349216,-0.4337304,0.0,0.0,0.0,0.0,0.0
8.760000000000002,154.6485096,1.4639544,-0.5964936000000001,0.23012400000000002,0.0,0.0,0.0,0.0
8.780000000000001,154.95209040000003,1.2469368,-0.4879848,0.3834384,0.0,0.0,0.0,0.0
8.8,155.3644848,1.789176,-0.4879848,0.0,0.0,0.0,0.0,0.0
8.82,155.64490080000002,1.3011912,-0.1085088,0.15331440000000002,0.0,0.0,0.0,0.0
8.84,155.9588448,1.789176,0.16276320000000002,0.23012400000000002,0.0,0.0,0.0,0.0
8.86,156.3255192,1.8976848000000002,-0.2709672,0.30662880000000003,0.0,0.0,0.0,0.0
8.88,156.6906696,1.6806672000000002,-0.7046976,-0.0768096,0.0,0.0,0.0,0.0
8.9,156.99486000000002,1.5182088,-0.5422392,0.23012400000000002,0.0,0.0,0.0,0.0
8.920000000000002,157.2609504,1.6264128000000002,-0.9759696,0.30662880000000003,0.0,0.0,0.0,0.0
8.940000000000001,157.56636000000003,1.5724632,-0.5964936000000001,0.3834384,0.0,0.0,0.0,0.0
8.96,157.798008,0.7589520000000001,0.3252216,0.23012400000000002,0.0,0.0,0.0,0.0
8.98,158.0168544,1.4639544,-0.9217152000000001,-0.0768096,0.0,0.0,0.0,0.0
9.0,158.25368400000002,0.9759696,-0.7589520000000001,0.3834384,0.0,0.0,0.0,0.0
9.02,158.4536328,1.5724632,-1.030224,0.30662880000000003,0.0,0.0,0.0,0.0
9.04,158.75111760000001,1.4097000000000002,0.3252216,0.23012400000000002,0.0,0.0,0.0,0.0
9.06,158.9239392,1.5182088,-0.1085088,0.0,0.0,0.0,0.0,0.0
9.08,159.16046400000002,1.4639544,-0.2709672,-0.30662880000000003,0.0,0.0,0.0,0.0
9.100000000000001,159.4216776,1.3554456000000001,0.16276320000000002,-0.0768096,0.0,0.0,0.0,0.0
9.120000000000001,159.65424000000002,1.8434304000000001,-0.1085088,-0.6135624,0.0,0.0,0.0,0.0
9.14,159.7706736,1.5182088,-0.5422392,-0.30662880000000003,0.0,0.0,0.0,0.0
9.16,159.90630960000001,0.8132064000000001,-0.9217152000000001,0.15331440000000002,0.0,0.0,0.0,0.0
9.18,160.048956,1.4097000000000002,-1.0844784,-0.15331440000000002,0.0,0.0,0.0,0.0
9.2,160.17636240000002,0.9217152000000001,-0.8132064000000001,0.0768096,0.0,0.0,0.0,0.0
9.22,160.28365200000002,1.2469368,-0.8132064000000001,0.15331440000000002,0.0,0.0,0.0,0.0
9.24,160.36930080000002,0.5422392,-0.2170176,-0.15331440000000002,0.0,0.0,0.0,0.0
9.260000000000002,160.497012,0.2170176,-1.5182088,-1.0735056,0.0,0.0,0.0,0.0
9.280000000000001,160.5052416,-2.3314152,-0.9217152000000001,-2.8370784000000002,0.0,0.0,0.0,0.0
9.3,160.13338560000003,-26.0247384,-3.4698432,-16.0254696,0.0,0.0,0.0,0.0
9.32,160.1376528,-27.109216800000002,-4.445812800000001,21.699321599999998,0.0,0.0,0.0,0.0
9.34,160.1257656,221.9696856,0.0,93.16151040000001,0.0,0.0,0.0,0.0
9.36,160.097724,-45.814488000000004,176.26370640000002,-75.5260872,0.0,0.0,0.0,0.0
9.38,160.3866744,-0.0542544,-222.02394,13.6483344,0.0,0.0,0.0,0.0
9.4,160.61893200000003,-209.39119920000002,-12.686995200000002,-157.03296000000003,0.0,0.0,0.0,0.0
9.420000000000002,160.79724000000002,-167.8597608,54.218433600000004,-87.7177824,0.0,0.0,0.0,0.0
9.440000000000001,160.9429344,-93.20113440000002,-55.03164,36.3446568,0.0,0.0,0.0,0.0
9.46,161.04778560000003,-138.52763760000002,-3.5240976,-73.37907600000001,0.0,0.0,0.0,0.0
9.48,161.1404448,-19.247510400000003,-2.548128,9.047683200000002,0.0,0.0,0.0,0.0
9.5,161.2297512,-50.6397768,-6.7229735999999995,-13.264896000000002,0.0,0.0,0.0,0.0
9.52,161.3041224,2.7651456,-3.7411152,2.6069544000000002,0.0,0.0,0.0,0.0
9.54,161.3769696,4.7170848,-1.2469368,5.5205376,0.0,0.0,0.0,0.0
9.56,161.45012160000002,1.9519392,-0.3252216,3.8337744,0.0,0.0,0.0,0.0
9.58,161.4940128,19.0304928,12.958267200000002,-4.6006512,0.0,0.0,0.0,0.0
9.600000000000001,161.58697680000003,-76.6105656,145.4676288,-157.03296000000003,0.0,0.0,0.0,0.0
9.620000000000001,161.67689280000002,-111.41872560000002,19.1390016,-157.03296000000003,0.0,0.0,0.0,0.0
9.64,161.76802800000002,-2.8736544000000004,13.174980000000001,10.5046272,0.0,0.0,0.0,0.0
9.66,161.8250256,-66.037968,-156.0402264,-157.03296000000003,0.0,0.0,0.0,0.0
9.68,161.8725744,-175.39624560000001,44.29627920000001,-28.1400504,0.0,0.0,0.0,0.0
9.7,161.8972632,-15.506395200000002,-23.0971344,-2.8370784000000002,0.0,0.0,0.0,0.0
9.72,161.94907920000003,-53.0254464,8.566404,-41.1751272,0.0,0.0,0.0,0.0
9.74,161.9804736,-136.6302576,-21.470416800000002,-7.437729600000001,0.0,0.0,0.0,0.0
9.760000000000002,162.0353376,-120.039384,-35.024872800000004,4.370527200000001,0.0,0.0,0.0,0.0
9.780000000000001,162.10147920000003,17.024604,10.0846128,15.488716800000002,0.0,0.0,0.0,0.0
9.8,162.14293200000003,-3.6868608000000003,-68.85736800000001,-16.178784,0.0,0.0,0.0,0.0
9.82,162.21456000000003,67.7728896,138.7989096,-25.3797816,0.0,0.0,0.0,0.0
9.84,162.2730816,-79.2672024,-19.952208,21.239378400000003,0.0,0.0,0.0,0.0
9.86,162.3413568,-1.030224,1.4639544,-5.4440328000000004,0.0,0.0,0.0,0.0
9.88,162.37976160000002,-222.0781944,0.0,-157.03296000000003,0.0,0.0,0.0,0.0
9.9,162.41786160000004,-68.8031136,-12.416028,31.2072528,0.0,0.0,0.0,0.0
9.920000000000002,162.4398072,-44.4590424,0.7589520000000001,5.6741568000000004,0.0,0.0,0.0,0.0
9.940000000000001,162.470592,12.361773600000001,9.7593912,5.2139088000000005,0.0,0.0,0.0,0.0
9.96,162.50747280000002,17.1331128,13.662964800000001,2.3768304000000002,0.0,0.0,0.0,0.0
9.98,162.5291136,-9.379915200000001,3.957828,-49.456238400000004,0.0,0.0,0.0,0.0
10.0,162.56386080000001,5.5845456,12.8497584,2.1470112,0.0,0.0,0.0,0.0
10.02,162.59373120000004,-0.2709672,12.416028,-26.146658400000003,0.0,0.0,0.0,0.0
10.04,162.622992,13.7172192,16.102888800000002,-0.7668768,0.0,0.0,0.0,0.0
10.06,162.6446328,25.4824992,13.3377432,2.4536400000000005,0.0,0.0,0.0,0.0
10.08,162.67176000000003,20.1149712,17.6210976,-4.4473368,0.0,0.0,0.0,0.0
10.100000000000001,162.70528800000002,-3.4158936000000004,5.801258400000001,-19.0923672,0.0,0.0,0.0,0.0
10.120000000000001,162.70711680000002,10.0846128,-35.675620800000004,-9.3546168,0.0,0.0,0.0,0.0
10.14,162.72723360000003,-79.1586936,21.5789256,40.5618696,0.0,0.0,0.0,0.0
10.16,162.74338800000004,-37.573305600000005,5.801258400000001,-26.223163200000002,0.0,0.0,0.0,0.0
10.18,162.71687040000003,-37.62756,29.820108,-36.7277904,0.0,0.0,0.0,0.0
10.2,162.72022320000002,-2.4941784,-7.5904344,36.4979712,0.0,0.0,0.0,0.0
10.22,162.59098800000004,-5.801258400000001,11.5485672,-7.6675488,0.0,0.0,0.0,0.0
10.24,162.5861112,-45.27224880000001,8.729167200000001,11.04138,0.0,0.0,0.0,0.0
10.260000000000002,162.45474240000001,-5.8555128,13.012521600000001,4.370527200000001,0.0,0.0,0.0,0.0
10.280000000000001,162.38341920000002,-40.175688,15.343632000000001,-16.8688512,0.0,0.0,0.0,0.0
10.3,162.2535744,28.789884,-89.40606960000001,-38.261544,0.0,0.0,0.0,0.0
10.32,162.1788984,-17.512588800000003,-4.1748456,-7.130796,0.0,0.0,0.0,0.0
10.34,162.14110320000003,-16.5366192,-8.94588,11.8847616,0.0,0.0,0.0,0.0
10.36,162.10208880000002,-13.8799824,-5.096560800000001,-2.9135831999999997,0.0,0.0,0.0,0.0
10.38,161.99967600000002,-7.970215200000001,-4.1748456,-2.8370784000000002,0.0,0.0,0.0,0.0
10.4,161.97681600000004,-7.3737216000000005,-6.2892432000000005,2.9135831999999997,0.0,0.0,0.0,0.0
10.420000000000002,161.88964320000002,-8.241182400000001,-1.4097000000000002,-2.223516,0.0,0.0,0.0,0.0
10.440000000000001,161.7698568,-16.5366192,0.5964936000000001,-5.903976000000001,0.0,0.0,0.0,0.0
10.46,161.69304720000002,-15.343632000000001,-3.7411152,-0.9201912000000001,0.0,0.0,0.0,0.0
10.48,161.6878656,-8.729167200000001,3.957828,-2.5304496,0.0,0.0,0.0,0.0
10.5,161.67933120000004,-6.018276,0.5964936000000001,2.683764,0.0,0.0,0.0,0.0
10.52,161.67354000000003,-6.2892432000000005,-4.988052,4.2937176,0.0,0.0,0.0,0.0
10.54,161.54979120000002,-9.1628976,-4.0663368,-2.223516,0.0,0.0,0.0,0.0
10.56,161.59398720000002,-43.3203096,3.957828,0.5367528,0.0,0.0,0.0,0.0
10.58,161.7265752,-50.423064000000004,-16.1571432,-10.734751200000002,0.0,0.0,0.0,0.0
10.600000000000001,161.72047920000003,-58.935213600000004,-0.16276320000000002,1.6867632000000001,0.0,0.0,0.0,0.0
10.620000000000001,161.66683440000003,-40.284196800000004,-3.8496240000000004,-12.345009600000001,0.0,0.0,0.0,0.0
10.64,161.62599120000002,-13.662964800000001,-0.3252216,1.6102584000000002,0.0,0.0,0.0,0.0
10.66,161.50224240000003,-2.6023824,-0.3252216,0.3834384,0.0,0.0,0.0,0.0
10.68,161.34405120000002,1.6264128000000002,-2.2771608000000003,0.0,0.0,0.0,0.0,0.0
10.7,161.0682072,2.8194000000000004,-2.8194000000000004,0.0,0.0,0.0,0.0,0.0
10.72,160.7612736,3.578352,-3.1446216000000002,-0.30662880000000003,0.0,0.0,0.0,0.0
10.74,160.5872328,3.9035736000000005,-2.4941784,1.5334488,0.0,0.0,0.0,0.0
10.760000000000002,160.3452216,14.367967200000002,-7.210958400000001,8.1277968,0.0,0.0,0.0,0.0
10.780000000000001,160.3135224,22.2293688,5.5302912,-9.6612456,0.0,0.0,0.0,0.0
10.8,160.285176,5.8555128,-22.771608,-74.9893344,0.0,0.0,0.0,0.0
10.82,160.18489680000002,-11.7110256,5.205069600000001,-10.811256,0.0,0.0,0.0,0.0
10.84,160.22726400000002,-6.2349888,2.2229064000000003,1.3036296,0.0,0.0,0.0,0.0
10.86,160.1900784,-25.753771200000003,4.3915584,21.622816800000003,0.0,0.0,0.0,0.0
10.88,160.0696824,-4.1748456,8.4039456,-1.7635728,0.0,0.0,0.0,0.0
10.9,159.86546640000003,-10.0846128,9.5423736,-5.5205376,0.0,0.0,0.0,0.0
10.920000000000002,159.6335136,-12.6327408,13.608710400000001,-7.744358400000001,0.0,0.0,0.0,0.0
10.940000000000001,159.5588376,-21.0366864,-4.3376088,-12.1913904,0.0,0.0,0.0,0.0
10.96,159.535368,-22.012656,-9.5423736,-1.8400776,0.0,0.0,0.0,0.0
10.98,159.4737984,-14.476171200000001,2.4399240000000004,-9.967874400000001,0.0,0.0,0.0,0.0
11.0,159.45215760000002,-2.548128,1.5724632,-7.8208632,0.0,0.0,0.0,0.0
11.02,159.49757280000003,-10.0303584,1.6806672000000002,-10.5814368,0.0,0.0,0.0,0.0
11.04,159.46953120000003,-6.885736800000001,3.198876,0.3834384,0.0,0.0,0.0,0.0
11.06,159.37290960000004,-12.416028,-7.210958400000001,-21.0092544,0.0,0.0,0.0,0.0
11.08,159.2256912,-4.3915584,12.524536800000002,-3.450336,0.0,0.0,0.0,0.0
11.100000000000001,159.07999680000003,0.0,5.964021600000001,5.6741568000000004,0.0,0.0,0.0,0.0
11.120000000000001,158.8773048,1.3011912,2.9279088,2.9903928,0.0,0.0,0.0,0.0
11.14,158.75904240000003,-1.030224,2.4399240000000004,0.30662880000000003,0.0,0.0,0.0,0.0
11.16,158.59475520000004,-34.157412,0.1085088,15.795345600000001,0.0,0.0,0.0,0.0
11.18,158.41827600000002,-29.711599200000002,19.193256,14.491716000000002,0.0,0.0,0.0,0.0
11.2,158.3762136,-29.548835999999998,23.151084,-19.5523104,0.0,0.0,0.0,0.0
11.22,158.3658504,-12.199010400000002,26.729740800000002,-13.341705600000001,0.0,0.0,0.0,0.0
11.24,158.2923936,-20.765719200000003,8.186928,-24.6132096,0.0,0.0,0.0,0.0
11.260000000000002,158.18632320000003,-1.6264128000000002,9.108643200000001,0.0768096,0.0,0.0,0.0,0.0
11.280000000000001,158.1250584,-0.0542544,-0.5964936000000001,-5.137404,0.0,0.0,0.0,0.0
11.3,158.04642,-23.3138472,-0.8674608,-1.3036296,0.0,0.0,0.0,0.0
11.32,158.035752,-15.8858712,-2.7651456,-3.1437072,0.0,0.0,0.0,0.0
11.34,157.9068216,-13.0664712,-1.1387328,-4.677156,0.0,0.0,0.0,0.0
11.36,157.82391600000003,-11.006328,2.0061936,-2.3003256,0.0,0.0,0.0,0.0
11.38,157.70595840000001,-19.464223200000003,2.7651456,-13.6483344,0.0,0.0,0.0,0.0
11.4,157.5715416,-10.789310400000002,4.933797600000001,-1.0735056,0.0,0.0,0.0,0.0
11.420000000000002,157.43041920000002,-7.6446888,-0.0542544,-4.523841600000001,0.0,0.0,0.0,0.0
11.440000000000001,157.4837592,-5.8555128,-2.7108912000000003,-3.5271456,0.0,0.0,0.0,0.0
11.46,157.35056160000002,-8.566404,0.8674608,-7.36092,0.0,0.0,0.0,0.0
11.48,157.2475392,-16.8618408,5.801258400000001,-10.428122400000001,0.0,0.0,0.0,0.0
11.5,157.2185832,-15.9401256,6.2892432000000005,-2.1470112,0.0,0.0,0.0,0.0
11.52,157.12348560000004,-15.2896824,-1.3011912,0.5367528,0.0,0.0,0.0,0.0
11.54,156.9774864,-13.3919976,-0.16276320000000002,-3.1437072,0.0,0.0,0.0,0.0
11.56,156.787596,-13.0664712,0.0542544,0.3834384,0.0,0.0,0.0,0.0
11.58,156.67116240000001,-12.4702824,2.1686520000000002,-1.3036296,0.0,0.0,0.0,0.0
11.600000000000001,156.50108400000002,-7.915960800000001,0.2170176,1.2268200000000002,0.0,0.0,0.0,0.0
11.620000000000001,156.28833360000002,-5.421782400000001,-1.0844784,0.0768096,0.0,0.0,0.0,0.0
11.64,156.26212080000002,-7.4822304,0.1085088,2.3003256,0.0,0.0,0.0,0.0
11.66,156.2154864,-7.753197600000001,-5.476036800000001,-6.2874144,0.0,0.0,0.0,0.0
11.68,156.1136832,-13.3919976,-5.259324,-2.8370784000000002,0.0,0.0,0.0,0.0
11.7,156.01706160000003,-14.313712800000001,-6.9399912,-6.2109096,0.0,0.0,0.0,0.0
11.72,155.8923984,-10.843564800000001,-5.964021600000001,-10.888065600000001,0.0,0.0,0.0,0.0
11.74,155.86618560000002,-16.8075864,3.578352,-8.1277968,0.0,0.0,0.0,0.0
11.760000000000002,155.8009584,-11.928043200000001,1.5182088,3.2970216000000003,0.0,0.0,0.0,0.0
11.780000000000001,155.87258640000002,-8.7834216,-3.2531304000000003,-0.15331440000000002,0.0,0.0,0.0,0.0
11.8,155.79912960000001,-8.837676,-3.7411152,-5.137404,0.0,0.0,0.0,0.0
11.82,155.74670400000002,-11.4943128,-1.5182088,-4.677156,0.0,0.0,0.0,0.0
11.84,155.60832480000002,-15.777667200000002,-0.4879848,-2.7602688,0.0,0.0,0.0,0.0
11.86,155.4894528,-9.596628,-4.1748456,0.3834384,0.0,0.0,0.0,0.0
11.88,155.32516560000002,-8.295436800000001,-4.7170848,0.30662880000000003,0.0,0.0,0.0,0.0
11.9,155.31846000000002,-7.5904344,-2.2771608000000003,-0.6135624,0.0,0.0,0.0,0.0
11.920000000000002,155.2928568,-8.94588,-2.548128,-1.2268200000000002,0.0,0.0,0.0,0.0
11.940000000000001,155.2693872,-9.1628976,-4.3915584,0.30662880000000003,0.0,0.0,0.0,0.0
11.96,155.21117040000001,-9.488119200000002,-3.957828,0.5367528,0.0,0.0,0.0,0.0
11.98,155.2824936,-10.4098344,-2.8194000000000004,-0.0768096,0.0,0.0,0.0,0.0
12.0,155.2843224,-8.94588,-2.0061936,0.9201912000000001,0.0,0.0,0.0,0.0
12.02,155.37393360000002,-12.3075192,-2.6566368,0.3834384,0.0,0.0,0.0,0.0
12.04,155.3650944,-13.0664712,-4.1748456,1.3036296,0.0,0.0,0.0,0.0
12.06,155.31510720000003,-13.229234400000001,-1.8434304000000001,-3.8337744,0.0,0.0,0.0,0.0
12.08,155.0971752,-10.4640888,-2.6566368,-5.903976000000001,0.0,0.0,0.0,0.0
12.100000000000001,154.8960072,-9.6508824,-0.8674608,2.4536400000000005,0.0,0.0,0.0,0.0
12.120000000000001,154.81950240000003,-16.4281104,3.6326064,1.8400776,0.0,0.0,0.0,0.0
12.14,154.70611680000002,-12.2532648,1.9519392,-0.7668768,0.0,0.0,0.0,0.0
12.16,154.4933664,-11.928043200000001,-0.9759696,2.5304496,0.0,0.0,0.0,0.0
12.18,154.3098768,-10.138867200000002,0.16276320000000002,-1.6867632000000001,0.0,0.0,0.0,0.0
12.2,154.1827752,-6.9399912,-0.4337304,-0.6135624,0.0,0.0,0.0,0.0
12.22,154.149552,-9.4338648,-2.2771608000000003,-2.3768304000000002,0.0,0.0,0.0,0.0
12.24,154.09865040000003,-9.217152,-1.7349216,-2.683764,0.0,0.0,0.0,0.0
12.260000000000002,154.05232080000002,-14.096695200000001,-1.4097000000000002,-2.6069544000000002,0.0,0.0,0.0,0.0
12.280000000000001,153.988008,-11.982297599999999,-0.5964936000000001,-3.8337744,0.0,0.0,0.0,0.0
12.3,153.93680160000002,-11.657076,-1.1387328,-3.7572696000000003,0.0,0.0,0.0,0.0
12.32,153.9983712,-12.416028,-0.9217152000000001,-2.6069544000000002,0.0,0.0,0.0,0.0
12.34,153.86517360000002,-8.8919304,-0.2170176,-1.6102584000000002,0.0,0.0,0.0,0.0
12.36,153.84353280000002,-10.789310400000002,-0.9217152000000001,-2.0702016,0.0,0.0,0.0,0.0
12.38,153.87949920000003,-7.915960800000001,0.0,-1.3036296,0.0,0.0,0.0,0.0
12.4,153.7386816,-9.6508824,-0.3252216,-8.4344256,0.0,0.0,0.0,0.0
12.420000000000002,153.7048488,-9.488119200000002,1.4639544,-2.6069544000000002,0.0,0.0,0.0,0.0
12.440000000000001,153.5609832,-11.928043200000001,-3.578352,0.23012400000000002,0.0,0.0,0.0,0.0
12.46,153.55793520000003,-8.5121496,-5.6930544,-7.130796,0.0,0.0,0.0,0.0
12.48,153.49118400000003,-8.024164800000001,1.1926824,-6.4407288000000005,0.0,0.0,0.0,0.0
12.5,153.425652,-10.4098344,2.0601432,-4.4473368,0.0,0.0,0.0,0.0
12.52,153.463752,-8.4582,-0.650748,-3.3738312000000006,0.0,0.0,0.0,0.0
12.540000000000001,153.5173968,-11.1148368,-3.198876,-3.2205168000000004,0.0,0.0,0.0,0.0
12.56,153.514044,-11.440058400000002,-1.789176,-3.8337744,0.0,0.0,0.0,0.0
12.58,153.54056160000002,-9.9218496,-1.3554456000000001,-3.0672024,0.0,0.0,0.0,0.0
12.6,153.44211120000003,-10.355580000000002,-2.6566368,-3.0672024,0.0,0.0,0.0,0.0
12.620000000000001,153.4067544,-8.4039456,-2.2229064000000003,-3.5271456,0.0,0.0,0.0,0.0
12.64,153.43997760000002,-10.138867200000002,-0.8132064000000001,-3.7572696000000003,0.0,0.0,0.0,0.0
12.66,153.51983520000002,-9.1628976,-0.37947600000000004,-4.2172128,0.0,0.0,0.0,0.0
12.68,153.4171176,-7.807452,-0.7589520000000001,-4.4473368,0.0,0.0,0.0,0.0
12.700000000000001,153.37962720000002,-10.355580000000002,-1.2469368,-3.910584,0.0,0.0,0.0,0.0
12.72,153.21594960000002,-7.753197600000001,-3.198876,-3.2970216000000003,0.0,0.0,0.0,0.0
12.74,153.0885432,-9.596628,0.37947600000000004,-2.6069544000000002,0.0,0.0,0.0,0.0
12.76,152.96205120000002,-10.3013256,-2.1686520000000002,-4.0638984,0.0,0.0,0.0,0.0
12.780000000000001,152.8821936,-8.295436800000001,-2.9818584,-4.6006512,0.0,0.0,0.0,0.0
12.8,152.8645152,-12.361773600000001,-1.8434304000000001,-4.1404032,0.0,0.0,0.0,0.0
12.82,152.777952,-13.283488800000002,0.37947600000000004,-3.0672024,0.0,0.0,0.0,0.0
12.84,152.7828288,-11.2230408,-1.030224,-4.4473368,0.0,0.0,0.0,0.0
12.860000000000001,152.8273296,-6.9942456,-2.548128,-1.9168872,0.0,0.0,0.0,0.0
12.88,152.7590544,-9.0001344,-0.5422392,-3.3738312000000006,0.0,0.0,0.0,0.0
12.9,152.76210240000003,-7.5904344,0.650748,-3.1437072,0.0,0.0,0.0,0.0
12.92,152.66852880000002,-10.789310400000002,-0.37947600000000004,-2.6069544000000002,0.0,0.0,0.0,0.0
12.940000000000001,152.60574,-8.8919304,-2.4941784,-3.1437072,0.0,0.0,0.0,0.0
12.96,152.51521440000002,-7.753197600000001,-2.4399240000000004,-3.7572696000000003,0.0,0.0,0.0,0.0
12.98,152.387808,-7.156704,-2.9279088,-2.7602688,0.0,0.0,0.0,0.0
13.0,152.2975872,-9.108643200000001,-2.1686520000000002,-2.6069544000000002,0.0,0.0,0.0,0.0
13.02,152.1918216,-14.367967200000002,-0.4879848,-1.5334488,0.0,0.0,0.0,0.0
13.040000000000001,152.01778080000003,-13.229234400000001,-0.5422392,0.3834384,0.0,0.0,0.0,0.0
13.06,151.9360944,-13.554456,0.3252216,-1.5334488,0.0,0.0,0.0,0.0
13.08,151.8739152,-6.2349888,1.2469368,-19.629120000000004,0.0,0.0,0.0,0.0
13.1,151.81051680000002,-8.566404,0.1085088,0.0,0.0,0.0,0.0,0.0
13.120000000000001,151.67427120000002,-11.5485672,-1.8976848000000002,-2.1470112,0.0,0.0,0.0,0.0
13.14,151.6736616,-10.247376,-2.3314152,-0.6900672,0.0,0.0,0.0,0.0
13.16,151.583136,-7.8617064,-1.3554456000000001,0.0768096,0.0,0.0,0.0,0.0
13.18,151.4798088,-8.4039456,-2.1143976,-0.6900672,0.0,0.0,0.0,0.0
13.200000000000001,151.426164,-7.8617064,-1.4639544,-0.15331440000000002,0.0,0.0,0.0,0.0
13.22,151.3935504,-8.729167200000001,-2.0061936,-1.1500104,0.0,0.0,0.0,0.0
13.24,151.2975384,-7.048500000000001,-1.7349216,-0.30662880000000003,0.0,0.0,0.0,0.0
13.26,151.20030720000003,-9.6508824,-1.8434304000000001,-0.6900672,0.0,0.0,0.0,0.0
13.280000000000001,151.09393200000002,-10.735360799999999,-2.4941784,-1.9936968000000002,0.0,0.0,0.0,0.0
13.3,151.0134648,-11.0605824,-1.4097000000000002,0.15331440000000002,0.0,0.0,0.0,0.0
13.32,150.96957360000002,-10.0846128,-3.2531304000000003,-2.1470112,0.0,0.0,0.0,0.0
13.34,150.88666800000001,-8.729167200000001,-3.957828,-1.3801344,0.0,0.0,0.0,0.0
13.360000000000001,150.9092232,-10.843564800000001,-1.4097000000000002,0.3834384,0.0,0.0,0.0,0.0
13.38,150.9336072,-11.2230408,-1.8976848000000002,-0.30662880000000003,0.0,0.0,0.0,0.0
13.4,150.9784128,-7.753197600000001,-1.8976848000000002,-0.3834384,0.0,0.0,0.0,0.0
13.42,150.9467136,-6.9399912,-1.9519392,0.30662880000000003,0.0,0.0,0.0,0.0
13.440000000000001,150.95921040000002,-7.753197600000001,0.0542544,0.8433816000000001,0.0,0.0,0.0,0.0
13.46,150.863808,-13.608710400000001,1.6806672000000002,0.5367528,0.0,0.0,0.0,0.0
13.48,150.89428800000002,-11.440058400000002,0.8132064000000001,-0.6900672,0.0,0.0,0.0,0.0
13.5,150.88118160000002,-6.9942456,-1.1387328,-0.23012400000000002,0.0,0.0,0.0,0.0
13.52,150.96865920000002,-7.8617064,-3.198876,0.23012400000000002,0.0,0.0,0.0,0.0
13.540000000000001,150.97506,-7.8617064,-3.8496240000000004,-0.8433816000000001,0.0,0.0,0.0,0.0
13.56,150.81473520000003,-12.524536800000002,-3.5240976,-3.2205168000000004,0.0,0.0,0.0,0.0
13.58,150.770844,-11.3315496,-2.0061936,-3.1437072,0.0,0.0,0.0,0.0
13.6,150.71476080000002,-11.982297599999999,-2.7651456,-3.2970216000000003,0.0,0.0,0.0,0.0
13.620000000000001,150.6617256,-10.4098344,-2.9279088,-4.0638984,0.0,0.0,0.0,0.0
13.64,150.6644688,-9.379915200000001,-2.3314152,-3.450336,0.0,0.0,0.0,0.0
13.66,150.61204320000002,-9.7051368,-2.2229064000000003,-2.683764,0.0,0.0,0.0,0.0
13.68,150.55108320000002,-9.0001344,-2.2771608000000003,-2.8370784000000002,0.0,0.0,0.0,0.0
13.700000000000001,150.50292480000002,-8.5121496,-2.6566368,-2.6069544000000002,0.0,0.0,0.0,0.0
13.72,150.45415680000002,-10.355580000000002,-2.548128,-2.4536400000000005,0.0,0.0,0.0,0.0
13.74,150.47274960000001,-9.5423736,-2.4941784,-3.1437072,0.0,0.0,0.0,0.0
13.76,150.35784,-10.843564800000001,-2.4941784,-2.7602688,0.0,0.0,0.0,0.0
13.780000000000001,150.2843832,-9.9218496,-1.789176,-3.0672024,0.0,0.0,0.0,0.0
13.8,150.16520640000002,-11.1690912,-2.3856696,-3.0672024,0.0,0.0,0.0,0.0
13.82,150.14356560000002,-10.4098344,-2.8194000000000004,-2.9903928,0.0,0.0,0.0,0.0
13.84,150.0883968,-9.976104,-3.0361128,-2.7602688,0.0,0.0,0.0,0.0
13.860000000000001,150.0246936,-11.006328,-2.7651456,-3.0672024,0.0,0.0,0.0,0.0
13.88,149.94331200000002,-6.885736800000001,-2.4399240000000004,-2.9135831999999997,0.0,0.0,0.0,0.0
13.9,149.754336,-7.6989432,-3.1446216000000002,-3.5271456,0.0,0.0,0.0,0.0
13.92,149.704044,-5.205069600000001,-3.578352,-1.9936968000000002,0.0,0.0,0.0,0.0
13.940000000000001,149.54859600000003,-4.3915584,-3.7411152,-0.4599432,0.0,0.0,0.0,0.0
