time,baro_altitude,accl_x,accl_y,accl_z,gps_altitude,gyro_roll,gyro_pitch,gyro_yaw
0.0,0.0,4.2833544,-8.0784192,0.3834384,0.0,0.0,0.0,0.0
0.020000000000000462,-0.047548799999999974,4.2291,-8.024164800000001,0.30662880000000003,0.0,0.0,0.0,0.0
0.040000000000000036,0.044196000000000006,4.1748456,-8.186928,0.23012400000000002,0.0,0.0,0.0,0.0
0.0600000000000005,0.1109472,4.2291,-8.1326736,0.3834384,0.0,0.0,0.0,0.0
0.08000000000000007,-0.028651200000000026,4.2291,-8.1326736,0.23012400000000002,0.0,0.0,0.0,0.0
0.10000000000000053,-0.08808719999999998,4.1748456,-8.186928,0.3834384,0.0,0.0,0.0,0.0
0.1200000000000001,-0.013715999999999978,4.2291,-8.1326736,0.30662880000000003,0.0,0.0,0.0,0.0
0.14000000000000057,0.09235440000000002,4.1748456,-8.0784192,0.23012400000000002,0.0,0.0,0.0,0.0
0.16000000000000014,0.07863840000000001,4.120591200000001,-8.1326736,0.3834384,0.0,0.0,0.0,0.0
0.1800000000000006,0.05882640000000002,4.2833544,-8.186928,0.30662880000000003,0.0,0.0,0.0,0.0
0.20000000000000018,0.16398240000000003,4.1748456,-8.186928,0.30662880000000003,0.0,0.0,0.0,0.0
0.22000000000000064,0.07863840000000001,4.120591200000001,-8.1326736,0.30662880000000003,0.0,0.0,0.0,0.0
0.2400000000000002,0.15880080000000002,4.2833544,-8.186928,0.3834384,0.0,0.0,0.0,0.0
0.2600000000000007,0.1999488,4.1748456,-8.0784192,0.30662880000000003,0.0,0.0,0.0,0.0
0.28000000000000025,0.15758160000000002,4.2833544,-8.186928,0.30662880000000003,0.0,0.0,0.0,0.0
0.3000000000000007,0.23622,4.1748456,-8.0784192,0.30662880000000003,0.0,0.0,0.0,0.0
0.3200000000000003,0.173736,4.2291,-8.1326736,0.5367528,0.0,0.0,0.0,0.0
0.34000000000000075,0.28072080000000005,4.0663368,-8.186928,0.5367528,0.0,0.0,0.0,0.0
0.3600000000000003,0.0006096000000000006,4.1748456,-8.186928,0.5367528,0.0,0.0,0.0,0.0
0.3799999999999999,0.15179040000000002,4.1748456,-8.186928,0.5367528,0.0,0.0,0.0,0.0
0.40000000000000036,0.2203704,4.2291,-8.1326736,0.5367528,0.0,0.0,0.0,0.0
0.41999999999999993,0.20848320000000004,4.2291,-8.024164800000001,0.5367528,0.0,0.0,0.0,0.0
0.4400000000000004,0.1438656,4.2833544,-8.186928,0.4599432,0.0,0.0,0.0,0.0
0.45999999999999996,0.1770888,4.2291,-8.024164800000001,0.4599432,0.0,0.0,0.0,0.0
0.4800000000000004,0.1024128,4.2291,-8.024164800000001,0.6135624,0.0,0.0,0.0,0.0
0.5,0.09448800000000002,4.2833544,-8.0784192,0.5367528,0.0,0.0,0.0,0.0
0.5200000000000005,0.1487424,4.2291,-8.024164800000001,0.6135624,0.0,0.0,0.0,0.0
0.54,0.16032480000000002,4.2833544,-8.0784192,0.6135624,0.0,0.0,0.0,0.0
0.5600000000000005,0.22860000000000003,4.2833544,-7.970215200000001,0.5367528,0.0,0.0,0.0,0.0
0.5800000000000001,0.24384000000000003,4.3376088,-8.024164800000001,0.30662880000000003,0.0,0.0,0.0,0.0
0.6000000000000005,0.1536192,4.2291,-8.024164800000001,0.3834384,0.0,0.0,0.0,0.0
0.6200000000000001,0.18836640000000002,4.2833544,-8.0784192,0.4599432,0.0,0.0,0.0,0.0
0.6400000000000006,-0.0652272,4.3376088,-8.1326736,0.30662880000000003,0.0,0.0,0.0,0.0
0.6600000000000001,-0.2767584,4.2833544,-8.0784192,0.5367528,0.0,0.0,0.0,0.0
0.6800000000000006,-0.2005584,4.2833544,-8.0784192,0.5367528,0.0,0.0,0.0,0.0
0.7000000000000002,-0.18166080000000004,4.2291,-8.1326736,0.3834384,0.0,0.0,0.0,0.0
0.7200000000000006,-0.05090160000000001,4.2291,-8.1326736,0.3834384,0.0,0.0,0.0,0.0
0.7400000000000002,-0.17526,4.3376088,-8.1326736,0.23012400000000002,0.0,0.0,0.0,0.0
0.7600000000000007,-0.184404,4.2291,-8.1326736,0.15331440000000002,0.0,0.0,0.0,0.0
0.7800000000000002,-0.11521439999999997,4.120591200000001,-8.024164800000001,0.30662880000000003,0.0,0.0,0.0,0.0
0.8000000000000007,0.08473440000000002,4.2291,-8.1326736,0.30662880000000003,0.0,0.0,0.0,0.0
0.8200000000000003,0.3118104,4.120591200000001,-8.1326736,0.4599432,0.0,0.0,0.0,0.0
0.8400000000000007,0.45933360000000006,4.1748456,-8.186928,0.3834384,0.0,0.0,0.0,0.0
0.8600000000000003,0.5108448,4.2291,-8.241182400000001,0.30662880000000003,0.0,0.0,0.0,0.0
0.8800000000000003,0.4136136,4.1748456,-8.186928,0.23012400000000002,0.0,0.0,0.0,0.0
0.9000000000000004,0.45079920000000007,4.2833544,-8.0784192,0.23012400000000002,0.0,0.0,0.0,0.0
0.9200000000000004,0.3148584,4.120591200000001,-8.024164800000001,0.23012400000000002,0.0,0.0,0.0,0.0
0.9400000000000004,0.356616,4.0663368,-8.0784192,0.4599432,0.0,0.0,0.0,0.0
0.9600000000000004,0.3142488,4.0663368,-8.186928,0.3834384,0.0,0.0,0.0,0.0
0.9800000000000004,0.03230880000000003,4.120591200000001,-8.1326736,0.4599432,0.0,0.0,0.0,0.0
1.0000000000000004,0.1161288,4.1748456,-8.186928,0.5367528,0.0,0.0,0.0,0.0
1.0200000000000005,-0.027736799999999992,4.0663368,-8.186928,0.3834384,0.0,0.0,0.0,0.0
1.0400000000000005,-0.020116800000000018,4.1748456,-8.186928,0.4599432,0.0,0.0,0.0,0.0
1.0600000000000005,-0.11277600000000004,4.120591200000001,-8.1326736,0.30662880000000003,0.0,0.0,0.0,0.0
1.0800000000000005,0.033832799999999996,4.120591200000001,-8.024164800000001,0.4599432,0.0,0.0,0.0,0.0
1.1000000000000005,-0.11399520000000003,4.0663368,-8.186928,0.5367528,0.0,0.0,0.0,0.0
1.12,-0.028041600000000028,4.120591200000001,-8.241182400000001,0.6900672,0.0,0.0,0.0,0.0
1.1400000000000001,0.005791199999999971,4.120591200000001,-8.241182400000001,0.5367528,0.0,0.0,0.0,0.0
1.1600000000000001,-0.01493519999999998,4.1748456,-8.0784192,0.5367528,0.0,0.0,0.0,0.0
1.1800000000000002,-0.010667999999999976,4.120591200000001,-8.1326736,0.3834384,0.0,0.0,0.0,0.0
1.2000000000000002,0.008534400000000008,4.0663368,-8.0784192,0.30662880000000003,0.0,0.0,0.0,0.0
1.2200000000000002,0.007619999999999973,4.1748456,-8.0784192,0.5367528,0.0,0.0,0.0,0.0
1.2400000000000002,0.179832,4.1748456,-8.186928,0.6135624,0.0,0.0,0.0,0.0
1.2600000000000002,0.056083199999999986,4.120591200000001,-8.1326736,0.6135624,0.0,0.0,0.0,0.0
1.2800000000000002,0.13289280000000003,4.2291,-8.1326736,0.6135624,0.0,0.0,0.0,0.0
1.3000000000000003,0.16032480000000002,4.2833544,-8.0784192,0.5367528,0.0,0.0,0.0,0.0
1.3200000000000003,0.12283440000000001,4.3376088,-8.024164800000001,0.30662880000000003,0.0,0.0,0.0,0.0
1.3400000000000003,0.2526792,4.2833544,-8.0784192,0.30662880000000003,0.0,0.0,0.0,0.0
1.3600000000000003,0.34899600000000003,4.2291,-8.024164800000001,0.30662880000000003,0.0,0.0,0.0,0.0
1.3800000000000003,0.260604,4.2833544,-8.0784192,0.5367528,0.0,0.0,0.0,0.0
1.4000000000000004,0.23896320000000001,4.2291,-8.1326736,0.6135624,0.0,0.0,0.0,0.0
1.4200000000000004,0.356616,4.2833544,-7.970215200000001,0.5367528,0.0,0.0,0.0,0.0
1.4400000000000004,0.2557272,4.2833544,-8.186928,0.30662880000000003,0.0,0.0,0.0,0.0
1.4600000000000004,0.27584400000000003,4.3376088,-8.024164800000001,0.15331440000000002,0.0,0.0,0.0,0.0
1.4800000000000004,0.301752,4.3376088,-8.1326736,0.23012400000000002,0.0,0.0,0.0,0.0
1.5000000000000004,0.20604480000000003,4.2833544,-8.186928,0.23012400000000002,0.0,0.0,0.0,0.0
1.5200000000000005,0.19354800000000003,4.1748456,-8.0784192,0.3834384,0.0,0.0,0.0,0.0
1.5400000000000005,0.0658368,4.1748456,-8.0784192,0.3834384,0.0,0.0,0.0,0.0
1.5600000000000005,0.17465039999999998,4.120591200000001,-8.1326736,0.5367528,0.0,0.0,0.0,0.0
1.5800000000000005,0.054559200000000016,4.1748456,-8.0784192,0.4599432,0.0,0.0,0.0,0.0
1.6000000000000005,0.2228088,4.1748456,-8.186928,0.30662880000000003,0.0,0.0,0.0,0.0
1.62,0.303276,4.012082400000001,-8.1326736,0.3834384,0.0,0.0,0.0,0.0
1.6400000000000001,0.3157728,4.2291,-8.241182400000001,0.4599432,0.0,0.0,0.0,0.0
1.6600000000000001,0.1496568,4.120591200000001,-8.024164800000001,0.6135624,0.0,0.0,0.0,0.0
1.6800000000000002,0.2511552,4.0663368,-8.0784192,0.4599432,0.0,0.0,0.0,0.0
1.7000000000000002,0.16672560000000003,4.120591200000001,-8.241182400000001,0.4599432,0.0,0.0,0.0,0.0
1.7200000000000002,0.2182368,4.0663368,-8.186928,0.5367528,0.0,0.0,0.0,0.0
1.7400000000000002,0.24140160000000002,4.1748456,-8.186928,0.4599432,0.0,0.0,0.0,0.0
1.7600000000000002,0.28072080000000005,4.0663368,-8.186928,0.5367528,0.0,0.0,0.0,0.0
1.7800000000000002,0.34838640000000004,4.2833544,-8.295436800000001,0.3834384,0.0,0.0,0.0,0.0
1.8000000000000003,0.2264664,4.2291,-8.1326736,0.30662880000000003,0.0,0.0,0.0,0.0
1.8200000000000003,0.057911999999999984,4.120591200000001,-8.1326736,0.23012400000000002,0.0,0.0,0.0,0.0
1.8400000000000003,0.1344168,4.0663368,-8.186928,0.3834384,0.0,0.0,0.0,0.0
1.8600000000000003,0.05425439999999998,4.120591200000001,-8.1326736,0.3834384,0.0,0.0,0.0,0.0
1.8800000000000003,0.1975104,4.120591200000001,-8.241182400000001,0.4599432,0.0,0.0,0.0,0.0
1.9000000000000004,0.286512,4.1748456,-8.186928,0.4599432,0.0,0.0,0.0,0.0
1.9200000000000004,0.288036,4.1748456,-8.186928,0.30662880000000003,0.0,0.0,0.0,0.0
1.9400000000000004,0.3136392,4.1748456,-8.186928,0.23012400000000002,0.0,0.0,0.0,0.0
1.9600000000000004,0.41544240000000004,4.1748456,-8.186928,0.0768096,0.0,0.0,0.0,0.0
1.9800000000000004,0.4367784,4.0663368,-8.0784192,0.30662880000000003,0.0,0.0,0.0,0.0
2.0000000000000004,0.43982640000000006,4.2291,-8.024164800000001,0.5367528,0.0,0.0,0.0,0.0
2.0200000000000005,0.46055280000000004,4.2291,-8.1326736,0.6135624,0.0,0.0,0.0,0.0
2.0400000000000005,0.33162240000000004,4.2833544,-8.0784192,0.6135624,0.0,0.0,0.0,0.0
2.0600000000000005,0.36484560000000005,4.2291,-8.024164800000001,0.4599432,0.0,0.0,0.0,0.0
2.0800000000000005,0.3243072,4.120591200000001,-8.024164800000001,0.30662880000000003,0.0,0.0,0.0,0.0
2.1000000000000005,0.431292,4.1748456,-8.0784192,0.4599432,0.0,0.0,0.0,0.0
2.12,0.6196584,4.012082400000001,-8.1326736,0.6135624,0.0,0.0,0.0,0.0
2.14,0.49133760000000004,4.2291,-8.241182400000001,0.5367528,0.0,0.0,0.0,0.0
2.16,0.33040320000000006,4.0663368,-8.186928,0.6135624,0.0,0.0,0.0,0.0
2.18,0.35478719999999997,4.2833544,-8.186928,0.6900672,0.0,0.0,0.0,0.0
2.2,0.39258240000000005,4.1748456,-8.186928,0.5367528,0.0,0.0,0.0,0.0
2.22,0.5263896,4.1748456,-8.0784192,0.4599432,0.0,0.0,0.0,0.0
2.24,0.3529584,4.2833544,-8.186928,0.30662880000000003,0.0,0.0,0.0,0.0
2.2600000000000002,0.16459200000000002,4.2291,-8.1326736,0.3834384,0.0,0.0,0.0,0.0
2.2800000000000002,0.1018032,4.120591200000001,-8.024164800000001,0.5367528,0.0,0.0,0.0,0.0
2.3000000000000003,-0.062484000000000026,4.2291,-8.1326736,0.6135624,0.0,0.0,0.0,0.0
2.3200000000000003,-0.011887199999999978,4.1748456,-8.0784192,0.6900672,0.0,0.0,0.0,0.0
2.3400000000000003,-0.007924800000000008,4.2291,-8.024164800000001,0.5367528,0.0,0.0,0.0,0.0
2.3600000000000003,0.08900160000000001,4.2291,-8.1326736,0.5367528,0.0,0.0,0.0,0.0
2.3800000000000003,0.2215896,4.2291,-8.024164800000001,0.30662880000000003,0.0,0.0,0.0,0.0
2.4000000000000004,0.149352,4.2291,-8.024164800000001,0.3834384,0.0,0.0,0.0,0.0
2.4200000000000004,0.2478024,4.120591200000001,-8.1326736,0.30662880000000003,0.0,0.0,0.0,0.0
2.4400000000000004,0.073152,4.2291,-8.241182400000001,0.23012400000000002,0.0,0.0,0.0,0.0
2.4600000000000004,-0.09723119999999999,4.1748456,-8.0784192,0.4599432,0.0,0.0,0.0,0.0
2.4800000000000004,-0.06918960000000003,4.120591200000001,-8.1326736,0.3834384,0.0,0.0,0.0,0.0
2.5000000000000004,-0.03230880000000003,4.2291,-8.1326736,0.30662880000000003,0.0,0.0,0.0,0.0
2.5200000000000005,-0.028346399999999994,4.2833544,-8.0784192,0.23012400000000002,0.0,0.0,0.0,0.0
2.5400000000000005,-0.0036576000000000035,4.2291,-8.024164800000001,0.30662880000000003,0.0,0.0,0.0,0.0
2.5600000000000005,0.08351520000000001,4.2833544,-8.0784192,0.23012400000000002,0.0,0.0,0.0,0.0
2.5800000000000005,0.1383792,4.2291,-8.1326736,0.0768096,0.0,0.0,0.0,0.0
2.6000000000000005,0.14478,4.1748456,-8.0784192,0.30662880000000003,0.0,0.0,0.0,0.0
2.62,0.024384000000000024,4.1748456,-8.0784192,0.3834384,0.0,0.0,0.0,0.0
2.64,0.1972056,4.120591200000001,-8.1326736,0.6135624,0.0,0.0,0.0,0.0
2.66,0.2615184,4.1748456,-8.186928,0.5367528,0.0,0.0,0.0,0.0
2.68,0.3051048,4.2291,-8.024164800000001,0.3834384,0.0,0.0,0.0,0.0
2.7,0.38526720000000003,4.120591200000001,-8.1326736,0.30662880000000003,0.0,0.0,0.0,0.0
2.72,0.3026664,4.1748456,-8.0784192,0.30662880000000003,0.0,0.0,0.0,0.0
2.74,0.25542240000000005,4.2291,-8.1326736,0.4599432,0.0,0.0,0.0,0.0
2.7600000000000002,0.187452,4.1748456,-8.0784192,0.6135624,0.0,0.0,0.0,0.0
2.7800000000000002,0.15575280000000002,4.2833544,-8.186928,0.6135624,0.0,0.0,0.0,0.0
2.8000000000000003,0.347472,4.0663368,-8.186928,0.5367528,0.0,0.0,0.0,0.0
2.8200000000000003,0.4337304,4.2291,-8.241182400000001,0.4599432,0.0,0.0,0.0,0.0
2.8400000000000003,0.49377600000000005,4.1748456,-8.0784192,0.3834384,0.0,0.0,0.0,0.0
2.8600000000000003,0.6665976000000001,4.1748456,-7.970215200000001,0.4599432,0.0,0.0,0.0,0.0
2.8800000000000003,0.46177200000000007,4.1748456,-8.186928,0.5367528,0.0,0.0,0.0,0.0
2.9000000000000004,0.5163312,4.1748456,-8.0784192,0.5367528,0.0,0.0,0.0,0.0
2.9200000000000004,0.54102,4.120591200000001,-8.241182400000001,0.6900672,0.0,0.0,0.0,0.0
2.9400000000000004,0.5900928,4.120591200000001,-8.1326736,0.3834384,0.0,0.0,0.0,0.0
2.9600000000000004,0.4123944,4.120591200000001,-8.1326736,0.5367528,0.0,0.0,0.0,0.0
2.9800000000000004,0.3029712,4.1748456,-8.186928,0.4599432,0.0,0.0,0.0,0.0
3.0,0.37124640000000003,4.1748456,-8.186928,0.30662880000000003,0.0,0.0,0.0,0.0
3.0200000000000005,0.1490472,4.012082400000001,-8.1326736,0.30662880000000003,0.0,0.0,0.0,0.0
3.04,0.05120639999999998,4.1748456,-8.186928,0.30662880000000003,0.0,0.0,0.0,0.0
3.0600000000000005,0.0003047999999999664,4.0663368,-8.186928,0.3834384,0.0,0.0,0.0,0.0
3.08,-0.029565599999999994,4.2291,-8.241182400000001,0.5367528,0.0,0.0,0.0,0.0
3.1000000000000005,0.0749808,4.1748456,-8.0784192,0.4599432,0.0,0.0,0.0,0.0
3.12,0.16398240000000003,4.120591200000001,-8.1326736,0.23012400000000002,0.0,0.0,0.0,0.0
3.1400000000000006,0.2599944,4.2291,-8.241182400000001,0.15331440000000002,0.0,0.0,0.0,0.0
3.16,0.2642616,4.2291,-8.1326736,0.15331440000000002,0.0,0.0,0.0,0.0
3.1800000000000006,0.37703760000000003,4.120591200000001,-8.024164800000001,0.23012400000000002,0.0,0.0,0.0,0.0
3.2,0.5007864000000001,4.2291,-8.1326736,0.30662880000000003,0.0,0.0,0.0,0.0
3.2200000000000006,0.44988480000000003,4.1748456,-8.186928,0.4599432,0.0,0.0,0.0,0.0
3.24,0.30114240000000003,4.120591200000001,-8.1326736,0.30662880000000003,0.0,0.0,0.0,0.0
3.2600000000000002,0.27310080000000003,4.2291,-8.1326736,0.30662880000000003,0.0,0.0,0.0,0.0
3.2800000000000002,0.422148,4.120591200000001,-8.024164800000001,0.30662880000000003,0.0,0.0,0.0,0.0
3.3000000000000003,0.5352288000000001,4.2291,-8.1326736,0.23012400000000002,0.0,0.0,0.0,0.0
3.3200000000000003,0.451104,4.2833544,-8.0784192,0.30662880000000003,0.0,0.0,0.0,0.0
3.3400000000000003,0.5516880000000001,4.2291,-8.024164800000001,0.3834384,0.0,0.0,0.0,0.0
3.3600000000000003,0.49712880000000004,4.2291,-8.241182400000001,0.6900672,0.0,0.0,0.0,0.0
3.3800000000000003,0.5084064,4.0663368,-8.0784192,0.5367528,0.0,0.0,0.0,0.0
3.4000000000000004,0.4928616,4.2291,-8.241182400000001,0.5367528,0.0,0.0,0.0,0.0
3.4200000000000004,0.5132832,4.2291,-8.1326736,0.4599432,0.0,0.0,0.0,0.0
3.4400000000000004,0.43982640000000006,4.3376088,-8.1326736,0.4599432,0.0,0.0,0.0,0.0
3.4600000000000004,0.47487840000000003,4.2291,-8.024164800000001,0.30662880000000003,0.0,0.0,0.0,0.0
3.4800000000000004,0.5492496,4.1748456,-8.0784192,0.3834384,0.0,0.0,0.0,0.0
3.5,0.5861304,4.1748456,-8.0784192,0.6135624,0.0,0.0,0.0,0.0
3.5200000000000005,0.4757928,4.120591200000001,-8.024164800000001,0.6900672,0.0,0.0,0.0,0.0
3.54,0.374904,4.2291,-8.1326736,0.7668768,0.0,0.0,0.0,0.0
3.5600000000000005,0.40904160000000006,4.1748456,-8.0784192,0.5367528,0.0,0.0,0.0,0.0
3.58,0.3700272,4.2291,-8.1326736,0.30662880000000003,0.0,0.0,0.0,0.0
3.6000000000000005,0.3590544,4.1748456,-8.0784192,0.3834384,0.0,0.0,0.0,0.0
3.62,0.5736336000000001,4.2291,-8.1326736,0.30662880000000003,0.0,0.0,0.0,0.0
3.6400000000000006,0.5571744,4.2291,-8.1326736,0.4599432,0.0,0.0,0.0,0.0
3.66,0.4306824,4.1748456,-8.186928,0.5367528,0.0,0.0,0.0,0.0
3.6800000000000006,0.515112,4.120591200000001,-8.1326736,0.6135624,0.0,0.0,0.0,0.0
3.7,0.5977127999999999,4.1748456,-8.186928,0.4599432,0.0,0.0,0.0,0.0
3.7200000000000006,0.5873496,4.2291,-8.1326736,0.30662880000000003,0.0,0.0,0.0,0.0
3.74,0.5766816,4.120591200000001,-8.1326736,0.23012400000000002,0.0,0.0,0.0,0.0
3.7600000000000002,0.605028,4.0663368,-8.0784192,0.23012400000000002,0.0,0.0,0.0,0.0
3.7800000000000002,0.5218176,4.0663368,-8.186928,0.3834384,0.0,0.0,0.0,0.0
3.8000000000000003,0.6053328,4.120591200000001,-8.241182400000001,0.23012400000000002,0.0,0.0,0.0,0.0
3.8200000000000003,0.5394960000000001,4.120591200000001,-8.1326736,0.3834384,0.0,0.0,0.0,0.0
3.8400000000000003,0.37764720000000007,4.120591200000001,-8.241182400000001,0.3834384,0.0,0.0,0.0,0.0
3.8600000000000003,0.40721280000000004,4.120591200000001,-8.1326736,0.3834384,0.0,0.0,0.0,0.0
3.8800000000000003,0.5053584,4.1748456,-8.0784192,0.30662880000000003,0.0,0.0,0.0,0.0
3.9000000000000004,0.4395216,4.1748456,-8.186928,0.3834384,0.0,0.0,0.0,0.0
3.9200000000000004,0.3328416,4.1748456,-8.186928,0.3834384,0.0,0.0,0.0,0.0
3.9400000000000004,0.13716,4.1748456,-8.0784192,0.30662880000000003,0.0,0.0,0.0,0.0
3.9600000000000004,-0.16001999999999997,4.1748456,-8.186928,0.4599432,0.0,0.0,0.0,0.0
3.9800000000000004,-0.13136880000000004,4.1748456,-8.186928,0.5367528,0.0,0.0,0.0,0.0
4.0,-0.29900879999999996,4.2291,-8.1326736,0.3834384,0.0,0.0,0.0,0.0
4.0200000000000005,-0.21366480000000004,4.2291,-8.024164800000001,0.3834384,0.0,0.0,0.0,0.0
4.04,-0.30998159999999997,4.2291,-8.024164800000001,0.4599432,0.0,0.0,0.0,0.0
4.0600000000000005,-0.26639520000000005,4.3376088,-8.1326736,0.5367528,0.0,0.0,0.0,0.0
4.08,-0.09326880000000003,4.2291,-8.1326736,0.5367528,0.0,0.0,0.0,0.0
4.1000000000000005,-0.039319200000000006,4.2291,-8.024164800000001,0.5367528,0.0,0.0,0.0,0.0
4.12,0.09357360000000002,4.3376088,-8.024164800000001,0.5367528,0.0,0.0,0.0,0.0
4.140000000000001,0.16672560000000003,4.3376088,-8.1326736,0.5367528,0.0,0.0,0.0,0.0
4.16,0.3163824,4.2291,-8.024164800000001,0.4599432,0.0,0.0,0.0,0.0
4.180000000000001,0.33893760000000006,4.3376088,-8.024164800000001,0.3834384,0.0,0.0,0.0,0.0
4.2,0.3523488,4.2291,-8.024164800000001,0.4599432,0.0,0.0,0.0,0.0
4.220000000000001,0.2081784,4.120591200000001,-8.1326736,0.3834384,0.0,0.0,0.0,0.0
4.24,0.29718,4.120591200000001,-8.1326736,0.6135624,0.0,0.0,0.0,0.0
4.260000000000001,0.1795272,4.2291,-8.024164800000001,0.5367528,0.0,0.0,0.0,0.0
4.28,0.1825752,4.2291,-8.1326736,0.6135624,0.0,0.0,0.0,0.0
4.300000000000001,0.20330160000000003,4.3376088,-8.024164800000001,0.4599432,0.0,0.0,0.0,0.0
4.32,0.1414272,4.2833544,-8.0784192,0.30662880000000003,0.0,0.0,0.0,0.0
4.34,0.16672560000000003,4.2291,-8.1326736,0.3834384,0.0,0.0,0.0,0.0
4.36,0.1469136,4.3376088,-8.1326736,0.4599432,0.0,0.0,0.0,0.0
4.380000000000001,0.10149839999999999,4.1748456,-8.0784192,0.5367528,0.0,0.0,0.0,0.0
4.4,0.1606296,4.2291,-8.024164800000001,0.3834384,0.0,0.0,0.0,0.0
4.42,0.2816352,4.2833544,-8.186928,0.23012400000000002,0.0,0.0,0.0,0.0
4.44,0.13075920000000002,4.1748456,-8.0784192,0.15331440000000002,0.0,0.0,0.0,0.0
4.46,0.2761488,4.120591200000001,-8.024164800000001,0.30662880000000003,0.0,0.0,0.0,0.0
4.48,0.4684776,4.1748456,-8.186928,0.3834384,0.0,0.0,0.0,0.0
4.5,0.2767584,4.1748456,-8.186928,0.5367528,0.0,0.0,0.0,0.0
4.5200000000000005,0.3395472,4.120591200000001,-8.1326736,0.30662880000000003,0.0,0.0,0.0,0.0
4.54,0.19812000000000002,4.1748456,-8.295436800000001,0.3834384,0.0,0.0,0.0,0.0
4.5600000000000005,0.1972056,4.1748456,-8.186928,0.3834384,0.0,0.0,0.0,0.0
4.58,0.017373599999999982,4.1748456,-8.186928,0.30662880000000003,0.0,0.0,0.0,0.0
4.6000000000000005,0.07284720000000003,4.1748456,-8.0784192,0.5367528,0.0,0.0,0.0,0.0
4.62,0.23835360000000003,4.1748456,-8.186928,0.3834384,0.0,0.0,0.0,0.0
4.640000000000001,0.26182320000000003,4.120591200000001,-8.1326736,0.6135624,0.0,0.0,0.0,0.0
4.66,0.214884,4.120591200000001,-8.024164800000001,0.4599432,0.0,0.0,0.0,0.0
4.680000000000001,0.1834896,4.2833544,-8.186928,0.3834384,0.0,0.0,0.0,0.0
4.7,0.224028,4.2833544,-8.0784192,0.30662880000000003,0.0,0.0,0.0,0.0
4.720000000000001,0.3800856000000001,4.1748456,-8.0784192,0.4599432,0.0,0.0,0.0,0.0
4.74,0.321564,4.1748456,-8.0784192,0.4599432,0.0,0.0,0.0,0.0
4.760000000000001,0.4136136,4.2833544,-8.0784192,0.4599432,0.0,0.0,0.0,0.0
4.78,0.6074664,4.3376088,-8.024164800000001,0.30662880000000003,0.0,0.0,0.0,0.0
4.800000000000001,0.6864096,4.2833544,-8.0784192,0.4599432,0.0,0.0,0.0,0.0
4.82,0.6992112,4.2833544,-7.970215200000001,0.5367528,0.0,0.0,0.0,0.0
4.840000000000001,0.45780960000000004,4.3915584,-8.0784192,0.3834384,0.0,0.0,0.0,0.0
4.86,0.33406080000000005,4.3376088,-8.024164800000001,0.4599432,0.0,0.0,0.0,0.0
4.88,0.2691384,4.2291,-8.1326736,0.3834384,0.0,0.0,0.0,0.0
4.9,0.21336,4.3376088,-8.1326736,0.30662880000000003,0.0,0.0,0.0,0.0
4.92,0.12740640000000003,4.3376088,-8.1326736,0.3834384,0.0,0.0,0.0,0.0
4.94,0.19110960000000002,4.608576,-8.729167200000001,0.7668768,0.0,0.0,0.0,0.0
4.96,1.190244,22.4463864,-49.2300768,-6.8241672,0.0,0.0,0.0,0.0
4.98,1.4005560000000004,28.735629600000003,-57.1460376,4.6006512,0.0,0.0,0.0,0.0
5.0,1.6349472,36.7058448,-73.4656392,3.8337744,0.0,0.0,0.0,0.0
5.0200000000000005,5.8814208,32.8019664,-72.5981784,1.9168872,0.0,0.0,0.0,0.0
5.04,9.5274384,39.145464000000004,-77.64048480000001,2.1470112,0.0,0.0,0.0,0.0
5.0600000000000005,12.271552800000002,42.995088,-77.1525,0.0768096,0.0,0.0,0.0,0.0
5.08,14.7236688,35.2961448,-73.89967440000001,5.827471200000001,0.0,0.0,0.0,0.0
5.1000000000000005,16.734129600000003,39.416736,-82.24906080000001,6.364224,0.0,0.0,0.0,0.0
5.12,18.6473592,39.57949920000001,-81.00212400000001,6.2874144,0.0,0.0,0.0,0.0
5.140000000000001,20.283220800000002,37.410542400000004,-82.7370456,2.9903928,0.0,0.0,0.0,0.0
5.16,21.6813384,38.983005600000006,-84.851748,2.5304496,0.0,0.0,0.0,0.0
5.180000000000001,23.041356,39.9047208,-85.7734632,4.1404032,0.0,0.0,0.0,0.0
5.2,24.463248000000004,40.3927056,-86.1529392,5.5205376,0.0,0.0,0.0,0.0
5.220000000000001,25.9860288,40.7721816,-85.1227152,5.827471200000001,0.0,0.0,0.0,0.0
5.24,27.5459952,39.9589752,-84.20100000000001,5.2139088000000005,0.0,0.0,0.0,0.0
5.260000000000001,29.155644000000002,39.525244799999996,-84.4180176,4.2937176,0.0,0.0,0.0,0.0
5.28,30.914949600000003,39.0915144,-84.09249120000001,3.910584,0.0,0.0,0.0,0.0
5.300000000000001,32.3389752,38.4407664,-83.11652160000001,4.677156,0.0,0.0,0.0,0.0
5.32,33.7392264,39.57949920000001,-83.9300328,5.903976000000001,0.0,0.0,0.0,0.0
5.34,35.41349280000001,38.820242400000005,-83.170776,5.750661600000001,0.0,0.0,0.0,0.0
5.36,37.0950744,38.332257600000005,-83.22503040000001,4.8304704,0.0,0.0,0.0,0.0
5.380000000000001,38.8251192,38.1155448,-83.9842872,4.1404032,0.0,0.0,0.0,0.0
5.4,40.5204168,37.4647968,-82.5745872,3.7572696000000003,0.0,0.0,0.0,0.0
5.42,42.4488864,37.1938296,-81.652872,4.677156,0.0,0.0,0.0,0.0
5.44,44.086272,37.1938296,-82.1948064,4.8304704,0.0,0.0,0.0,0.0
5.46,45.901965600000004,33.39846,-74.4958632,3.450336,0.0,0.0,0.0,0.0
5.48,47.8654872,37.1395752,-82.1408568,4.1404032,0.0,0.0,0.0,0.0
5.5,49.9707408,33.9949536,-75.9598176,3.68046,0.0,0.0,0.0,0.0
5.5200000000000005,52.293012000000004,35.512857600000004,-77.6947392,3.1437072,0.0,0.0,0.0,0.0
5.54,54.952696800000005,35.675620800000004,-77.20675440000001,3.3738312000000006,0.0,0.0,0.0,0.0
5.5600000000000005,57.82147440000001,36.5430816,-76.99004160000001,4.8304704,0.0,0.0,0.0,0.0
5.58,60.57808560000001,35.4046536,-77.1525,5.903976000000001,0.0,0.0,0.0,0.0
5.6000000000000005,63.39078,34.6996512,-75.6888504,4.7539656,0.0,0.0,0.0,0.0
5.62,66.27936960000001,29.603090400000003,-65.7124416,2.223516,0.0,0.0,0.0,0.0
5.640000000000001,69.2273952,33.777936,-74.4416088,3.1437072,0.0,0.0,0.0,0.0
5.66,72.1607904,33.8321904,-71.2427328,3.7572696000000003,0.0,0.0,0.0,0.0
5.680000000000001,75.01158480000001,33.777936,-71.51400480000001,4.2172128,0.0,0.0,0.0,0.0
5.7,77.7172944,34.53719280000001,-72.2729568,3.3738312000000006,0.0,0.0,0.0,0.0
5.720000000000001,80.5757088,33.452714400000005,-71.40549600000001,2.683764,0.0,0.0,0.0,0.0
5.74,83.2107048,33.2356968,-69.345048,3.2970216000000003,0.0,0.0,0.0,0.0
5.760000000000001,85.94018880000002,31.609284000000002,-66.30893520000001,3.450336,0.0,0.0,0.0,0.0
5.78,88.30025520000001,18.3257952,-41.422929599999996,1.6867632000000001,0.0,0.0,0.0,0.0
5.800000000000001,89.6550912,6.885736800000001,-16.753332,-0.23012400000000002,0.0,0.0,0.0,0.0
5.82,89.292684,2.2771608000000003,-1.8434304000000001,-1.5334488,0.0,0.0,0.0,0.0
5.84,87.303864,-6.8314824000000005,-1.5182088,0.0,0.0,0.0,0.0,0.0
5.86,84.3146904,-11.928043200000001,-1.5182088,-0.3834384,0.0,0.0,0.0,0.0
5.880000000000001,79.98805440000001,-9.2714064,2.548128,-0.7668768,0.0,0.0,0.0,0.0
5.9,73.2992184,-4.5000672,4.0663368,-1.1500104,0.0,0.0,0.0,0.0
5.92,66.01358400000001,-0.5964936000000001,3.0903671999999998,-2.5304496,0.0,0.0,0.0,0.0
5.94,59.9575128,1.4097000000000002,0.650748,-1.7635728,0.0,0.0,0.0,0.0
5.960000000000001,55.1849544,7.5904344,-0.3252216,-36.421161600000005,0.0,0.0,0.0,0.0
5.98,51.220116,-1.1387328,13.3919976,-21.086064000000004,0.0,0.0,0.0,0.0
6.0,48.3894384,-11.1690912,3.1446216000000002,-15.0284688,0.0,0.0,0.0,0.0
6.0200000000000005,46.6990176,-2.3314152,5.5845456,-9.967874400000001,0.0,0.0,0.0,0.0
6.04,45.6828144,-4.0663368,5.367528,-9.1244928,0.0,0.0,0.0,0.0
6.0600000000000005,45.3713088,-5.6930544,4.3915584,-4.523841600000001,0.0,0.0,0.0,0.0
6.08,45.5871072,-2.1143976,3.3073848000000003,-8.741054400000001,0.0,0.0,0.0,0.0
6.1000000000000005,46.268640000000005,-2.6023824,2.4941784,-13.571829600000001,0.0,0.0,0.0,0.0
6.12,47.0135712,-2.2229064000000003,3.0903671999999998,-9.737750400000001,0.0,0.0,0.0,0.0
6.140000000000001,47.560992,-1.1926824,3.6868608000000003,-9.891369599999999,0.0,0.0,0.0,0.0
6.16,48.499776000000004,-1.3554456000000001,4.5000672,-8.1277968,0.0,0.0,0.0,0.0
6.180000000000001,49.754942400000004,-2.2229064000000003,4.608576,-4.7539656,0.0,0.0,0.0,0.0
6.2,51.3228336,-1.7349216,6.7229735999999995,-7.2841104,0.0,0.0,0.0,0.0
6.220000000000001,53.118715200000004,-9.7593912,-40.6636728,-22.1595696,0.0,0.0,0.0,0.0
6.24,55.0801032,3.6868608000000003,0.7589520000000001,-28.8304224,0.0,0.0,0.0,0.0
6.26,57.146647200000004,39.2539728,113.4246144,-8.2043016,0.0,0.0,0.0,0.0
6.28,59.673744000000006,-5.964021600000001,-3.2531304000000003,-10.811256,0.0,0.0,0.0,0.0
6.300000000000001,62.110620000000004,-0.7589520000000001,1.0844784,-3.450336,0.0,0.0,0.0,0.0
6.32,64.5846816,0.16276320000000002,0.5964936000000001,-10.811256,0.0,0.0,0.0,0.0
6.34,66.9359088,-0.7046976,-4.8252888,-13.0350768,0.0,0.0,0.0,0.0
6.36,68.980812,-0.7046976,1.5724632,-7.9744824,0.0,0.0,0.0,0.0
6.380000000000001,70.8778872,0.0,1.4097000000000002,-9.6612456,0.0,0.0,0.0,0.0
6.4,72.3695784,-3.3073848000000003,1.3554456000000001,-5.9807856,0.0,0.0,0.0,0.0
6.42,73.73081520000001,-1.2469368,1.8976848000000002,-7.437729600000001,0.0,0.0,0.0,0.0
6.44,75.1261896,-0.7589520000000001,1.6264128000000002,-7.36092,0.0,0.0,0.0,0.0
6.460000000000001,76.36916400000001,-0.2709672,0.2709672,-8.4344256,0.0,0.0,0.0,0.0
6.48,77.4152376,-1.9519392,1.0844784,-6.594043200000001,0.0,0.0,0.0,0.0
6.5,78.26441040000002,-1.8434304000000001,1.0844784,-6.1341,0.0,0.0,0.0,0.0
6.5200000000000005,78.86913360000001,-2.7651456,1.6806672000000002,-4.8304704,0.0,0.0,0.0,0.0
6.54,79.3491936,-2.3856696,0.8674608,-6.0572904,0.0,0.0,0.0,0.0
6.5600000000000005,79.9310568,-1.789176,0.5964936000000001,-6.4407288000000005,0.0,0.0,0.0,0.0
6.58,80.6915328,-1.8976848000000002,-2.3314152,-8.741054400000001,0.0,0.0,0.0,0.0
6.6000000000000005,81.2724816,-1.8976848000000002,1.030224,-6.0572904,0.0,0.0,0.0,0.0
6.62,81.86287920000001,-0.7589520000000001,0.650748,-6.9774816,0.0,0.0,0.0,0.0
6.640000000000001,82.4721744,-1.6806672000000002,1.8976848000000002,-5.2907184,0.0,0.0,0.0,0.0
6.66,82.9805808,-2.0061936,2.8736544000000004,-4.0638984,0.0,0.0,0.0,0.0
6.680000000000001,83.2274688,-1.3554456000000001,1.8976848000000002,-5.597347200000001,0.0,0.0,0.0,0.0
6.7,83.4615552,-1.030224,1.6806672000000002,-5.9807856,0.0,0.0,0.0,0.0
6.720000000000001,83.8858368,-0.1085088,0.0,-6.8241672,0.0,0.0,0.0,0.0
6.74,84.626196,-1.6264128000000002,1.7349216,-5.4440328000000004,0.0,0.0,0.0,0.0
6.76,85.2748104,-0.9759696,1.9519392,-4.984089600000001,0.0,0.0,0.0,0.0
6.78,85.82131679999999,-2.4941784,2.4941784,-4.1404032,0.0,0.0,0.0,0.0
6.800000000000001,86.5894128,-1.2469368,2.2229064000000003,-4.4473368,0.0,0.0,0.0,0.0
6.82,86.8719624,-0.8132064000000001,1.5724632,-4.907280000000001,0.0,0.0,0.0,0.0
6.84,87.60653040000001,-1.3011912,1.7349216,-5.060594400000001,0.0,0.0,0.0,0.0
6.86,88.4096784,-0.650748,0.8674608,-5.750661600000001,0.0,0.0,0.0,0.0
6.880000000000001,89.25915600000002,-1.3554456000000001,1.789176,-4.677156,0.0,0.0,0.0,0.0
6.9,90.14002800000002,-1.1387328,2.0061936,-4.7539656,0.0,0.0,0.0,0.0
6.92,90.90416160000001,-1.0844784,3.1446216000000002,-3.5271456,0.0,0.0,0.0,0.0
6.94,91.83898320000002,-1.2469368,1.8976848000000002,-3.8337744,0.0,0.0,0.0,0.0
6.960000000000001,92.52051600000001,-1.030224,2.1143976,-3.9870888,0.0,0.0,0.0,0.0
6.98,93.30811920000001,-1.030224,1.8976848000000002,-4.4473368,0.0,0.0,0.0,0.0
7.0,94.1429664,-1.0844784,1.8434304000000001,-4.7539656,0.0,0.0,0.0,0.0
7.0200000000000005,94.971108,-0.5964936000000001,1.6806672000000002,-4.907280000000001,0.0,0.0,0.0,0.0
7.040000000000001,95.8218048,-0.3252216,1.6264128000000002,-4.677156,0.0,0.0,0.0,0.0
7.0600000000000005,96.7886304,-1.1926824,2.8194000000000004,-2.9135831999999997,0.0,0.0,0.0,0.0
7.08,97.72863360000001,-1.5182088,1.9519392,-3.6036504000000003,0.0,0.0,0.0,0.0
7.1000000000000005,98.43881760000001,-1.5182088,1.5182088,-3.68046,0.0,0.0,0.0,0.0
7.12,99.2815896,-2.1143976,1.3554456000000001,-3.6036504000000003,0.0,0.0,0.0,0.0
7.140000000000001,100.108512,-1.3554456000000001,1.4639544,-4.677156,0.0,0.0,0.0,0.0
7.16,100.98786,-0.9759696,1.1926824,-4.523841600000001,0.0,0.0,0.0,0.0
7.18,101.8086864,-0.5964936000000001,1.4639544,-4.1404032,0.0,0.0,0.0,0.0
7.2,102.42346800000001,-0.9759696,1.7349216,-3.68046,0.0,0.0,0.0,0.0
7.220000000000001,103.0562328,-1.3554456000000001,2.4399240000000004,-2.9903928,0.0,0.0,0.0,0.0
7.24,103.697532,-1.5182088,1.1926824,-3.3738312000000006,0.0,0.0,0.0,0.0
7.26,104.29951200000001,-1.3554456000000001,1.5724632,-3.1437072,0.0,0.0,0.0,0.0
7.28,104.9264856,-0.8674608,1.6264128000000002,-3.68046,0.0,0.0,0.0,0.0
7.300000000000001,105.5988744,-0.8132064000000001,1.3554456000000001,-3.8337744,0.0,0.0,0.0,0.0
7.32,106.1685456,-0.7589520000000001,1.6264128000000002,-3.5271456,0.0,0.0,0.0,0.0
7.34,106.7309016,-0.7046976,1.5724632,-3.6036504000000003,0.0,0.0,0.0,0.0
7.36,107.38164960000002,-1.0844784,1.3011912,-3.3738312000000006,0.0,0.0,0.0,0.0
7.380000000000001,107.93882400000001,-0.9759696,1.6264128000000002,-3.2205168000000004,0.0,0.0,0.0,0.0
7.4,108.6234048,-1.2469368,1.6806672000000002,-3.2970216000000003,0.0,0.0,0.0,0.0
7.42,109.27842,-1.5724632,1.3554456000000001,-2.8370784000000002,0.0,0.0,0.0,0.0
7.44,109.8358992,-1.1926824,1.5182088,-3.1437072,0.0,0.0,0.0,0.0
7.460000000000001,110.4491568,-0.9759696,1.1926824,-3.2205168000000004,0.0,0.0,0.0,0.0
7.48,111.07186320000001,-1.030224,0.4879848,-4.1404032,0.0,0.0,0.0,0.0
7.5,111.69091200000001,-1.4097000000000002,1.5182088,-2.9903928,0.0,0.0,0.0,0.0
7.5200000000000005,112.439196,-2.1143976,1.030224,-3.1437072,0.0,0.0,0.0,0.0
7.540000000000001,113.1728496,-1.8976848000000002,1.030224,-2.683764,0.0,0.0,0.0,0.0
7.5600000000000005,113.86017360000001,-2.2771608000000003,0.9759696,-2.4536400000000005,0.0,0.0,0.0,0.0
7.58,114.55694640000002,-2.0601432,0.4337304,-2.9903928,0.0,0.0,0.0,0.0
7.6000000000000005,115.2637776,-1.7349216,0.3252216,-3.0672024,0.0,0.0,0.0,0.0
7.62,115.99377360000001,-1.6806672000000002,0.2709672,-3.3738312000000006,0.0,0.0,0.0,0.0
7.640000000000001,116.55734880000001,-1.4639544,0.16276320000000002,-3.910584,0.0,0.0,0.0,0.0
7.66,117.01272,-1.1387328,0.4879848,-3.7572696000000003,0.0,0.0,0.0,0.0
7.68,117.6637728,-0.9759696,1.0844784,-3.5271456,0.0,0.0,0.0,0.0
7.7,118.2971472,-0.650748,1.3011912,-2.9135831999999997,0.0,0.0,0.0,0.0
7.720000000000001,118.84822560000002,-0.5422392,1.4097000000000002,-2.683764,0.0,0.0,0.0,0.0
7.74,119.5190904,-1.3011912,1.4097000000000002,-2.1470112,0.0,0.0,0.0,0.0
7.76,120.10796400000001,-1.3011912,1.0844784,-2.683764,0.0,0.0,0.0,0.0
7.78,120.7355472,-0.4337304,1.4097000000000002,-2.5304496,0.0,0.0,0.0,0.0
7.800000000000001,121.3866,0.0,1.6264128000000002,-2.683764,0.0,0.0,0.0,0.0
7.82,121.9955904,0.0,2.0601432,-2.5304496,0.0,0.0,0.0,0.0
7.84,122.5765392,-0.0542544,1.5724632,-2.9135831999999997,0.0,0.0,0.0,0.0
7.86,123.20899920000001,-0.16276320000000002,1.8976848000000002,-2.5304496,0.0,0.0,0.0,0.0
7.880000000000001,123.6918024,-0.37947600000000004,2.0061936,-2.0702016,0.0,0.0,0.0,0.0
7.9,124.306584,-0.3252216,2.1686520000000002,-1.9936968000000002,0.0,0.0,0.0,0.0
7.92,124.83724080000002,-0.5422392,2.2771608000000003,-1.4569440000000002,0.0,0.0,0.0,0.0
7.94,125.38039440000001,-0.8674608,1.9519392,-1.6102584000000002,0.0,0.0,0.0,0.0
7.960000000000001,125.7866928,-1.0844784,1.9519392,-1.4569440000000002,0.0,0.0,0.0,0.0
7.98,126.2289576,-0.9217152000000001,1.6806672000000002,-1.4569440000000002,0.0,0.0,0.0,0.0
8.0,126.648972,-1.1387328,1.4639544,-1.7635728,0.0,0.0,0.0,0.0
8.02,127.24729440000002,-1.0844784,1.4097000000000002,-1.9936968000000002,0.0,0.0,0.0,0.0
8.040000000000001,127.69260720000001,-1.030224,0.7046976,-2.4536400000000005,0.0,0.0,0.0,0.0
8.06,128.1812016,-0.9217152000000001,1.030224,-2.223516,0.0,0.0,0.0,0.0
8.08,128.6783304,-1.1387328,1.2469368,-1.9936968000000002,0.0,0.0,0.0,0.0
8.100000000000001,129.2102064,-1.030224,1.1387328,-2.0702016,0.0,0.0,0.0,0.0
8.120000000000001,129.78262080000002,-1.1926824,1.5182088,-1.5334488,0.0,0.0,0.0,0.0
8.14,130.2827976,-1.3011912,1.5182088,-1.4569440000000002,0.0,0.0,0.0,0.0
8.16,130.722624,-1.5724632,1.2469368,-1.4569440000000002,0.0,0.0,0.0,0.0
8.18,131.256024,-1.5182088,1.3011912,-1.2268200000000002,0.0,0.0,0.0,0.0
8.2,131.748276,-1.5724632,0.9217152000000001,-1.6102584000000002,0.0,0.0,0.0,0.0
8.22,132.365496,-1.5182088,0.9759696,-1.6867632000000001,0.0,0.0,0.0,0.0
8.24,133.02813120000002,-1.1926824,0.7589520000000001,-1.2268200000000002,0.0,0.0,0.0,0.0
8.26,133.6218816,-0.8132064000000001,1.3554456000000001,-1.7635728,0.0,0.0,0.0,0.0
8.280000000000001,134.194296,-0.650748,1.1926824,-2.223516,0.0,0.0,0.0,0.0
8.3,134.71123680000002,-1.030224,1.030224,-1.6102584000000002,0.0,0.0,0.0,0.0
8.32,135.197088,-0.8674608,1.1926824,-1.8400776,0.0,0.0,0.0,0.0
8.34,135.73932720000002,-0.8132064000000001,1.2469368,-1.5334488,0.0,0.0,0.0,0.0
8.36,136.13617680000002,-0.8132064000000001,1.3554456000000001,-1.3801344,0.0,0.0,0.0,0.0
8.38,136.705848,-0.9217152000000001,1.3554456000000001,-1.3801344,0.0,0.0,0.0,0.0
8.4,137.1548184,-1.030224,1.1387328,-1.2268200000000002,0.0,0.0,0.0,0.0
8.42,137.5358184,-1.030224,1.2469368,-1.3036296,0.0,0.0,0.0,0.0
8.440000000000001,137.99058000000002,-1.0844784,1.1926824,-1.2268200000000002,0.0,0.0,0.0,0.0
8.46,138.3935256,-1.030224,1.1387328,-1.4569440000000002,0.0,0.0,0.0,0.0
8.48,138.8818152,-1.030224,1.2469368,-1.1500104,0.0,0.0,0.0,0.0
8.5,139.3746768,-0.9759696,1.0844784,-1.3801344,0.0,0.0,0.0,0.0
8.52,139.8044448,-0.9759696,0.8674608,-1.4569440000000002,0.0,0.0,0.0,0.0
8.540000000000001,140.2220208,-0.8132064000000001,1.1387328,-1.1500104,0.0,0.0,0.0,0.0
8.56,140.63776800000002,-0.7589520000000001,1.1926824,-1.1500104,0.0,0.0,0.0,0.0
8.58,141.088872,-0.5422392,1.4097000000000002,-1.2268200000000002,0.0,0.0,0.0,0.0
8.600000000000001,141.547596,-0.5964936000000001,1.3554456000000001,-1.3036296,0.0,0.0,0.0,0.0
8.620000000000001,142.0313136,-0.5422392,1.3011912,-1.2268200000000002,0.0,0.0,0.0,0.0
8.64,142.3915872,-0.7046976,1.1387328,-1.3036296,0.0,0.0,0.0,0.0
8.66,142.7323536,-0.7046976,1.2469368,-1.2268200000000002,0.0,0.0,0.0,0.0
8.68,143.0706816,-0.7046976,1.030224,-1.2268200000000002,0.0,0.0,0.0,0.0
8.7,143.52757680000002,-0.650748,0.8674608,-1.4569440000000002,0.0,0.0,0.0,0.0
8.72,143.77111200000002,-0.650748,0.7589520000000001,-1.6867632000000001,0.0,0.0,0.0,0.0
8.74,144.2213016,-0.5422392,0.8674608,-1.4569440000000002,0.0,0.0,0.0,0.0
8.76,144.655032,-0.3252216,0.9759696,-1.6102584000000002,0.0,0.0,0.0,0.0
8.780000000000001,145.1082696,-0.1085088,0.9759696,-1.6867632000000001,0.0,0.0,0.0,0.0
8.8,145.60478880000002,-0.2170176,0.9759696,-1.5334488,0.0,0.0,0.0,0.0
8.82,146.110452,-0.0542544,0.9217152000000001,-1.4569440000000002,0.0,0.0,0.0,0.0
8.84,146.46645840000002,-0.16276320000000002,1.030224,-1.3801344,0.0,0.0,0.0,0.0
8.86,146.86026,-0.16276320000000002,1.030224,-1.2268200000000002,0.0,0.0,0.0,0.0
8.879999999999999,147.2632056,-0.16276320000000002,1.030224,-1.3036296,0.0,0.0,0.0,0.0
8.9,147.718272,-0.2709672,1.1387328,-1.1500104,0.0,0.0,0.0,0.0
8.92,148.0782408,-0.2170176,1.0844784,-1.2268200000000002,0.0,0.0,0.0,0.0
8.940000000000001,148.4555832,-0.2170176,1.0844784,-1.0735056,0.0,0.0,0.0,0.0
8.96,148.76739360000002,-0.37947600000000004,1.030224,-1.2268200000000002,0.0,0.0,0.0,0.0
8.98,149.16241440000002,-0.16276320000000002,1.030224,-1.1500104,0.0,0.0,0.0,0.0
9.0,149.4986088,-0.0542544,0.9217152000000001,-1.2268200000000002,0.0,0.0,0.0,0.0
9.02,149.8174296,0.1085088,0.7589520000000001,-1.4569440000000002,0.0,0.0,0.0,0.0
9.04,150.1655112,0.0,0.8674608,-1.4569440000000002,0.0,0.0,0.0,0.0
9.06,150.38344320000002,0.1085088,0.9759696,-1.3036296,0.0,0.0,0.0,0.0
9.08,150.6629448,0.0,0.9759696,-1.2268200000000002,0.0,0.0,0.0,0.0
9.100000000000001,150.955248,-0.0542544,0.9217152000000001,-0.996696,0.0,0.0,0.0,0.0
9.120000000000001,151.21310880000001,-0.16276320000000002,1.030224,-0.9201912000000001,0.0,0.0,0.0,0.0
9.14,151.57185840000002,-0.2170176,1.0844784,-0.8433816000000001,0.0,0.0,0.0,0.0
9.16,151.96566,-0.2709672,1.1387328,-0.7668768,0.0,0.0,0.0,0.0
9.18,152.30368320000002,-0.2709672,1.1387328,-0.6900672,0.0,0.0,0.0,0.0
9.2,152.57434560000002,-0.37947600000000004,1.2469368,-0.6900672,0.0,0.0,0.0,0.0
9.22,152.8279392,-0.3252216,1.1926824,-0.7668768,0.0,0.0,0.0,0.0
9.24,153.082752,-0.37947600000000004,1.2469368,-0.7668768,0.0,0.0,0.0,0.0
9.260000000000002,153.4411968,-0.2709672,1.1387328,-0.7668768,0.0,0.0,0.0,0.0
9.280000000000001,153.6932664,-0.37947600000000004,1.2469368,-0.7668768,0.0,0.0,0.0,0.0
9.3,153.90845520000002,-0.0542544,0.9217152000000001,-0.7668768,0.0,0.0,0.0,0.0
9.32,154.2153888,-0.2709672,1.1387328,-0.6900672,0.0,0.0,0.0,0.0
9.34,154.50007200000002,-0.2709672,1.1387328,-0.7668768,0.0,0.0,0.0,0.0
9.36,154.7631144,-0.16276320000000002,1.030224,-0.8433816000000001,0.0,0.0,0.0,0.0
9.379999999999999,155.03743440000002,-0.2170176,1.0844784,-0.7668768,0.0,0.0,0.0,0.0
9.4,155.3056584,-0.2709672,1.1387328,-0.6900672,0.0,0.0,0.0,0.0
9.42,155.63667120000002,-0.2170176,1.1926824,-0.6900672,0.0,0.0,0.0,0.0
9.440000000000001,155.7311592,-0.3252216,1.1926824,-0.6900672,0.0,0.0,0.0,0.0
9.46,156.0234624,-0.2709672,1.2469368,-0.6135624,0.0,0.0,0.0,0.0
9.48,156.4315896,-0.4337304,1.3011912,-0.6135624,0.0,0.0,0.0,0.0
9.5,156.82386720000002,-0.2170176,1.4097000000000002,0.0768096,0.0,0.0,0.0,0.0
9.52,157.21401120000002,-0.4337304,1.3011912,0.6900672,0.0,0.0,0.0,0.0
9.54,157.52856480000003,-0.37947600000000004,1.2469368,-0.15331440000000002,0.0,0.0,0.0,0.0
9.56,157.84342320000002,-0.4337304,1.3011912,-0.30662880000000003,0.0,0.0,0.0,0.0
9.58,158.0650128,-0.4337304,1.3011912,-0.30662880000000003,0.0,0.0,0.0,0.0
9.600000000000001,158.3698128,-0.4879848,1.3554456000000001,-0.4599432,0.0,0.0,0.0,0.0
9.620000000000001,158.66089680000002,-0.4337304,1.3011912,-0.4599432,0.0,0.0,0.0,0.0
9.64,158.9504568,-0.4337304,1.1926824,-0.4599432,0.0,0.0,0.0,0.0
9.66,159.1369944,-0.4337304,1.0844784,-0.23012400000000002,0.0,0.0,0.0,0.0
9.68,159.33816240000002,-0.5422392,1.0844784,-0.4599432,0.0,0.0,0.0,0.0
9.7,159.4984872,-0.4337304,1.3011912,-0.4599432,0.0,0.0,0.0,0.0
9.72,159.6012048,-0.5422392,1.1926824,-0.4599432,0.0,0.0,0.0,0.0
9.74,159.7782936,-0.5422392,1.1926824,-0.5367528,0.0,0.0,0.0,0.0
9.760000000000002,159.9349608,-0.5422392,1.1926824,-0.4599432,0.0,0.0,0.0,0.0
9.780000000000001,160.05169920000003,-0.5422392,1.1926824,-0.30662880000000003,0.0,0.0,0.0,0.0
9.8,160.32784800000002,-0.5422392,1.1926824,-0.30662880000000003,0.0,0.0,0.0,0.0
9.82,160.51042320000002,-0.5422392,1.0844784,-0.4599432,0.0,0.0,0.0,0.0
9.84,160.67775840000002,-0.5422392,1.0844784,-0.3834384,0.0,0.0,0.0,0.0
9.86,160.9600032,-0.7046976,1.030224,-0.30662880000000003,0.0,0.0,0.0,0.0
9.879999999999999,161.1562944,-0.7589520000000001,1.1926824,-0.30662880000000003,0.0,0.0,0.0,0.0
9.9,161.286444,-0.7046976,1.1387328,-0.23012400000000002,0.0,0.0,0.0,0.0
9.92,161.5436952,-0.7589520000000001,0.9759696,-0.15331440000000002,0.0,0.0,0.0,0.0
9.940000000000001,161.76650400000003,-0.8132064000000001,1.1387328,-0.30662880000000003,0.0,0.0,0.0,0.0
9.96,161.957004,-0.8132064000000001,1.030224,0.0,0.0,0.0,0.0,0.0
9.98,162.2105976,-0.9759696,1.0844784,-0.15331440000000002,0.0,0.0,0.0,0.0
10.0,162.36116880000003,-0.8674608,0.9759696,-0.23012400000000002,0.0,0.0,0.0,0.0
10.02,162.54435360000002,-0.8674608,0.9759696,-0.23012400000000002,0.0,0.0,0.0,0.0
10.04,162.6162864,-0.8132064000000001,0.9217152000000001,-0.15331440000000002,0.0,0.0,0.0,0.0
10.06,162.7635048,-0.8132064000000001,0.9217152000000001,-0.23012400000000002,0.0,0.0,0.0,0.0
10.08,163.034472,-0.7589520000000001,0.7589520000000001,-0.4599432,0.0,0.0,0.0,0.0
10.100000000000001,163.2453936,-0.8132064000000001,0.9217152000000001,-0.15331440000000002,0.0,0.0,0.0,0.0
10.120000000000001,163.4285784,-0.8674608,0.8674608,-0.15331440000000002,0.0,0.0,0.0,0.0
10.14,163.6776,-0.9759696,0.8674608,-0.15331440000000002,0.0,0.0,0.0,0.0
10.16,163.80195840000002,-0.9759696,0.7589520000000001,-0.30662880000000003,0.0,0.0,0.0,0.0
10.18,163.9781328,-0.8674608,0.7589520000000001,-0.30662880000000003,0.0,0.0,0.0,0.0
10.2,164.14181040000003,-0.9217152000000001,0.8132064000000001,-0.30662880000000003,0.0,0.0,0.0,0.0
10.22,164.26952160000002,-0.9759696,0.7589520000000001,-0.23012400000000002,0.0,0.0,0.0,0.0
10.24,164.3509032,-1.0844784,0.650748,-0.23012400000000002,0.0,0.0,0.0,0.0
10.260000000000002,164.482272,-0.8132064000000001,0.7046976,-0.30662880000000003,0.0,0.0,0.0,0.0
10.280000000000001,164.55085200000002,-0.9759696,0.650748,-0.15331440000000002,0.0,0.0,0.0,0.0
10.3,164.74226640000003,-0.9759696,0.650748,-0.30662880000000003,0.0,0.0,0.0,0.0
10.32,164.8529088,-0.9217152000000001,0.7046976,-0.23012400000000002,0.0,0.0,0.0,0.0
10.34,164.92606080000002,-0.9759696,0.650748,-0.15331440000000002,0.0,0.0,0.0,0.0
10.36,165.0226824,-0.9217152000000001,0.5964936000000001,-0.23012400000000002,0.0,0.0,0.0,0.0
10.379999999999999,165.1028448,-0.9759696,0.650748,-0.23012400000000002,0.0,0.0,0.0,0.0
10.4,165.2022096,-0.9759696,0.650748,-0.23012400000000002,0.0,0.0,0.0,0.0
10.42,165.28450560000002,-1.030224,0.5964936000000001,-0.23012400000000002,0.0,0.0,0.0,0.0
10.440000000000001,165.39362400000002,-1.030224,0.4879848,-0.23012400000000002,0.0,0.0,0.0,0.0
10.46,165.5210304,-1.030224,0.5964936000000001,-0.30662880000000003,0.0,0.0,0.0,0.0
10.48,165.6341112,-1.030224,0.4879848,-0.30662880000000003,0.0,0.0,0.0,0.0
10.5,165.75054480000003,-1.030224,0.4879848,-0.30662880000000003,0.0,0.0,0.0,0.0
10.52,165.7295136,-1.030224,0.2709672,-0.30662880000000003,0.0,0.0,0.0,0.0
10.54,165.8200392,-0.9759696,0.4337304,-0.3834384,0.0,0.0,0.0,0.0
10.56,165.8834376,-1.030224,0.2709672,-0.3834384,0.0,0.0,0.0,0.0
10.58,165.90721200000002,-1.030224,0.37947600000000004,-0.4599432,0.0,0.0,0.0,0.0
10.600000000000001,166.06235519999998,-1.030224,0.37947600000000004,-0.4599432,0.0,0.0,0.0,0.0
10.620000000000001,166.044372,-1.030224,0.2709672,-0.4599432,0.0,0.0,0.0,0.0
10.64,166.08582479999998,-1.030224,0.2709672,-0.4599432,0.0,0.0,0.0,0.0
10.66,166.1873232,-1.030224,0.2709672,-0.4599432,0.0,0.0,0.0,0.0
10.68,166.1897616,-0.9217152000000001,0.16276320000000002,-0.5367528,0.0,0.0,0.0,0.0
10.7,166.3363704,-1.0844784,0.1085088,-0.4599432,0.0,0.0,0.0,0.0
10.72,166.4302488,-1.0844784,0.1085088,-0.5367528,0.0,0.0,0.0,0.0
10.74,166.4372592,-1.0844784,0.0,-0.6135624,0.0,0.0,0.0,0.0
10.760000000000002,166.48602720000002,-1.030224,-0.0542544,-0.6900672,0.0,0.0,0.0,0.0
10.780000000000001,166.5436344,-1.0844784,0.0,-0.6900672,0.0,0.0,0.0,0.0
10.8,166.6759176,-1.0844784,-0.1085088,-0.6135624,0.0,0.0,0.0,0.0
10.82,166.6804896,-0.9759696,-0.2170176,-0.6900672,0.0,0.0,0.0,0.0
10.84,166.68902400000002,-0.9759696,-0.1085088,-0.6900672,0.0,0.0,0.0,0.0
10.86,166.85544480000001,-1.0844784,-0.2170176,-0.7668768,0.0,0.0,0.0,0.0
10.879999999999999,166.9258536,-0.9759696,-0.3252216,-0.7668768,0.0,0.0,0.0,0.0
10.9,167.1392136,-1.030224,-0.37947600000000004,-0.7668768,0.0,0.0,0.0,0.0
10.92,167.14165200000002,-1.1387328,-0.37947600000000004,-0.6900672,0.0,0.0,0.0,0.0
10.940000000000001,167.048688,-1.0844784,-0.4337304,-0.6900672,0.0,0.0,0.0,0.0
10.96,167.15933040000002,-1.1926824,-0.4337304,-0.6900672,0.0,0.0,0.0,0.0
10.98,167.2596096,-1.1387328,-0.4879848,-0.7668768,0.0,0.0,0.0,0.0
11.0,167.3266656,-1.2469368,-0.5964936000000001,-0.6900672,0.0,0.0,0.0,0.0
11.02,167.34038160000003,-1.4639544,-0.7046976,-0.7668768,0.0,0.0,0.0,0.0
11.04,167.3547072,-1.4097000000000002,-0.650748,-0.7668768,0.0,0.0,0.0,0.0
11.06,167.39646480000002,-1.4097000000000002,-0.7589520000000001,-0.7668768,0.0,0.0,0.0,0.0
11.08,167.324532,-1.1926824,-0.7589520000000001,-0.8433816000000001,0.0,0.0,0.0,0.0
11.100000000000001,167.3635464,-0.9759696,-0.8674608,-0.8433816000000001,0.0,0.0,0.0,0.0
11.120000000000001,167.37604320000003,-1.030224,-0.9217152000000001,-0.9201912000000001,0.0,0.0,0.0,0.0
11.14,167.33306640000004,-0.9759696,-1.0844784,-1.0735056,0.0,0.0,0.0,0.0
11.16,167.23796880000003,-0.8674608,-1.1926824,-1.3801344,0.0,0.0,0.0,0.0
11.18,167.24254080000003,-0.7589520000000001,-1.1926824,-1.3801344,0.0,0.0,0.0,0.0
11.2,167.28033600000003,-0.5964936000000001,-1.2469368,-1.3036296,0.0,0.0,0.0,0.0
11.22,167.306244,-0.650748,-1.4097000000000002,-1.3036296,0.0,0.0,0.0,0.0
11.24,167.2227288,-0.5422392,-1.3011912,-1.4569440000000002,0.0,0.0,0.0,0.0
11.260000000000002,167.21297520000002,-0.4337304,-1.3011912,-1.5334488,0.0,0.0,0.0,0.0
11.280000000000001,167.13982320000002,-0.2170176,-1.3011912,-1.5334488,0.0,0.0,0.0,0.0
11.3,167.1328128,0.3252216,-1.0844784,-1.6867632000000001,0.0,0.0,0.0,0.0
11.32,167.0755104,0.9217152000000001,-0.7046976,-1.9168872,0.0,0.0,0.0,0.0
11.34,167.2209,1.3011912,-0.4337304,-1.6867632000000001,0.0,0.0,0.0,0.0
11.36,167.30472,0.5964936000000001,-0.8132064000000001,-1.6867632000000001,0.0,0.0,0.0,0.0
11.379999999999999,167.376348,0.5964936000000001,-0.9217152000000001,-1.7635728,0.0,0.0,0.0,0.0
11.4,167.3769576,1.030224,-0.7046976,-1.7635728,0.0,0.0,0.0,0.0
11.42,167.4366984,1.3554456000000001,-0.4879848,-1.7635728,0.0,0.0,0.0,0.0
11.440000000000001,167.4656544,1.6264128000000002,-0.3252216,-1.4569440000000002,0.0,0.0,0.0,0.0
11.46,167.48881920000002,1.5724632,-0.7046976,-2.0702016,0.0,0.0,0.0,0.0
11.48,167.5430736,1.6806672000000002,-0.5964936000000001,-1.9936968000000002,0.0,0.0,0.0,0.0
11.5,167.58513600000003,1.789176,-0.8132064000000001,-1.9168872,0.0,0.0,0.0,0.0
11.52,167.6153112,-9.813645600000001,4.0663368,24.6897144,0.0,0.0,0.0,0.0
11.54,167.6473152,-8.6206584,6.777228,68.3184816,0.0,0.0,0.0,0.0
11.56,167.68053840000002,153.6545568,-26.349960000000003,-24.306276000000004,0.0,0.0,0.0,0.0
11.58,167.7152856,64.8449808,-23.6390688,-38.3380488,0.0,0.0,0.0,0.0
11.600000000000001,167.81251680000003,10.8978192,-8.729167200000001,2.4536400000000005,0.0,0.0,0.0,0.0
11.620000000000001,167.86585680000002,13.7172192,-20.1149712,-3.8337744,0.0,0.0,0.0,0.0
11.64,167.7311352,12.524536800000002,-26.621232000000003,-0.6900672,0.0,0.0,0.0,0.0
11.66,167.542464,13.608710400000001,-29.9825664,30.2870616,0.0,0.0,0.0,0.0
11.68,167.641524,67.2306504,37.410542400000004,-18.4023,0.0,0.0,0.0,0.0
11.7,168.747948,75.25512,146.71456560000001,156.9561504,0.0,0.0,0.0,0.0
11.72,168.831768,3.198876,8.0784192,10.888065600000001,0.0,0.0,0.0,0.0
11.74,168.91894080000003,10.952073600000002,-55.302607200000004,-7.130796,0.0,0.0,0.0,0.0
11.760000000000002,168.6324288,-1.8976848000000002,16.970349600000002,4.2937176,0.0,0.0,0.0,0.0
11.780000000000001,168.56994480000003,-104.6411928,117.4366968,18.4791096,0.0,0.0,0.0,0.0
11.8,168.0700728,30.850332,8.94588,9.1244928,0.0,0.0,0.0,0.0
11.82,167.63939040000002,24.235562400000003,-30.524805600000004,-19.4758056,0.0,0.0,0.0,0.0
11.84,167.49461040000003,26.6754864,-32.205777600000005,-4.2937176,0.0,0.0,0.0,0.0
11.86,167.44066080000002,37.4647968,-28.5731712,-4.984089600000001,0.0,0.0,0.0,0.0
11.879999999999999,167.28064080000001,13.229234400000001,-25.3742952,-4.8304704,0.0,0.0,0.0,0.0
11.9,167.277288,17.9463192,-29.223614400000002,-0.6900672,0.0,0.0,0.0,0.0
11.92,167.272716,11.1690912,-17.024604,-0.5367528,0.0,0.0,0.0,0.0
11.940000000000001,167.08983600000002,3.3073848000000003,-35.187636,-22.9261416,0.0,0.0,0.0,0.0
11.96,166.8798288,3.6326064,-3.5240976,-2.0702016,0.0,0.0,0.0,0.0
11.98,166.5573504,1.030224,-2.4399240000000004,-0.6135624,0.0,0.0,0.0,0.0
12.0,166.25316,5.205069600000001,-4.8795432000000005,-1.2268200000000002,0.0,0.0,0.0,0.0
12.02,165.9053832,8.5121496,-8.295436800000001,-2.0702016,0.0,0.0,0.0,0.0
12.04,165.65087520000003,9.6508824,-10.0846128,-2.3003256,0.0,0.0,0.0,0.0
12.06,165.24732,9.0001344,-10.193121600000001,1.1500104,0.0,0.0,0.0,0.0
12.08,164.97818160000003,5.6930544,-8.0784192,2.1470112,0.0,0.0,0.0,0.0
12.100000000000001,164.8529088,4.988052,-8.4582,3.910584,0.0,0.0,0.0,0.0
12.120000000000001,164.64290160000002,5.096560800000001,-9.0001344,4.7539656,0.0,0.0,0.0,0.0
12.14,164.4414288,4.7170848,-7.5364848,6.2109096,0.0,0.0,0.0,0.0
12.16,164.48897760000003,4.0663368,-6.5605152,6.8241672,0.0,0.0,0.0,0.0
12.18,164.6365008,3.7411152,-7.210958400000001,4.4473368,0.0,0.0,0.0,0.0
12.2,164.6520456,3.198876,-7.3194672,1.6867632000000001,0.0,0.0,0.0,0.0
12.22,164.7547632,3.3616392,-5.638800000000001,0.7668768,0.0,0.0,0.0,0.0
12.24,164.9236224,8.8919304,-4.445812800000001,9.047683200000002,0.0,0.0,0.0,0.0
12.260000000000002,165.1458216,9.0001344,-4.554321600000001,13.725144,0.0,0.0,0.0,0.0
12.280000000000001,165.0699264,8.6206584,-5.367528,14.0317728,0.0,0.0,0.0,0.0
12.3,164.945568,9.108643200000001,-7.156704,11.271504,0.0,0.0,0.0,0.0
12.32,164.7453144,10.247376,-9.9218496,6.4407288000000005,0.0,0.0,0.0,0.0
12.34,164.3667528,10.355580000000002,-11.5485672,-0.7668768,0.0,0.0,0.0,0.0
12.36,163.8485928,8.8919304,-6.7229735999999995,-4.8304704,0.0,0.0,0.0,0.0
12.379999999999999,163.53800160000003,8.8919304,0.3252216,-8.357616,0.0,0.0,0.0,0.0
12.4,163.2810552,3.7953696000000003,4.554321600000001,-7.591044000000001,0.0,0.0,0.0,0.0
12.42,162.79489920000003,-1.6806672000000002,3.4158936000000004,-3.9870888,0.0,0.0,0.0,0.0
12.440000000000001,162.42578640000002,-0.4337304,2.2771608000000003,1.3036296,0.0,0.0,0.0,0.0
12.46,162.0228408,0.650748,2.7108912000000003,6.9774816,0.0,0.0,0.0,0.0
12.48,162.03869040000004,1.789176,0.37947600000000004,7.2076056,0.0,0.0,0.0,0.0
12.5,161.99327520000003,-1.4639544,0.2709672,4.4473368,0.0,0.0,0.0,0.0
12.52,161.7454728,-2.0061936,-1.030224,0.5367528,0.0,0.0,0.0,0.0
12.54,161.4287856,1.0844784,-5.3132736,-2.1470112,0.0,0.0,0.0,0.0
12.56,161.12429040000004,3.3073848000000003,-5.259324,-2.223516,0.0,0.0,0.0,0.0
12.58,160.73810880000002,0.4337304,-5.964021600000001,-0.7668768,0.0,0.0,0.0,0.0
12.600000000000001,160.7475576,3.9035736000000005,-7.156704,0.23012400000000002,0.0,0.0,0.0,0.0
12.620000000000001,160.90452960000002,16.2113976,-3.6326064,14.8751544,0.0,0.0,0.0,0.0
12.64,161.3919048,15.777667200000002,-6.343497600000001,21.9294456,0.0,0.0,0.0,0.0
12.66,161.7098112,12.036552,-6.0725304,19.1691768,0.0,0.0,0.0,0.0
12.68,161.6601288,12.0908064,-6.5605152,15.0284688,0.0,0.0,0.0,0.0
12.7,161.43244320000002,12.7412496,-6.018276,3.8337744,0.0,0.0,0.0,0.0
12.72,160.742376,8.024164800000001,-1.6264128000000002,-5.5205376,0.0,0.0,0.0,0.0
12.74,160.25378160000002,4.012082400000001,1.8434304000000001,-8.5109304,0.0,0.0,0.0,0.0
12.760000000000002,159.7115424,2.2229064000000003,1.789176,-0.996696,0.0,0.0,0.0,0.0
12.780000000000001,159.6292464,-2.548128,-0.16276320000000002,1.3036296,0.0,0.0,0.0,0.0
12.8,159.6243696,2.8194000000000004,-1.7349216,12.2682,0.0,0.0,0.0,0.0
12.82,160.18977360000002,20.1149712,-38.332257600000005,23.2327704,0.0,0.0,0.0,0.0
12.84,160.931352,8.1326736,-8.4582,16.7920416,0.0,0.0,0.0,0.0
12.86,161.19073680000002,-5.367528,-10.5725976,11.3480088,0.0,0.0,0.0,0.0
12.879999999999999,161.2081104,16.8618408,-24.7778016,17.5589184,0.0,0.0,0.0,0.0
12.899999999999999,161.23584720000002,19.464223200000003,-22.9343712,24.6897144,0.0,0.0,0.0,0.0
12.920000000000002,160.9813392,18.3257952,-13.012521600000001,23.693018400000003,0.0,0.0,0.0,0.0
12.940000000000001,160.74268080000002,8.1326736,-3.9035736000000005,23.999647200000002,0.0,0.0,0.0,0.0
12.96,160.50006000000002,0.2170176,-0.1085088,17.405604,0.0,0.0,0.0,0.0
12.98,159.6210168,-4.8252888,0.4879848,8.5109304,0.0,0.0,0.0,0.0
13.0,158.3567064,-7.427976000000001,5.476036800000001,6.2874144,0.0,0.0,0.0,0.0
13.02,156.9634656,-4.988052,5.096560800000001,4.2172128,0.0,0.0,0.0,0.0
13.04,155.582112,-4.3915584,5.259324,5.903976000000001,0.0,0.0,0.0,0.0
13.059999999999999,154.253184,-1.5724632,3.7411152,9.1244928,0.0,0.0,0.0,0.0
13.080000000000002,152.7715512,0.9759696,1.6264128000000002,12.7281432,0.0,0.0,0.0,0.0
13.100000000000001,151.7105424,1.6264128000000002,1.8434304000000001,16.4854128,0.0,0.0,0.0,0.0
13.120000000000001,150.7202472,2.3314152,2.2229064000000003,15.0284688,0.0,0.0,0.0,0.0
13.14,150.0707184,2.3856696,1.7349216,14.0317728,0.0,0.0,0.0,0.0
13.16,149.59523040000002,2.548128,2.548128,16.5622224,0.0,0.0,0.0,0.0
13.18,149.3858328,5.421782400000001,0.8674608,19.398996,0.0,0.0,0.0,0.0
13.2,149.6089464,8.295436800000001,-1.030224,17.942356800000002,0.0,0.0,0.0,0.0
13.219999999999999,150.4687872,16.102888800000002,-1.030224,18.708928800000002,0.0,0.0,0.0,0.0
13.240000000000002,150.4410504,5.476036800000001,5.801258400000001,12.7281432,0.0,0.0,0.0,0.0
13.260000000000002,150.16794960000001,10.5725976,3.6326064,16.945356,0.0,0.0,0.0,0.0
13.280000000000001,150.348696,30.524805600000004,-0.4879848,4.2172128,0.0,0.0,0.0,0.0
13.3,150.955248,6.343497600000001,-5.801258400000001,20.932749600000005,0.0,0.0,0.0,0.0
13.32,151.6248936,6.018276,-10.247376,18.172176,0.0,0.0,0.0,0.0
13.34,152.9163312,7.1024496,-11.440058400000002,26.376477600000005,0.0,0.0,0.0,0.0
13.36,154.55463120000002,13.229234400000001,-23.3138472,23.846332800000003,0.0,0.0,0.0,0.0
13.379999999999999,156.11977919999998,23.856086400000002,-48.14590320000001,18.0188616,0.0,0.0,0.0,0.0
13.399999999999999,156.5023032,13.988186400000002,-29.928616800000004,7.130796,0.0,0.0,0.0,0.0
13.420000000000002,156.2017704,26.0247384,-38.1697992,2.9903928,0.0,0.0,0.0,0.0
13.440000000000001,155.7768792,18.2715408,-16.2113976,7.437729600000001,0.0,0.0,0.0,0.0
13.46,155.8430208,21.3076536,-9.379915200000001,10.734751200000002,0.0,0.0,0.0,0.0
13.48,155.3010864,2.6566368,14.0424408,14.4152112,0.0,0.0,0.0,0.0
13.5,154.40527920000002,2.8736544000000004,4.8252888,11.9615712,0.0,0.0,0.0,0.0
13.52,153.544524,5.6930544,-1.8976848000000002,8.2811112,0.0,0.0,0.0,0.0
13.54,152.6170176,7.1024496,-3.5240976,-2.3768304000000002,0.0,0.0,0.0,0.0
13.559999999999999,151.46182560000003,7.4822304,-4.3376088,-3.3738312000000006,0.0,0.0,0.0,0.0
13.580000000000002,150.3566208,5.9097672,-3.7411152,-4.907280000000001,0.0,0.0,0.0,0.0
13.600000000000001,149.4245424,3.3616392,-2.0601432,-0.6135624,0.0,0.0,0.0,0.0
13.620000000000001,148.6345008,3.3073848000000003,-3.3073848000000003,6.364224,0.0,0.0,0.0,0.0
13.64,148.1931504,8.241182400000001,-4.7713392,17.8655472,0.0,0.0,0.0,0.0
13.66,148.2559392,9.0001344,-8.8919304,14.2618968,0.0,0.0,0.0,0.0
13.68,148.29983040000002,-4.8795432000000005,-4.012082400000001,12.038076,0.0,0.0,0.0,0.0
13.7,148.14163920000001,0.3252216,-5.964021600000001,11.654637600000001,0.0,0.0,0.0,0.0
13.719999999999999,147.664932,9.596628,-8.729167200000001,11.4248184,0.0,0.0,0.0,0.0
13.740000000000002,147.5817216,12.8497584,-11.440058400000002,18.5556144,0.0,0.0,0.0,0.0
13.760000000000002,148.01027040000002,19.464223200000003,-24.018849600000003,20.0125584,0.0,0.0,0.0,0.0
13.780000000000001,148.510752,8.1326736,-7.2652128,22.8496368,0.0,0.0,0.0,0.0
13.8,149.01946320000002,5.964021600000001,-1.3011912,24.766524,0.0,0.0,0.0,0.0
13.82,149.2035624,4.6628304,0.0,24.6897144,0.0,0.0,0.0,0.0
13.84,149.33188320000002,8.1326736,-2.3856696,23.079456,0.0,0.0,0.0,0.0
13.86,149.4111312,8.6206584,-2.0061936,21.852636,0.0,0.0,0.0,0.0
13.879999999999999,149.4885504,6.1807343999999995,-2.2771608000000003,21.1625688,0.0,0.0,0.0,0.0
13.899999999999999,149.3510856,3.4698432,-2.9279088,21.315883200000002,0.0,0.0,0.0,0.0
13.920000000000002,149.1358968,5.205069600000001,-4.2291,23.30958,0.0,0.0,0.0,0.0
13.940000000000001,148.844508,9.217152,-9.4338648,25.609905600000005,0.0,0.0,0.0,0.0
13.96,148.21601040000002,36.922557600000005,-4.0663368,29.9036232,0.0,0.0,0.0,0.0
13.98,147.1562208,93.5809152,-71.02602,23.693018400000003,0.0,0.0,0.0,0.0
14.0,145.66849200000001,43.5915816,-66.2546808,12.498324000000002,0.0,0.0,0.0,0.0
14.02,143.92473120000002,1.5182088,-31.229808,-4.4473368,0.0,0.0,0.0,0.0
14.04,142.81099200000003,31.609284000000002,-27.8139144,-14.645030400000001,0.0,0.0,0.0,0.0
14.059999999999999,142.468092,26.0789928,-21.199449600000005,-18.0956712,0.0,0.0,0.0,0.0
14.080000000000002,141.46347120000001,21.5789256,-23.6390688,-4.2937176,0.0,0.0,0.0,0.0
14.100000000000001,140.78163360000002,21.849892800000003,-9.0543888,10.888065600000001,0.0,0.0,0.0,0.0
14.120000000000001,141.43451520000002,11.006328,17.6210976,17.3287944,0.0,0.0,0.0,0.0
14.14,142.093188,2.6566368,19.3560192,10.274503200000002,0.0,0.0,0.0,0.0
14.16,142.6247592,0.2709672,5.1508152,0.6900672,0.0,0.0,0.0,0.0
14.18,143.2901376,15.018410400000002,-0.2709672,-44.395644000000004,0.0,0.0,0.0,0.0
14.2,143.524224,-7.5364848,-1.030224,7.6675488,0.0,0.0,0.0,0.0
14.219999999999999,144.168876,24.072799200000002,-29.711599200000002,-4.1404032,0.0,0.0,0.0,0.0
14.240000000000002,143.99148240000002,5.7470040000000004,-17.3498256,3.9870888,0.0,0.0,0.0,0.0
14.260000000000002,143.3776152,28.193390400000002,-51.9412728,0.6900672,0.0,0.0,0.0,0.0
14.280000000000001,142.637256,28.5731712,-56.549544000000004,-3.2205168000000004,0.0,0.0,0.0,0.0
14.3,141.9755352,35.187636,-49.935079200000004,-3.2970216000000003,0.0,0.0,0.0,0.0
14.32,141.3299688,-141.8350224,-80.243172,29.44368,0.0,0.0,0.0,0.0
14.34,140.9285472,16.645128,3.957828,3.7572696000000003,0.0,0.0,0.0,0.0
14.36,140.90020080000002,23.747577600000003,-8.024164800000001,12.651638400000001,0.0,0.0,0.0,0.0
14.379999999999999,140.2756656,16.590873600000002,-14.5304256,13.878458400000001,0.0,0.0,0.0,0.0
14.399999999999999,139.8318768,20.8199736,-10.843564800000001,14.338401600000001,0.0,0.0,0.0,0.0
14.420000000000002,139.9650744,28.4646624,-10.5725976,5.4440328000000004,0.0,0.0,0.0,0.0
14.440000000000001,139.6130304,17.1331128,0.0,-4.2937176,0.0,0.0,0.0,0.0
14.46,139.0256808,1.6806672000000002,1.3554456000000001,-4.907280000000001,0.0,0.0,0.0,0.0
14.48,138.53129520000002,-5.8555128,3.0361128,-2.0702016,0.0,0.0,0.0,0.0
14.5,138.1844328,4.120591200000001,-3.2531304000000003,-0.7668768,0.0,0.0,0.0,0.0
14.52,137.8692696,25.753771200000003,-22.609149600000002,-10.274503200000002,0.0,0.0,0.0,0.0
14.54,138.0228888,29.115105600000003,-19.464223200000003,-29.673804000000004,0.0,0.0,0.0,0.0
14.559999999999999,138.0460536,8.7834216,-10.735360799999999,-28.753612800000003,0.0,0.0,0.0,0.0
14.580000000000002,137.6452416,7.6989432,-8.241182400000001,-28.446984,0.0,0.0,0.0,0.0
14.600000000000001,137.58123360000002,9.813645600000001,-6.018276,-20.242377600000005,0.0,0.0,0.0,0.0
14.620000000000001,138.0323376,5.205069600000001,-8.024164800000001,-8.2043016,0.0,0.0,0.0,0.0
14.64,138.0341664,1.8976848000000002,-5.6930544,-9.3546168,0.0,0.0,0.0,0.0
14.66,137.8308648,3.5240976,-1.8976848000000002,-17.0986704,0.0,0.0,0.0,0.0
14.68,137.32459200000002,1.3011912,-0.2170176,-21.9294456,0.0,0.0,0.0,0.0
14.7,136.65921360000002,0.9217152000000001,-0.0542544,-21.315883200000002,0.0,0.0,0.0,0.0
