time,baro_altitude,accl_x,accl_y,accl_z,gps_altitude,gyro_roll,gyro_pitch,gyro_yaw
0.0,0.0,-10.0303584,-0.37947600000000004,0.6900672,0.0,0.0,0.0,0.0
0.020000000000000462,0.0445008,-9.976104,-0.4337304,0.5367528,0.0,0.0,0.0,0.0
0.040000000000000036,0.03810000000000001,-10.0846128,-0.4337304,0.5367528,0.0,0.0,0.0,0.0
0.0600000000000005,-0.0713232,-10.0846128,-0.4337304,0.5367528,0.0,0.0,0.0,0.0
0.08000000000000007,-0.1109472,-9.976104,-0.4337304,0.5367528,0.0,0.0,0.0,0.0
0.10000000000000053,-0.21762720000000005,-10.0303584,-0.37947600000000004,0.6135624,0.0,0.0,0.0,0.0
0.1200000000000001,-0.1847088,-10.0303584,-0.37947600000000004,0.6135624,0.0,0.0,0.0,0.0
0.14000000000000057,-0.1847088,-10.0846128,-0.3252216,0.6900672,0.0,0.0,0.0,0.0
0.16000000000000014,-0.13014960000000003,-9.976104,-0.4337304,0.6135624,0.0,0.0,0.0,0.0
0.1800000000000006,-0.21275040000000003,-10.0846128,-0.3252216,0.6135624,0.0,0.0,0.0,0.0
0.20000000000000018,-0.1563624,-10.0846128,-0.4337304,0.5367528,0.0,0.0,0.0,0.0
0.22000000000000064,-0.0664464,-10.0303584,-0.4879848,0.5367528,0.0,0.0,0.0,0.0
0.2400000000000002,0.1054608,-10.0303584,-0.37947600000000004,0.5367528,0.0,0.0,0.0,0.0
0.2600000000000007,0.1054608,-10.0303584,-0.37947600000000004,0.5367528,0.0,0.0,0.0,0.0
0.28000000000000025,0.16123920000000003,-10.0303584,-0.4879848,0.6135624,0.0,0.0,0.0,0.0
0.3000000000000007,0.2883408,-10.0303584,-0.4879848,0.6135624,0.0,0.0,0.0,0.0
0.3200000000000003,0.1408176,-10.0846128,-0.4337304,0.6135624,0.0,0.0,0.0,0.0
0.3400000000000003,0.2157984,-9.976104,-0.5422392,0.6135624,0.0,0.0,0.0,0.0
0.3600000000000003,0.313944,-9.976104,-0.4337304,0.6135624,0.0,0.0,0.0,0.0
0.38000000000000034,0.2874264,-10.0303584,-0.4879848,0.5367528,0.0,0.0,0.0,0.0
0.40000000000000036,0.2755392,-9.976104,-0.4337304,0.5367528,0.0,0.0,0.0,0.0
0.4200000000000004,0.2109216,-10.0303584,-0.37947600000000004,0.5367528,0.0,0.0,0.0,0.0
0.4400000000000004,0.2557272,-10.0303584,-0.37947600000000004,0.6135624,0.0,0.0,0.0,0.0
0.4600000000000004,0.141732,-10.0303584,-0.37947600000000004,0.6135624,0.0,0.0,0.0,0.0
0.4800000000000004,0.06614160000000001,-10.0303584,-0.37947600000000004,0.5367528,0.0,0.0,0.0,0.0
0.5000000000000004,0.12070080000000001,-9.976104,-0.4337304,0.6135624,0.0,0.0,0.0,0.0
0.5200000000000005,-0.0268224,-9.976104,-0.3252216,0.6900672,0.0,0.0,0.0,0.0
0.5400000000000005,-0.0368808,-10.0303584,-0.37947600000000004,0.6135624,0.0,0.0,0.0,0.0
0.5600000000000005,0.0252984,-9.976104,-0.4337304,0.6135624,0.0,0.0,0.0,0.0
0.5800000000000001,0.0795528,-9.9218496,-0.37947600000000004,0.6135624,0.0,0.0,0.0,0.0
0.6000000000000001,-0.10088879999999999,-10.0303584,-0.2709672,0.5367528,0.0,0.0,0.0,0.0
0.6200000000000001,-0.1399032,-10.0303584,-0.4879848,0.5367528,0.0,0.0,0.0,0.0
0.6400000000000001,-0.31302959999999996,-10.0303584,-0.37947600000000004,0.5367528,0.0,0.0,0.0,0.0
0.6600000000000001,-0.377952,-10.0303584,-0.4879848,0.6135624,0.0,0.0,0.0,0.0
0.6800000000000002,-0.313944,-10.0303584,-0.37947600000000004,0.6135624,0.0,0.0,0.0,0.0
0.7000000000000002,-0.3282696,-9.976104,-0.4337304,0.6135624,0.0,0.0,0.0,0.0
0.7200000000000002,-0.1621536,-10.0303584,-0.37947600000000004,0.5367528,0.0,0.0,0.0,0.0
0.7400000000000002,-0.08625840000000001,-10.0846128,-0.4337304,0.5367528,0.0,0.0,0.0,0.0
0.7600000000000002,-0.1045464,-10.0303584,-0.37947600000000004,0.6135624,0.0,0.0,0.0,0.0
0.7800000000000002,0.0612648,-10.0303584,-0.37947600000000004,0.6135624,0.0,0.0,0.0,0.0
0.8000000000000003,0.17038319999999998,-9.976104,-0.4337304,0.6135624,0.0,0.0,0.0,0.0
0.8200000000000003,0.28925520000000005,-9.976104,-0.4337304,0.6900672,0.0,0.0,0.0,0.0
0.8400000000000003,0.36576000000000003,-9.976104,-0.4337304,0.6135624,0.0,0.0,0.0,0.0
0.8600000000000003,0.47426880000000005,-9.976104,-0.4337304,0.6135624,0.0,0.0,0.0,0.0
0.8800000000000003,0.43494960000000005,-10.0303584,-0.4879848,0.6135624,0.0,0.0,0.0,0.0
0.9000000000000004,0.39867840000000004,-10.0303584,-0.37947600000000004,0.6135624,0.0,0.0,0.0,0.0
0.9200000000000004,0.420624,-10.0303584,-0.4879848,0.6135624,0.0,0.0,0.0,0.0
0.9400000000000004,0.2075688,-9.976104,-0.4337304,0.6135624,0.0,0.0,0.0,0.0
0.9600000000000004,0.13411199999999998,-10.0846128,-0.3252216,0.6135624,0.0,0.0,0.0,0.0
0.9800000000000004,-0.060655200000000006,-10.0303584,-0.37947600000000004,0.6135624,0.0,0.0,0.0,0.0
1.0000000000000004,-0.1484376,-10.0846128,-0.4337304,0.6135624,0.0,0.0,0.0,0.0
1.0200000000000005,0.03352800000000001,-10.0303584,-0.4879848,0.6900672,0.0,0.0,0.0,0.0
1.0400000000000005,-0.003962399999999995,-10.0846128,-0.4337304,0.6900672,0.0,0.0,0.0,0.0
1.0600000000000005,-0.12192000000000001,-10.0303584,-0.37947600000000004,0.6135624,0.0,0.0,0.0,0.0
1.08,0.0713232,-9.976104,-0.4337304,0.6135624,0.0,0.0,0.0,0.0
1.1,-0.23134320000000003,-10.138867200000002,-0.4879848,0.6135624,0.0,0.0,0.0,0.0
1.12,-0.23195280000000001,-9.976104,-0.4337304,0.6135624,0.0,0.0,0.0,0.0
1.1400000000000001,-0.0688848,-9.976104,-0.4337304,0.5367528,0.0,0.0,0.0,0.0
1.1600000000000001,-0.19263360000000002,-10.0303584,-0.37947600000000004,0.5367528,0.0,0.0,0.0,0.0
1.1800000000000002,-0.0798576,-10.0846128,-0.3252216,0.5367528,0.0,0.0,0.0,0.0
1.2000000000000002,-0.13075920000000002,-10.0303584,-0.37947600000000004,0.6135624,0.0,0.0,0.0,0.0
1.2200000000000002,-0.23408640000000003,-10.0846128,-0.4337304,0.6900672,0.0,0.0,0.0,0.0
1.2400000000000002,-0.2852928,-10.0846128,-0.4337304,0.5367528,0.0,0.0,0.0,0.0
1.2600000000000002,-0.21488400000000002,-9.9218496,-0.37947600000000004,0.6135624,0.0,0.0,0.0,0.0
1.2800000000000002,-0.1069848,-10.0303584,-0.37947600000000004,0.6900672,0.0,0.0,0.0,0.0
1.3000000000000003,-0.15575280000000002,-9.976104,-0.4337304,0.6900672,0.0,0.0,0.0,0.0
1.3200000000000003,-0.16733520000000002,-10.0846128,-0.4337304,0.6135624,0.0,0.0,0.0,0.0
1.3400000000000003,-0.0496824,-9.976104,-0.3252216,0.5367528,0.0,0.0,0.0,0.0
1.3600000000000003,0.0268224,-10.0303584,-0.37947600000000004,0.6135624,0.0,0.0,0.0,0.0
1.3800000000000003,0.19385280000000002,-9.976104,-0.4337304,0.6135624,0.0,0.0,0.0,0.0
1.4000000000000004,0.014935200000000006,-10.138867200000002,-0.37947600000000004,0.5367528,0.0,0.0,0.0,0.0
1.4200000000000004,0.07802880000000001,-10.0303584,-0.37947600000000004,0.6900672,0.0,0.0,0.0,0.0
1.4400000000000004,0.2161032,-9.976104,-0.3252216,0.5367528,0.0,0.0,0.0,0.0
1.4600000000000004,0.2292096,-10.0846128,-0.4337304,0.6135624,0.0,0.0,0.0,0.0
1.4800000000000004,0.23865840000000002,-10.0303584,-0.4879848,0.6135624,0.0,0.0,0.0,0.0
1.5000000000000004,0.31516320000000003,-9.9218496,-0.4879848,0.6135624,0.0,0.0,0.0,0.0
1.5200000000000005,0.298704,-9.9218496,-0.4879848,0.5367528,0.0,0.0,0.0,0.0
1.5400000000000005,0.324612,-9.976104,-0.4337304,0.5367528,0.0,0.0,0.0,0.0
1.5600000000000005,0.39258240000000005,-9.813645600000001,-0.4879848,0.5367528,0.0,0.0,0.0,0.0
1.58,0.4233672,-10.0303584,-0.37947600000000004,0.6135624,0.0,0.0,0.0,0.0
1.6,0.155448,-9.976104,-0.4337304,0.6135624,0.0,0.0,0.0,0.0
1.62,0.2478024,-9.976104,-0.4337304,0.5367528,0.0,0.0,0.0,0.0
1.6400000000000001,0.2200656,-10.138867200000002,-0.37947600000000004,0.6135624,0.0,0.0,0.0,0.0
1.6600000000000001,0.067056,-9.976104,-0.4337304,0.6135624,0.0,0.0,0.0,0.0
1.6800000000000002,0.2252472,-10.0846128,-0.4337304,0.6135624,0.0,0.0,0.0,0.0
1.7000000000000002,0.140208,-10.0846128,-0.3252216,0.5367528,0.0,0.0,0.0,0.0
1.7200000000000002,0.24353519999999998,-9.976104,-0.4337304,0.5367528,0.0,0.0,0.0,0.0
1.7400000000000002,0.3041904,-10.0303584,-0.37947600000000004,0.5367528,0.0,0.0,0.0,0.0
1.7600000000000002,0.143256,-10.0303584,-0.4879848,0.6135624,0.0,0.0,0.0,0.0
1.7800000000000002,-0.0667512,-10.0303584,-0.37947600000000004,0.5367528,0.0,0.0,0.0,0.0
1.8000000000000003,-0.10424159999999999,-9.976104,-0.4337304,0.6135624,0.0,0.0,0.0,0.0
1.8200000000000003,-0.1405128,-9.976104,-0.4337304,0.6135624,0.0,0.0,0.0,0.0
1.8400000000000003,-0.08382,-10.0303584,-0.4879848,0.5367528,0.0,0.0,0.0,0.0
1.8600000000000003,-0.1258824,-9.976104,-0.4337304,0.6135624,0.0,0.0,0.0,0.0
1.8800000000000003,-0.16703040000000002,-9.9218496,-0.37947600000000004,0.6135624,0.0,0.0,0.0,0.0
1.9000000000000004,-0.0972312,-9.976104,-0.3252216,0.6135624,0.0,0.0,0.0,0.0
1.9200000000000004,0.0015240000000000015,-10.138867200000002,-0.37947600000000004,0.6135624,0.0,0.0,0.0,0.0
1.9400000000000004,0.0003048000000000003,-9.976104,-0.4337304,0.6135624,0.0,0.0,0.0,0.0
1.9600000000000004,-0.0012192000000000012,-10.0303584,-0.4879848,0.6900672,0.0,0.0,0.0,0.0
1.9800000000000004,0.224028,-10.0303584,-0.37947600000000004,0.5367528,0.0,0.0,0.0,0.0
2.0000000000000004,0.172212,-9.976104,-0.3252216,0.5367528,0.0,0.0,0.0,0.0
2.0200000000000005,0.3328416,-10.0846128,-0.4337304,0.5367528,0.0,0.0,0.0,0.0
2.0400000000000005,0.36240720000000004,-10.0303584,-0.37947600000000004,0.6135624,0.0,0.0,0.0,0.0
2.0600000000000005,0.32857440000000004,-9.9218496,-0.37947600000000004,0.6135624,0.0,0.0,0.0,0.0
2.08,0.2968752,-9.976104,-0.4337304,0.6135624,0.0,0.0,0.0,0.0
2.1,0.2642616,-10.0846128,-0.4337304,0.6135624,0.0,0.0,0.0,0.0
2.12,0.3636264,-10.0303584,-0.37947600000000004,0.5367528,0.0,0.0,0.0,0.0
2.14,0.263652,-9.976104,-0.4337304,0.5367528,0.0,0.0,0.0,0.0
2.16,0.1527048,-10.0303584,-0.37947600000000004,0.6900672,0.0,0.0,0.0,0.0
2.18,0.2334768,-10.0846128,-0.4337304,0.6135624,0.0,0.0,0.0,0.0
2.2,-0.042976799999999996,-9.976104,-0.4337304,0.6135624,0.0,0.0,0.0,0.0
2.22,-0.0633984,-10.0303584,-0.37947600000000004,0.6135624,0.0,0.0,0.0,0.0
2.24,-0.11978640000000002,-10.0846128,-0.4337304,0.6135624,0.0,0.0,0.0,0.0
2.2600000000000002,-0.11247120000000001,-10.0303584,-0.4879848,0.6135624,0.0,0.0,0.0,0.0
2.2800000000000002,0.0493776,-10.0846128,-0.4337304,0.6135624,0.0,0.0,0.0,0.0
2.3000000000000003,-0.15575280000000002,-10.0303584,-0.37947600000000004,0.6135624,0.0,0.0,0.0,0.0
2.3200000000000003,-0.0938784,-10.0846128,-0.4337304,0.6135624,0.0,0.0,0.0,0.0
2.3400000000000003,0.05638800000000001,-10.0303584,-0.4879848,0.6135624,0.0,0.0,0.0,0.0
2.3600000000000003,0.045720000000000004,-10.0303584,-0.37947600000000004,0.6135624,0.0,0.0,0.0,0.0
2.3800000000000003,0.0423672,-10.0303584,-0.37947600000000004,0.6135624,0.0,0.0,0.0,0.0
2.4000000000000004,0.2136648,-10.0303584,-0.4879848,0.6900672,0.0,0.0,0.0,0.0
2.4200000000000004,0.2176272,-10.0303584,-0.37947600000000004,0.5367528,0.0,0.0,0.0,0.0
2.4400000000000004,0.07528560000000001,-10.0846128,-0.4337304,0.6135624,0.0,0.0,0.0,0.0
2.46,0.20421599999999998,-9.976104,-0.4337304,0.6135624,0.0,0.0,0.0,0.0
2.4800000000000004,0.09265920000000002,-10.0303584,-0.37947600000000004,0.5367528,0.0,0.0,0.0,0.0
2.5,0.08442960000000001,-9.976104,-0.4337304,0.5367528,0.0,0.0,0.0,0.0
2.5200000000000005,0.15727680000000002,-10.0303584,-0.4879848,0.5367528,0.0,0.0,0.0,0.0
2.54,0.05151120000000001,-10.0846128,-0.4337304,0.5367528,0.0,0.0,0.0,0.0
2.5600000000000005,0.09540240000000003,-9.976104,-0.3252216,0.6135624,0.0,0.0,0.0,0.0
2.58,0.034137600000000004,-9.976104,-0.4337304,0.6900672,0.0,0.0,0.0,0.0
2.6000000000000005,-0.041757600000000006,-10.0846128,-0.4337304,0.6135624,0.0,0.0,0.0,0.0
2.62,-0.10759439999999999,-10.0846128,-0.4337304,0.6135624,0.0,0.0,0.0,0.0
2.6400000000000006,0.2191512,-9.976104,-0.4337304,0.6135624,0.0,0.0,0.0,0.0
2.66,0.077724,-10.0846128,-0.4337304,0.6135624,0.0,0.0,0.0,0.0
2.6800000000000006,-0.0094488,-10.0303584,-0.4879848,0.5367528,0.0,0.0,0.0,0.0
2.7,0.0963168,-10.0303584,-0.4879848,0.6135624,0.0,0.0,0.0,0.0
2.72,-0.0691896,-10.0846128,-0.4337304,0.6135624,0.0,0.0,0.0,0.0
2.74,0.07498080000000001,-9.976104,-0.4337304,0.5367528,0.0,0.0,0.0,0.0
2.7600000000000002,0.0003048000000000003,-10.0303584,-0.4879848,0.4599432,0.0,0.0,0.0,0.0
2.7800000000000002,0.065532,-9.976104,-0.4337304,0.6135624,0.0,0.0,0.0,0.0
2.8000000000000003,0.0015240000000000015,-10.0303584,-0.4879848,0.5367528,0.0,0.0,0.0,0.0
2.8200000000000003,0.1033272,-10.138867200000002,-0.37947600000000004,0.6135624,0.0,0.0,0.0,0.0
2.8400000000000003,0.10149839999999999,-10.0303584,-0.4879848,0.6900672,0.0,0.0,0.0,0.0
2.8600000000000003,0.1908048,-10.0303584,-0.37947600000000004,0.5367528,0.0,0.0,0.0,0.0
2.8800000000000003,0.11521440000000001,-10.0846128,-0.3252216,0.5367528,0.0,0.0,0.0,0.0
2.9000000000000004,0.19903440000000003,-9.9218496,-0.37947600000000004,0.6135624,0.0,0.0,0.0,0.0
2.9200000000000004,0.08930640000000002,-10.0846128,-0.4337304,0.6135624,0.0,0.0,0.0,0.0
2.9400000000000004,-0.035052,-10.0846128,-0.4337304,0.6135624,0.0,0.0,0.0,0.0
2.96,0.0277368,-10.0303584,-0.4879848,0.5367528,0.0,0.0,0.0,0.0
2.9800000000000004,-0.1886712,-10.0303584,-0.37947600000000004,0.6900672,0.0,0.0,0.0,0.0
3.0,-0.0326136,-10.0303584,-0.37947600000000004,0.6900672,0.0,0.0,0.0,0.0
3.0200000000000005,-0.150876,-9.976104,-0.4337304,0.6135624,0.0,0.0,0.0,0.0
3.04,-0.07741920000000001,-10.0846128,-0.3252216,0.6135624,0.0,0.0,0.0,0.0
3.0600000000000005,-0.0816864,-10.0846128,-0.4337304,0.5367528,0.0,0.0,0.0,0.0
3.08,-0.0027432000000000025,-10.0846128,-0.4337304,0.6135624,0.0,0.0,0.0,0.0
3.1000000000000005,-0.05852160000000001,-9.976104,-0.4337304,0.5367528,0.0,0.0,0.0,0.0
3.12,0.1597152,-9.976104,-0.4337304,0.4599432,0.0,0.0,0.0,0.0
3.1400000000000006,0.1749552,-9.976104,-0.4337304,0.6135624,0.0,0.0,0.0,0.0
3.16,0.2749296,-10.0303584,-0.37947600000000004,0.6135624,0.0,0.0,0.0,0.0
3.1800000000000006,0.2410968,-10.0303584,-0.37947600000000004,0.6135624,0.0,0.0,0.0,0.0
3.2,0.23682960000000003,-10.0303584,-0.37947600000000004,0.6135624,0.0,0.0,0.0,0.0
3.22,0.29230320000000004,-10.0303584,-0.37947600000000004,0.6135624,0.0,0.0,0.0,0.0
3.24,0.18562320000000002,-9.976104,-0.3252216,0.6135624,0.0,0.0,0.0,0.0
3.2600000000000002,0.029260800000000003,-10.0303584,-0.37947600000000004,0.6135624,0.0,0.0,0.0,0.0
3.2800000000000002,0.0192024,-10.0303584,-0.37947600000000004,0.6135624,0.0,0.0,0.0,0.0
3.3000000000000003,-0.015240000000000002,-10.0303584,-0.37947600000000004,0.4599432,0.0,0.0,0.0,0.0
3.3200000000000003,0.0597408,-9.976104,-0.4337304,0.5367528,0.0,0.0,0.0,0.0
3.3400000000000003,0.0804672,-9.976104,-0.4337304,0.6900672,0.0,0.0,0.0,0.0
3.3600000000000003,0.19933920000000002,-9.976104,-0.4337304,0.6900672,0.0,0.0,0.0,0.0
3.3800000000000003,0.1167384,-9.976104,-0.4337304,0.6135624,0.0,0.0,0.0,0.0
3.4000000000000004,0.1085088,-10.0846128,-0.4337304,0.6135624,0.0,0.0,0.0,0.0
3.4200000000000004,0.18562320000000002,-10.0303584,-0.4879848,0.5367528,0.0,0.0,0.0,0.0
3.4400000000000004,0.1359408,-10.0846128,-0.4337304,0.6135624,0.0,0.0,0.0,0.0
3.4600000000000004,-0.019812000000000003,-10.0303584,-0.37947600000000004,0.5367528,0.0,0.0,0.0,0.0
3.4800000000000004,0.0179832,-10.0303584,-0.37947600000000004,0.6135624,0.0,0.0,0.0,0.0
3.5000000000000004,-0.202692,-9.976104,-0.4337304,0.6135624,0.0,0.0,0.0,0.0
3.5200000000000005,-0.150876,-9.976104,-0.3252216,0.6135624,0.0,0.0,0.0,0.0
3.54,-0.12771120000000002,-9.976104,-0.4337304,0.6135624,0.0,0.0,0.0,0.0
3.5600000000000005,-0.048463200000000005,-10.0303584,-0.37947600000000004,0.6135624,0.0,0.0,0.0,0.0
3.58,-0.058216800000000006,-10.0303584,-0.37947600000000004,0.6135624,0.0,0.0,0.0,0.0
3.6000000000000005,0.0179832,-9.9218496,-0.37947600000000004,0.6135624,0.0,0.0,0.0,0.0
3.62,-0.0024384000000000025,-10.0303584,-0.37947600000000004,0.5367528,0.0,0.0,0.0,0.0
3.64,0.15727680000000002,-9.9218496,-0.37947600000000004,0.6135624,0.0,0.0,0.0,0.0
3.66,0.140208,-10.0303584,-0.37947600000000004,0.6900672,0.0,0.0,0.0,0.0
3.68,0.12344400000000001,-10.0303584,-0.37947600000000004,0.6135624,0.0,0.0,0.0,0.0
3.7,0.16520159999999998,-10.0303584,-0.37947600000000004,0.6900672,0.0,0.0,0.0,0.0
3.72,0.15331440000000002,-10.0846128,-0.4337304,0.6135624,0.0,0.0,0.0,0.0
3.74,0.2645664,-9.9218496,-0.4879848,0.6135624,0.0,0.0,0.0,0.0
3.7600000000000002,0.1085088,-10.0303584,-0.4879848,0.5367528,0.0,0.0,0.0,0.0
3.7800000000000002,0.153924,-10.0303584,-0.4879848,0.5367528,0.0,0.0,0.0,0.0
3.8000000000000003,0.1319784,-10.138867200000002,-0.37947600000000004,0.6135624,0.0,0.0,0.0,0.0
3.8200000000000003,0.1609344,-9.976104,-0.5422392,0.6135624,0.0,0.0,0.0,0.0
3.8400000000000003,0.1024128,-10.0303584,-0.4879848,0.6135624,0.0,0.0,0.0,0.0
3.8600000000000003,-0.030784800000000005,-9.9218496,-0.37947600000000004,0.5367528,0.0,0.0,0.0,0.0
3.8800000000000003,-0.0923544,-9.976104,-0.4337304,0.6135624,0.0,0.0,0.0,0.0
3.9000000000000004,0.018288,-9.976104,-0.4337304,0.6135624,0.0,0.0,0.0,0.0
3.9200000000000004,0.14234159999999998,-10.0303584,-0.37947600000000004,0.6135624,0.0,0.0,0.0,0.0
3.9400000000000004,0.1688592,-10.0846128,-0.3252216,0.6135624,0.0,0.0,0.0,0.0
3.9600000000000004,0.1761744,-10.0846128,-0.4337304,0.6135624,0.0,0.0,0.0,0.0
3.9800000000000004,0.27614879999999997,-10.0846128,-0.4337304,0.5367528,0.0,0.0,0.0,0.0
4.0,0.1764792,-10.0846128,-0.4337304,0.6135624,0.0,0.0,0.0,0.0
4.0200000000000005,0.1709928,-10.0846128,-0.4337304,0.6135624,0.0,0.0,0.0,0.0
4.04,0.08930640000000002,-9.9218496,-0.37947600000000004,0.6135624,0.0,0.0,0.0,0.0
4.0600000000000005,0.03870960000000001,-10.0846128,-0.4337304,0.5367528,0.0,0.0,0.0,0.0
4.08,-0.11369040000000001,-10.0303584,-0.37947600000000004,0.6135624,0.0,0.0,0.0,0.0
4.1000000000000005,-0.1664208,-10.0303584,-0.37947600000000004,0.6900672,0.0,0.0,0.0,0.0
4.12,-0.184404,-9.976104,-0.3252216,0.6900672,0.0,0.0,0.0,0.0
4.140000000000001,-0.16002000000000002,-10.0303584,-0.37947600000000004,0.5367528,0.0,0.0,0.0,0.0
4.16,-0.0256032,-10.0303584,-0.37947600000000004,0.6135624,0.0,0.0,0.0,0.0
4.180000000000001,-0.0734568,-9.9218496,-0.4879848,0.6135624,0.0,0.0,0.0,0.0
4.2,-0.043281599999999996,-9.9218496,-0.4879848,0.6900672,0.0,0.0,0.0,0.0
4.220000000000001,-0.13289279999999998,-14.259458400000002,7.427976000000001,5.137404,0.0,0.0,0.0,0.0
4.24,-0.08778240000000001,-9.6508824,0.3252216,-2.9135831999999997,0.0,0.0,0.0,0.0
4.260000000000001,-0.027432,-10.735360799999999,0.3252216,1.9936968000000002,0.0,0.0,0.0,0.0
4.28,-0.1527048,-10.4098344,0.0,0.0,0.0,0.0,0.0,0.0
4.300000000000001,-0.094488,-7.753197600000001,-0.7046976,1.1500104,0.0,0.0,0.0,0.0
4.32,-0.08260080000000002,-12.036552,0.3252216,0.996696,0.0,0.0,0.0,0.0
4.34,-0.060655200000000006,-10.5183432,0.0,1.2268200000000002,0.0,0.0,0.0,0.0
4.36,0.004876800000000005,-8.7834216,0.650748,-1.3801344,0.0,0.0,0.0,0.0
4.38,0.014020800000000005,-11.928043200000001,0.0,0.4599432,0.0,0.0,0.0,0.0
4.4,-0.0646176,-18.3257952,1.8434304000000001,1.7635728,0.0,0.0,0.0,0.0
4.42,0.0018288000000000017,-55.1940984,0.0,1.4569440000000002,0.0,0.0,0.0,0.0
4.44,-0.0445008,-77.6947392,0.7046976,6.8241672,0.0,0.0,0.0,0.0
4.46,-0.004267199999999995,-89.3518152,3.578352,-5.597347200000001,0.0,0.0,0.0,0.0
4.48,0.12832079999999998,-114.2920752,7.807452,14.951964,0.0,0.0,0.0,0.0
4.5,0.339852,-140.04584640000002,5.1508152,-3.2970216000000003,0.0,0.0,0.0,0.0
4.5200000000000005,0.621792,-153.4920984,8.837676,-5.9807856,0.0,0.0,0.0,0.0
4.54,0.7866888000000001,-150.1847136,-71.8934808,-36.8814096,0.0,0.0,0.0,0.0
4.5600000000000005,0.996696,-108.8160384,-0.4879848,17.3287944,0.0,0.0,0.0,0.0
4.58,1.2173712,-79.4839152,25.157277600000004,2.7602688,0.0,0.0,0.0,0.0
4.6000000000000005,1.3709904000000002,-66.417444,3.8496240000000004,7.6675488,0.0,0.0,0.0,0.0
4.62,1.6611600000000002,-57.579768,1.6264128000000002,1.8400776,0.0,0.0,0.0,0.0
4.640000000000001,1.9583400000000004,-51.832764000000005,0.4337304,1.4569440000000002,0.0,0.0,0.0,0.0
4.66,2.4006048000000004,-51.019557600000006,1.2469368,1.8400776,0.0,0.0,0.0,0.0
4.680000000000001,3.0318456,-52.3750032,2.0601432,1.9168872,0.0,0.0,0.0,0.0
4.7,3.4805111999999996,-48.200157600000004,1.5724632,1.0735056,0.0,0.0,0.0,0.0
4.720000000000001,3.9346631999999997,-47.549409600000004,2.1143976,0.6900672,0.0,0.0,0.0,0.0
4.74,4.3305984,-48.037394400000004,1.5182088,0.8433816000000001,0.0,0.0,0.0,0.0
4.760000000000001,5.0752248,-46.7904576,1.030224,0.0,0.0,0.0,0.0,0.0
4.78,5.755538400000001,-45.9772512,2.3856696,1.1500104,0.0,0.0,0.0,0.0
4.800000000000001,6.4736472,-47.00717040000001,2.9818584,1.1500104,0.0,0.0,0.0,0.0
4.82,7.038441600000001,-48.7963464,1.3011912,1.6102584000000002,0.0,0.0,0.0,0.0
4.84,7.584338400000001,-43.266055200000004,1.3011912,0.6900672,0.0,0.0,0.0,0.0
4.86,7.982712000000001,-42.1276272,0.16276320000000002,1.1500104,0.0,0.0,0.0,0.0
4.880000000000001,8.575548000000001,-44.0795664,0.0542544,0.15331440000000002,0.0,0.0,0.0,0.0
4.9,9.309506400000002,-41.85666,0.1085088,1.1500104,0.0,0.0,0.0,0.0
4.92,9.8337624,-39.57949920000001,1.4097000000000002,1.9936968000000002,0.0,0.0,0.0,0.0
4.94,10.2421944,-37.5190512,0.3252216,1.0735056,0.0,0.0,0.0,0.0
4.96,10.7323128,-40.44696,1.9519392,1.2268200000000002,0.0,0.0,0.0,0.0
4.98,11.3391696,-40.175688,1.4639544,0.6135624,0.0,0.0,0.0,0.0
5.0,12.0100344,-43.75404,1.5724632,1.1500104,0.0,0.0,0.0,0.0
5.0200000000000005,12.7098552,-41.964864000000006,0.650748,2.0702016,0.0,0.0,0.0,0.0
5.04,13.4221728,-40.3384512,0.8674608,0.4599432,0.0,0.0,0.0,0.0
5.0600000000000005,14.282928,-41.6396424,1.4097000000000002,1.3801344,0.0,0.0,0.0,0.0
5.08,15.008961600000003,-40.1214336,0.1085088,0.0,0.0,0.0,0.0,0.0
5.1000000000000005,15.914217600000002,-39.1997184,0.16276320000000002,0.6135624,0.0,0.0,0.0,0.0
5.12,16.687190400000002,-38.1697992,2.1686520000000002,1.3801344,0.0,0.0,0.0,0.0
5.140000000000001,17.4510192,-38.983005600000006,0.8132064000000001,0.6135624,0.0,0.0,0.0,0.0
5.16,18.0975,-38.4407664,1.6806672000000002,1.9168872,0.0,0.0,0.0,0.0
5.180000000000001,18.878397600000003,-37.410542400000004,1.3011912,0.15331440000000002,0.0,0.0,0.0,0.0
5.2,19.6711824,-38.2237488,3.5240976,1.1500104,0.0,0.0,0.0,0.0
5.220000000000001,20.491704,-41.6396424,1.6264128000000002,1.6102584000000002,0.0,0.0,0.0,0.0
5.24,21.245779199999998,-36.976812,0.3252216,3.5271456,0.0,0.0,0.0,0.0
5.26,22.142196,-34.8624144,0.16276320000000002,1.9936968000000002,0.0,0.0,0.0,0.0
5.28,23.020934399999998,-34.2659208,1.5182088,0.6900672,0.0,0.0,0.0,0.0
5.300000000000001,23.7893352,-34.157412,0.5422392,-0.4599432,0.0,0.0,0.0,0.0
5.32,24.505005599999997,-35.2961448,1.6806672000000002,-0.5367528,0.0,0.0,0.0,0.0
5.34,25.4596392,-36.1093512,3.2531304000000003,1.1500104,0.0,0.0,0.0,0.0
5.36,26.4773664,-33.5069688,1.4097000000000002,-1.1500104,0.0,0.0,0.0,0.0
5.380000000000001,27.3612864,-34.916668800000004,1.9519392,0.23012400000000002,0.0,0.0,0.0,0.0
5.4,28.333903199999998,-33.127492800000006,1.6806672000000002,0.4599432,0.0,0.0,0.0,0.0
5.42,29.108400000000003,-34.6996512,0.7589520000000001,2.5304496,0.0,0.0,0.0,0.0
5.44,29.9078904,-36.0550968,1.2469368,0.3834384,0.0,0.0,0.0,0.0
5.46,30.917388,-35.512857600000004,-2.1143976,-0.4599432,0.0,0.0,0.0,0.0
5.48,31.9616328,-35.458908,1.4097000000000002,-2.0702016,0.0,0.0,0.0,0.0
5.5,33.0637896,-34.2659208,0.7589520000000001,0.7668768,0.0,0.0,0.0,0.0
5.5200000000000005,33.969350399999996,-33.615477600000006,2.7108912000000003,3.2205168000000004,0.0,0.0,0.0,0.0
5.54,34.9008192,-34.2116664,0.8132064000000001,1.2268200000000002,0.0,0.0,0.0,0.0
5.5600000000000005,36.0401616,-32.747712,1.3011912,0.0,0.0,0.0,0.0,0.0
5.58,36.9155472,-34.7539056,2.4399240000000004,-1.1500104,0.0,0.0,0.0,0.0
5.6000000000000005,37.9219968,-30.6875688,-0.650748,1.1500104,0.0,0.0,0.0,0.0
5.62,38.724230399999996,-31.6635384,2.7108912000000003,-2.1470112,0.0,0.0,0.0,0.0
5.640000000000001,39.69410400000001,-32.205777600000005,1.9519392,-0.30662880000000003,0.0,0.0,0.0,0.0
5.66,40.6277064,-30.4705512,0.5422392,2.6069544000000002,0.0,0.0,0.0,0.0
5.680000000000001,41.666160000000005,-28.898392800000003,0.4879848,1.9168872,0.0,0.0,0.0,0.0
5.7,42.803064000000006,-32.747712,1.8434304000000001,-1.0735056,0.0,0.0,0.0,0.0
5.720000000000001,43.86468240000001,-31.284062400000003,3.0903671999999998,2.7602688,0.0,0.0,0.0,0.0
5.74,44.951904000000006,-30.2538384,1.7349216,0.6135624,0.0,0.0,0.0,0.0
5.76,45.90775680000001,-31.500775200000003,2.3314152,0.15331440000000002,0.0,0.0,0.0,0.0
5.78,46.9044528,-31.229808,3.2531304000000003,-1.1500104,0.0,0.0,0.0,0.0
5.800000000000001,48.05781600000001,-30.091075200000002,2.6566368,-0.30662880000000003,0.0,0.0,0.0,0.0
5.82,49.235258400000006,-27.9224232,2.1143976,-0.15331440000000002,0.0,0.0,0.0,0.0
5.84,50.381916000000004,-27.2177256,-0.650748,3.3738312000000006,0.0,0.0,0.0,0.0
5.86,51.6709152,-28.4646624,-2.0061936,-0.6135624,0.0,0.0,0.0,0.0
5.880000000000001,52.9824696,-31.012790400000004,3.1446216000000002,1.6867632000000001,0.0,0.0,0.0,0.0
5.9,54.0962088,-36.597336,-4.2833544,-1.4569440000000002,0.0,0.0,0.0,0.0
5.92,55.3885608,-34.157412,-0.9759696,-2.3003256,0.0,0.0,0.0,0.0
5.94,56.565088800000005,-28.627120800000004,-1.4097000000000002,0.9201912000000001,0.0,0.0,0.0,0.0
5.96,57.677913600000004,-28.9526472,2.7108912000000003,-2.0702016,0.0,0.0,0.0,0.0
5.98,59.044636800000006,-33.0732384,2.8194000000000004,1.4569440000000002,0.0,0.0,0.0,0.0
6.0,60.417456,-32.1515232,-0.2709672,-1.0735056,0.0,0.0,0.0,0.0
6.0200000000000005,61.693653600000005,-30.308092800000004,-2.8736544000000004,-4.677156,0.0,0.0,0.0,0.0
6.04,62.743994400000005,-27.000708,4.988052,5.137404,0.0,0.0,0.0,0.0
6.0600000000000005,63.940944,-25.265786400000003,1.8434304000000001,1.9168872,0.0,0.0,0.0,0.0
6.08,65.2052544,-26.5127232,5.5845456,3.2970216000000003,0.0,0.0,0.0,0.0
6.1000000000000005,66.3735528,-24.072799200000002,-2.1686520000000002,0.8433816000000001,0.0,0.0,0.0,0.0
6.12,67.6832784,-30.850332,3.5240976,4.370527200000001,0.0,0.0,0.0,0.0
6.140000000000001,68.80799040000001,-30.4705512,4.3376088,1.8400776,0.0,0.0,0.0,0.0
6.16,69.985128,-20.3859384,-2.0601432,-0.30662880000000003,0.0,0.0,0.0,0.0
6.180000000000001,71.33356320000001,-24.235562400000003,0.5964936000000001,2.9135831999999997,0.0,0.0,0.0,0.0
6.2,72.45949440000001,-25.591008,0.9759696,1.8400776,0.0,0.0,0.0,0.0
6.220000000000001,73.5729288,-24.7778016,2.7651456,2.9135831999999997,0.0,0.0,0.0,0.0
6.24,74.79243360000001,-23.259592800000004,-1.3554456000000001,3.1437072,0.0,0.0,0.0,0.0
6.26,75.9521976,-23.856086400000002,-2.0601432,-1.3036296,0.0,0.0,0.0,0.0
6.28,77.12872560000001,-22.7173536,-0.4879848,2.0702016,0.0,0.0,0.0,0.0
6.300000000000001,78.3189696,-19.572732000000002,1.030224,3.910584,0.0,0.0,0.0,0.0
6.32,79.5933384,-21.361908,-0.8674608,3.1437072,0.0,0.0,0.0,0.0
6.34,80.87319360000001,-4.7713392,1.6264128000000002,-3.8337744,0.0,0.0,0.0,0.0
6.36,82.0100976,7.3194672,3.5240976,-3.0672024,0.0,0.0,0.0,0.0
6.380000000000001,83.02111919999999,14.964156000000001,-0.8674608,-0.5367528,0.0,0.0,0.0,0.0
6.4,84.14887920000001,15.506395200000002,-3.0361128,1.8400776,0.0,0.0,0.0,0.0
6.42,85.3443048,12.6327408,1.1387328,-0.3834384,0.0,0.0,0.0,0.0
6.44,86.528148,13.608710400000001,3.5240976,0.0768096,0.0,0.0,0.0,0.0
6.460000000000001,87.5845848,13.229234400000001,2.6023824,1.9168872,0.0,0.0,0.0,0.0
6.48,88.5806712,9.4338648,-0.5422392,-2.5304496,0.0,0.0,0.0,0.0
6.5,89.592912,10.789310400000002,3.7411152,0.3834384,0.0,0.0,0.0,0.0
6.5200000000000005,90.6469104,14.6389344,-1.4097000000000002,-3.3738312000000006,0.0,0.0,0.0,0.0
6.540000000000001,91.6759152,14.747443200000001,-3.0361128,-3.9870888,0.0,0.0,0.0,0.0
6.5600000000000005,92.6162232,10.355580000000002,0.4879848,-2.3003256,0.0,0.0,0.0,0.0
6.58,93.54860640000001,10.4640888,0.2709672,0.6135624,0.0,0.0,0.0,0.0
6.6,94.45843439999999,9.9218496,1.4639544,0.996696,0.0,0.0,0.0,0.0
6.62,95.34448800000001,9.488119200000002,3.957828,-1.9936968000000002,0.0,0.0,0.0,0.0
6.640000000000001,96.09307679999999,13.3377432,-0.7589520000000001,-1.1500104,0.0,0.0,0.0,0.0
6.66,96.83404560000001,13.8799824,0.2170176,-1.2268200000000002,0.0,0.0,0.0,0.0
6.68,97.6649304,13.174980000000001,2.6566368,4.6006512,0.0,0.0,0.0,0.0
6.7,98.35804560000001,10.5183432,1.7349216,-1.3801344,0.0,0.0,0.0,0.0
6.720000000000001,99.3062784,10.5725976,0.9217152000000001,0.3834384,0.0,0.0,0.0,0.0
6.74,100.353876,9.108643200000001,-0.650748,0.0768096,0.0,0.0,0.0,0.0
6.76,101.352096,9.3256608,-0.2170176,-1.3801344,0.0,0.0,0.0,0.0
6.78,102.3926832,10.247376,2.6566368,1.6867632000000001,0.0,0.0,0.0,0.0
6.800000000000001,103.3464024,9.867595200000002,3.7953696000000003,2.683764,0.0,0.0,0.0,0.0
6.82,104.3327352,10.0846128,3.4698432,1.9936968000000002,0.0,0.0,0.0,0.0
6.84,105.27609120000001,11.1148368,-1.789176,-2.7602688,0.0,0.0,0.0,0.0
6.86,106.1042328,10.4640888,-2.9818584,-0.3834384,0.0,0.0,0.0,0.0
6.880000000000001,107.0536848,9.3256608,3.578352,0.9201912000000001,0.0,0.0,0.0,0.0
6.9,107.94522479999999,10.626852000000001,-1.7349216,-3.0672024,0.0,0.0,0.0,0.0
6.92,108.71972160000001,10.138867200000002,2.9818584,-0.9201912000000001,0.0,0.0,0.0,0.0
6.94,109.45246080000001,7.3194672,-1.8976848000000002,-0.6900672,0.0,0.0,0.0,0.0
6.960000000000001,110.22025199999999,10.4640888,-0.2709672,3.2970216000000003,0.0,0.0,0.0,0.0
6.98,110.9170248,9.6508824,0.8674608,3.0672024,0.0,0.0,0.0,0.0
7.0,111.6555552,8.6206584,-0.16276320000000002,0.15331440000000002,0.0,0.0,0.0,0.0
7.0200000000000005,112.5409992,8.8919304,2.8194000000000004,1.1500104,0.0,0.0,0.0,0.0
7.040000000000001,113.4462552,8.4582,-0.1085088,0.996696,0.0,0.0,0.0,0.0
7.0600000000000005,114.225324,7.6989432,0.8674608,0.9201912000000001,0.0,0.0,0.0,0.0
7.08,114.97147439999999,9.7593912,0.8674608,-1.6867632000000001,0.0,0.0,0.0,0.0
7.1,115.67129519999999,9.7051368,-0.5964936000000001,2.223516,0.0,0.0,0.0,0.0
7.12,116.36380079999999,7.5364848,1.4639544,-1.3036296,0.0,0.0,0.0,0.0
7.140000000000001,117.1206192,8.0784192,-1.1387328,-0.8433816000000001,0.0,0.0,0.0,0.0
7.16,117.95699040000001,6.9399912,1.9519392,-1.4569440000000002,0.0,0.0,0.0,0.0
7.18,118.7671488,8.3496912,0.0,-0.6900672,0.0,0.0,0.0,0.0
7.2,119.5687728,6.343497600000001,4.8252888,-1.6867632000000001,0.0,0.0,0.0,0.0
7.220000000000001,120.29480640000001,9.488119200000002,-1.8976848000000002,-2.4536400000000005,0.0,0.0,0.0,0.0
7.24,121.0135248,9.1628976,-1.3554456000000001,-1.1500104,0.0,0.0,0.0,0.0
7.26,121.796556,7.3194672,0.4879848,-0.6135624,0.0,0.0,0.0,0.0
7.28,122.6685888,6.614769600000001,-0.8674608,-2.5304496,0.0,0.0,0.0,0.0
7.300000000000001,123.54732720000001,5.5845456,1.4639544,-0.996696,0.0,0.0,0.0,0.0
7.32,124.2815904,4.7170848,-0.2709672,-0.30662880000000003,0.0,0.0,0.0,0.0
7.34,125.06462160000001,8.0784192,0.16276320000000002,-1.3801344,0.0,0.0,0.0,0.0
7.36,125.7388392,4.933797600000001,2.4399240000000004,-0.4599432,0.0,0.0,0.0,0.0
7.380000000000001,126.459996,5.7470040000000004,1.1926824,0.0,0.0,0.0,0.0,0.0
7.4,127.14183360000001,8.1326736,-1.3011912,0.4599432,0.0,0.0,0.0,0.0
7.42,127.84836,5.476036800000001,-0.5964936000000001,-0.996696,0.0,0.0,0.0,0.0
7.44,128.6807688,6.1807343999999995,0.8674608,-1.1500104,0.0,0.0,0.0,0.0
7.460000000000001,129.4677624,5.205069600000001,-0.3252216,-2.7602688,0.0,0.0,0.0,0.0
7.48,130.22275199999999,4.7713392,0.9759696,-0.7668768,0.0,0.0,0.0,0.0
7.5,130.91129519999998,5.1508152,0.2709672,-1.5334488,0.0,0.0,0.0,0.0
7.5200000000000005,131.5785024,7.3737216000000005,0.2170176,0.9201912000000001,0.0,0.0,0.0,0.0
7.540000000000001,132.2630832,3.957828,1.789176,-0.9201912000000001,0.0,0.0,0.0,0.0
7.5600000000000005,133.0077096,6.668719200000001,-1.030224,0.7668768,0.0,0.0,0.0,0.0
7.58,133.7367912,2.3856696,1.5182088,-2.223516,0.0,0.0,0.0,0.0
7.6,134.41466640000002,6.5605152,0.16276320000000002,0.15331440000000002,0.0,0.0,0.0,0.0
7.62,135.241284,6.1807343999999995,0.7589520000000001,0.15331440000000002,0.0,0.0,0.0,0.0
7.640000000000001,135.8743536,4.2833544,0.8132064000000001,0.23012400000000002,0.0,0.0,0.0,0.0
7.66,136.4994984,6.2349888,-1.4639544,-1.1500104,0.0,0.0,0.0,0.0
7.68,137.1974904,4.2833544,0.16276320000000002,0.0768096,0.0,0.0,0.0,0.0
7.7,137.8543344,6.777228,-0.8132064000000001,-0.5367528,0.0,0.0,0.0,0.0
7.720000000000001,138.5108736,8.1326736,0.2170176,1.5334488,0.0,0.0,0.0,0.0
7.74,139.109196,5.801258400000001,-1.2469368,-1.2268200000000002,0.0,0.0,0.0,0.0
7.76,139.7072136,7.3737216000000005,-0.650748,0.0,0.0,0.0,0.0,0.0
7.78,140.1994656,5.096560800000001,-1.7349216,0.3834384,0.0,0.0,0.0,0.0
7.800000000000001,140.7356088,4.1748456,0.16276320000000002,0.4599432,0.0,0.0,0.0,0.0
7.82,141.3177768,3.7411152,0.4879848,-1.0735056,0.0,0.0,0.0,0.0
7.84,141.8170392,6.668719200000001,2.3314152,-2.3768304000000002,0.0,0.0,0.0,0.0
7.86,142.3821384,3.8496240000000004,0.8132064000000001,-0.0768096,0.0,0.0,0.0,0.0
7.880000000000001,142.9259016,4.8252888,-1.2469368,0.0768096,0.0,0.0,0.0,0.0
7.9,143.47667520000002,2.8194000000000004,-1.3011912,0.6900672,0.0,0.0,0.0,0.0
7.92,144.1393104,6.885736800000001,2.2229064000000003,-0.30662880000000003,0.0,0.0,0.0,0.0
7.94,144.7086768,3.3616392,-2.6023824,-0.15331440000000002,0.0,0.0,0.0,0.0
7.960000000000001,145.45757039999998,3.198876,-1.8976848000000002,0.7668768,0.0,0.0,0.0,0.0
7.98,145.9857888,4.988052,2.9279088,0.23012400000000002,0.0,0.0,0.0,0.0
8.0,146.67738,5.421782400000001,0.2170176,0.6900672,0.0,0.0,0.0,0.0
8.02,147.322032,5.1508152,1.4639544,-1.1500104,0.0,0.0,0.0,0.0
8.040000000000001,147.8871312,3.1446216000000002,-2.1686520000000002,0.4599432,0.0,0.0,0.0,0.0
8.06,148.408644,2.7651456,-2.7651456,1.2268200000000002,0.0,0.0,0.0,0.0
8.08,148.8259152,1.6264128000000002,-2.7108912000000003,-0.0768096,0.0,0.0,0.0,0.0
8.1,149.44923119999999,5.1508152,2.0061936,-1.3801344,0.0,0.0,0.0,0.0
8.120000000000001,150.04663920000002,2.9818584,-1.030224,-0.15331440000000002,0.0,0.0,0.0,0.0
8.14,150.6105192,3.2531304000000003,0.4337304,0.0768096,0.0,0.0,0.0,0.0
8.16,151.2414552,4.5000672,2.548128,0.6135624,0.0,0.0,0.0,0.0
8.18,151.79923920000002,2.9818584,-2.548128,0.5367528,0.0,0.0,0.0,0.0
8.2,152.4118872,2.3856696,-2.2771608000000003,0.996696,0.0,0.0,0.0,0.0
8.22,152.9672328,5.367528,-0.4879848,-1.1500104,0.0,0.0,0.0,0.0
8.24,153.567384,5.259324,4.3915584,-0.23012400000000002,0.0,0.0,0.0,0.0
8.26,154.1093184,5.1508152,2.2229064000000003,0.8433816000000001,0.0,0.0,0.0,0.0
8.280000000000001,154.6302216,3.578352,-2.9279088,1.0735056,0.0,0.0,0.0,0.0
8.3,155.10510000000002,4.608576,2.6566368,-0.7668768,0.0,0.0,0.0,0.0
8.32,155.5915608,2.8736544000000004,0.4879848,1.0735056,0.0,0.0,0.0,0.0
8.34,156.0752784,4.0663368,1.3554456000000001,-2.0702016,0.0,0.0,0.0,0.0
8.36,156.5123616,2.548128,-1.2469368,1.2268200000000002,0.0,0.0,0.0,0.0
8.379999999999999,156.9701712,3.7411152,-0.9217152000000001,-1.7635728,0.0,0.0,0.0,0.0
8.4,157.4941224,2.8194000000000004,-2.1686520000000002,-1.6102584000000002,0.0,0.0,0.0,0.0
8.42,157.9558944,2.8736544000000004,1.5724632,0.23012400000000002,0.0,0.0,0.0,0.0
8.440000000000001,158.37651839999998,3.9035736000000005,0.3252216,-1.8400776,0.0,0.0,0.0,0.0
8.46,158.76330959999999,2.9818584,-0.9217152000000001,-1.9936968000000002,0.0,0.0,0.0,0.0
8.48,159.149796,2.3856696,-0.7589520000000001,0.3834384,0.0,0.0,0.0,0.0
8.5,159.6143112,2.6023824,-1.3011912,1.4569440000000002,0.0,0.0,0.0,0.0
8.52,159.972756,2.2771608000000003,0.7589520000000001,1.6867632000000001,0.0,0.0,0.0,0.0
8.54,160.358328,3.0361128,1.8434304000000001,1.3801344,0.0,0.0,0.0,0.0
8.56,160.829244,1.8976848000000002,1.2469368,1.4569440000000002,0.0,0.0,0.0,0.0
8.58,161.21877840000002,3.2531304000000003,1.6264128000000002,1.3036296,0.0,0.0,0.0,0.0
8.600000000000001,161.67110160000001,2.2771608000000003,0.0,0.6135624,0.0,0.0,0.0,0.0
8.620000000000001,162.0380808,2.4399240000000004,0.2709672,-1.0735056,0.0,0.0,0.0,0.0
8.64,162.5184456,2.4399240000000004,-0.2709672,0.23012400000000002,0.0,0.0,0.0,0.0
8.66,162.8589072,2.9279088,0.1085088,-0.9201912000000001,0.0,0.0,0.0,0.0
8.68,163.202112,2.7651456,0.16276320000000002,0.0,0.0,0.0,0.0,0.0
8.7,163.54714560000002,2.0601432,-0.3252216,-0.30662880000000003,0.0,0.0,0.0,0.0
8.72,163.953444,2.0601432,0.3252216,-1.4569440000000002,0.0,0.0,0.0,0.0
8.74,164.37742079999998,1.6806672000000002,-0.37947600000000004,-0.996696,0.0,0.0,0.0,0.0
8.760000000000002,164.81846639999998,1.8434304000000001,0.0,0.15331440000000002,0.0,0.0,0.0,0.0
8.780000000000001,165.238176,1.5724632,0.2709672,-0.5367528,0.0,0.0,0.0,0.0
8.8,165.63594,1.7349216,0.3252216,0.0,0.0,0.0,0.0,0.0
8.82,165.9242808,2.2771608000000003,0.1085088,0.4599432,0.0,0.0,0.0,0.0
8.84,166.38087120000003,1.9519392,-0.1085088,-0.3834384,0.0,0.0,0.0,0.0
8.86,166.7435832,2.1686520000000002,-0.2170176,-0.996696,0.0,0.0,0.0,0.0
8.879999999999999,167.1901152,2.0601432,0.2170176,0.15331440000000002,0.0,0.0,0.0,0.0
8.9,167.57081040000003,1.8976848000000002,0.2709672,-1.2268200000000002,0.0,0.0,0.0,0.0
8.92,167.93748480000002,2.1686520000000002,-0.2170176,-0.15331440000000002,0.0,0.0,0.0,0.0
8.940000000000001,168.36603359999998,1.8976848000000002,0.16276320000000002,0.6135624,0.0,0.0,0.0,0.0
8.96,168.7055808,2.0601432,-0.2170176,0.15331440000000002,0.0,0.0,0.0,0.0
8.98,169.0399464,1.6806672000000002,0.37947600000000004,-0.996696,0.0,0.0,0.0,0.0
9.0,169.3023792,1.6806672000000002,0.2709672,0.6135624,0.0,0.0,0.0,0.0
9.02,169.592244,1.5182088,0.1085088,-0.9201912000000001,0.0,0.0,0.0,0.0
9.04,169.8656496,1.6806672000000002,-0.37947600000000004,-0.23012400000000002,0.0,0.0,0.0,0.0
9.06,170.1488088,1.3011912,0.2170176,-1.4569440000000002,0.0,0.0,0.0,0.0
9.08,170.48378399999999,1.6806672000000002,-0.2709672,-0.6135624,0.0,0.0,0.0,0.0
9.100000000000001,170.70354479999997,1.3011912,0.2170176,-0.23012400000000002,0.0,0.0,0.0,0.0
9.120000000000001,170.9888376,1.789176,-0.16276320000000002,-0.5367528,0.0,0.0,0.0,0.0
9.14,171.36709439999998,1.4097000000000002,0.3252216,-0.4599432,0.0,0.0,0.0,0.0
9.16,171.672504,1.1926824,0.0,0.23012400000000002,0.0,0.0,0.0,0.0
9.18,172.04435999999998,1.6264128000000002,0.7589520000000001,-0.5367528,0.0,0.0,0.0,0.0
9.2,172.3814688,1.5182088,-0.3252216,0.30662880000000003,0.0,0.0,0.0,0.0
9.22,172.672248,1.5182088,0.0,0.4599432,0.0,0.0,0.0,0.0
9.24,172.9502256,1.4639544,-0.37947600000000004,-0.6135624,0.0,0.0,0.0,0.0
9.260000000000002,173.2294224,1.3554456000000001,-0.2709672,-0.30662880000000003,0.0,0.0,0.0,0.0
9.280000000000001,173.5598256,1.1387328,-0.0542544,-0.7668768,0.0,0.0,0.0,0.0
9.3,173.9301576,1.2469368,-0.16276320000000002,-0.5367528,0.0,0.0,0.0,0.0
9.32,174.194724,1.2469368,-0.4879848,-0.6135624,0.0,0.0,0.0,0.0
9.34,174.427896,1.1387328,0.0542544,-0.4599432,0.0,0.0,0.0,0.0
9.36,174.5644464,1.1926824,0.1085088,-0.3834384,0.0,0.0,0.0,0.0
9.379999999999999,174.74946,1.2469368,-0.0542544,0.23012400000000002,0.0,0.0,0.0,0.0
9.4,174.9042984,1.2469368,0.0542544,-0.3834384,0.0,0.0,0.0,0.0
9.42,175.09845600000003,1.1387328,0.16276320000000002,-0.30662880000000003,0.0,0.0,0.0,0.0
9.440000000000001,175.3246176,0.9759696,0.2170176,-0.0768096,0.0,0.0,0.0,0.0
9.46,175.6144824,1.1387328,0.2709672,-0.23012400000000002,0.0,0.0,0.0,0.0
9.48,175.9238544,0.8674608,0.2170176,-0.30662880000000003,0.0,0.0,0.0,0.0
9.5,176.17958159999998,1.030224,0.16276320000000002,-0.15331440000000002,0.0,0.0,0.0,0.0
9.52,176.42189760000002,1.0844784,0.3252216,-0.8433816000000001,0.0,0.0,0.0,0.0
9.54,176.7263928,1.1926824,0.3252216,-0.5367528,0.0,0.0,0.0,0.0
9.56,176.980596,0.9759696,0.3252216,0.23012400000000002,0.0,0.0,0.0,0.0
9.58,177.2561352,1.1387328,0.0542544,-0.15331440000000002,0.0,0.0,0.0,0.0
9.600000000000001,177.47437200000002,0.9217152000000001,0.2709672,-0.7668768,0.0,0.0,0.0,0.0
9.620000000000001,177.7203456,0.9759696,0.0,0.23012400000000002,0.0,0.0,0.0,0.0
9.64,177.971196,1.030224,-0.2709672,-0.23012400000000002,0.0,0.0,0.0,0.0
9.66,178.15620959999998,0.9759696,0.1085088,-0.8433816000000001,0.0,0.0,0.0,0.0
9.68,178.36347360000002,1.0844784,0.1085088,0.0,0.0,0.0,0.0,0.0
9.7,178.5207504,0.9759696,0.1085088,0.23012400000000002,0.0,0.0,0.0,0.0
9.72,178.80421439999998,0.8674608,0.3252216,-0.8433816000000001,0.0,0.0,0.0,0.0
9.74,179.01239280000001,1.0844784,0.1085088,-0.6900672,0.0,0.0,0.0,0.0
9.760000000000002,179.19893040000002,0.9217152000000001,0.37947600000000004,-0.15331440000000002,0.0,0.0,0.0,0.0
9.780000000000001,179.2687296,0.9759696,0.1085088,0.0,0.0,0.0,0.0,0.0
9.8,179.3851632,0.7589520000000001,0.4337304,-0.0768096,0.0,0.0,0.0,0.0
9.82,179.5497552,0.7589520000000001,0.2170176,-0.6900672,0.0,0.0,0.0,0.0
9.84,179.6914872,0.8674608,0.0,0.23012400000000002,0.0,0.0,0.0,0.0
9.86,179.8103592,0.8674608,0.1085088,0.23012400000000002,0.0,0.0,0.0,0.0
9.879999999999999,179.9228304,0.8132064000000001,0.2709672,-0.23012400000000002,0.0,0.0,0.0,0.0
9.9,180.0785832,0.8132064000000001,-0.0542544,-0.6135624,0.0,0.0,0.0,0.0
9.92,180.238908,0.9217152000000001,0.16276320000000002,0.15331440000000002,0.0,0.0,0.0,0.0
9.940000000000001,180.35503680000002,0.8132064000000001,0.37947600000000004,-0.15331440000000002,0.0,0.0,0.0,0.0
9.96,180.44403839999998,0.9217152000000001,0.16276320000000002,-0.0768096,0.0,0.0,0.0,0.0
9.98,180.606192,0.7046976,0.4879848,-0.4599432,0.0,0.0,0.0,0.0
10.0,180.7390848,0.9217152000000001,0.2709672,0.0,0.0,0.0,0.0,0.0
10.02,180.82138080000001,0.9217152000000001,0.16276320000000002,-0.4599432,0.0,0.0,0.0,0.0
10.04,180.9301944,0.7046976,0.4879848,-0.996696,0.0,0.0,0.0,0.0
10.06,181.0789368,0.8674608,0.3252216,-0.4599432,0.0,0.0,0.0,0.0
10.08,181.18988399999998,0.7589520000000001,0.0,-0.4599432,0.0,0.0,0.0,0.0
10.100000000000001,181.3005264,0.7589520000000001,0.2170176,0.23012400000000002,0.0,0.0,0.0,0.0
10.120000000000001,181.3431984,0.8132064000000001,0.7046976,-0.23012400000000002,0.0,0.0,0.0,0.0
10.14,181.51967760000002,0.7046976,0.0542544,0.0768096,0.0,0.0,0.0,0.0
10.16,181.6214808,0.8132064000000001,0.16276320000000002,0.23012400000000002,0.0,0.0,0.0,0.0
10.18,181.69402319999998,0.8132064000000001,0.2709672,-0.0768096,0.0,0.0,0.0,0.0
10.2,181.7851584,0.8132064000000001,0.37947600000000004,-0.15331440000000002,0.0,0.0,0.0,0.0
10.22,181.8409368,0.7046976,0.0542544,0.4599432,0.0,0.0,0.0,0.0
10.24,181.9921176,0.7589520000000001,0.2170176,0.23012400000000002,0.0,0.0,0.0,0.0
10.260000000000002,182.0009568,0.7589520000000001,0.4337304,-0.23012400000000002,0.0,0.0,0.0,0.0
10.280000000000001,182.0674032,0.8132064000000001,-0.16276320000000002,0.0768096,0.0,0.0,0.0,0.0
10.3,182.1463464,0.8132064000000001,-0.0542544,-0.15331440000000002,0.0,0.0,0.0,0.0
10.32,182.18078880000002,0.7046976,0.37947600000000004,0.0,0.0,0.0,0.0,0.0
10.34,182.2121832,0.650748,0.4337304,-0.0768096,0.0,0.0,0.0,0.0
10.36,182.3234352,0.650748,-0.2170176,-0.30662880000000003,0.0,0.0,0.0,0.0
10.379999999999999,182.3722032,0.650748,0.3252216,0.23012400000000002,0.0,0.0,0.0,0.0
10.4,182.3792136,0.7046976,0.2709672,-0.3834384,0.0,0.0,0.0,0.0
10.42,182.4011592,0.7046976,0.0542544,-0.15331440000000002,0.0,0.0,0.0,0.0
10.440000000000001,182.3776896,0.650748,-0.2170176,-0.30662880000000003,0.0,0.0,0.0,0.0
10.46,182.4453552,0.7589520000000001,0.3252216,-0.3834384,0.0,0.0,0.0,0.0
10.48,182.4609,0.5964936000000001,-0.16276320000000002,-0.23012400000000002,0.0,0.0,0.0,0.0
10.5,182.5057056,0.650748,0.4337304,-0.6135624,0.0,0.0,0.0,0.0
10.52,182.50143839999998,0.7046976,0.16276320000000002,-0.3834384,0.0,0.0,0.0,0.0
10.54,182.5273464,0.7589520000000001,0.2170176,-0.30662880000000003,0.0,0.0,0.0,0.0
10.56,182.5709328,0.7046976,0.37947600000000004,-0.3834384,0.0,0.0,0.0,0.0
10.58,182.5898304,0.5964936000000001,0.0542544,0.15331440000000002,0.0,0.0,0.0,0.0
10.600000000000001,182.6035464,0.4337304,0.2170176,0.0,0.0,0.0,0.0,0.0
10.620000000000001,182.63616,0.650748,0.4337304,0.15331440000000002,0.0,0.0,0.0,0.0
10.64,182.6471328,0.650748,0.1085088,-0.23012400000000002,0.0,0.0,0.0,0.0
10.66,182.5953168,0.5422392,0.3252216,-0.4599432,0.0,0.0,0.0,0.0
10.68,182.570628,0.5964936000000001,0.37947600000000004,0.23012400000000002,0.0,0.0,0.0,0.0
10.7,182.5605696,0.8132064000000001,0.2709672,0.15331440000000002,0.0,0.0,0.0,0.0
10.72,182.57489520000001,0.7046976,0.4879848,-0.23012400000000002,0.0,0.0,0.0,0.0
10.74,182.6236632,0.650748,0.4337304,-0.30662880000000003,0.0,0.0,0.0,0.0
10.760000000000002,182.6035464,0.7589520000000001,0.2170176,0.3834384,0.0,0.0,0.0,0.0
10.780000000000001,182.52765119999998,0.7589520000000001,0.3252216,-0.6900672,0.0,0.0,0.0,0.0
10.8,182.47492079999998,0.5422392,0.1085088,0.0768096,0.0,0.0,0.0,0.0
10.82,182.39414879999998,0.4879848,0.16276320000000002,-0.0768096,0.0,0.0,0.0,0.0
10.84,182.3401992,0.8674608,0.3252216,0.0768096,0.0,0.0,0.0,0.0
10.86,182.250588,0.5964936000000001,-0.0542544,-0.3834384,0.0,0.0,0.0,0.0
10.879999999999999,182.2472352,0.5964936000000001,0.0542544,-0.30662880000000003,0.0,0.0,0.0,0.0
10.9,182.2481496,0.7046976,0.4879848,-0.30662880000000003,0.0,0.0,0.0,0.0
10.92,182.264304,0.7589520000000001,-0.1085088,-0.0768096,0.0,0.0,0.0,0.0
10.940000000000001,182.18901839999998,0.8132064000000001,0.16276320000000002,-0.0768096,0.0,0.0,0.0,0.0
10.96,182.0832528,0.650748,-0.2170176,-0.23012400000000002,0.0,0.0,0.0,0.0
10.98,182.0430192,0.5964936000000001,0.16276320000000002,-0.5367528,0.0,0.0,0.0,0.0
11.0,181.906164,0.7046976,0.37947600000000004,-0.4599432,0.0,0.0,0.0,0.0
11.02,181.90311599999998,0.5964936000000001,-0.0542544,-0.0768096,0.0,0.0,0.0,0.0
11.04,181.87141680000002,0.8132064000000001,0.16276320000000002,-0.0768096,0.0,0.0,0.0,0.0
11.06,181.82630640000002,0.7046976,0.37947600000000004,-0.23012400000000002,0.0,0.0,0.0,0.0
11.08,181.8546528,1.0844784,-0.3252216,0.5367528,0.0,0.0,0.0,0.0
11.100000000000001,181.7906448,0.8674608,0.5422392,-0.5367528,0.0,0.0,0.0,0.0
11.120000000000001,181.6489128,0.7046976,0.5964936000000001,-0.3834384,0.0,0.0,0.0,0.0
11.14,181.58155200000002,0.7589520000000001,0.0,0.3834384,0.0,0.0,0.0,0.0
11.16,181.53186960000002,0.5964936000000001,0.2709672,0.15331440000000002,0.0,0.0,0.0,0.0
11.18,181.4117784,0.8674608,0.650748,-0.5367528,0.0,0.0,0.0,0.0
11.2,181.2490152,0.7046976,0.2709672,0.0768096,0.0,0.0,0.0,0.0
11.22,181.04937120000002,0.650748,0.4337304,0.23012400000000002,0.0,0.0,0.0,0.0
11.24,180.901848,0.7589520000000001,0.650748,0.0768096,0.0,0.0,0.0,0.0
11.260000000000002,180.77444160000002,0.9759696,-0.1085088,-0.0768096,0.0,0.0,0.0,0.0
11.280000000000001,180.65648399999998,0.7589520000000001,0.4337304,-0.5367528,0.0,0.0,0.0,0.0
11.3,180.5565096,0.7589520000000001,0.2170176,-0.15331440000000002,0.0,0.0,0.0,0.0
11.32,180.4144728,0.5964936000000001,-0.0542544,0.15331440000000002,0.0,0.0,0.0,0.0
11.34,180.2703024,0.9759696,0.2170176,-0.4599432,0.0,0.0,0.0,0.0
11.36,180.09260400000002,0.7046976,0.4879848,-0.7668768,0.0,0.0,0.0,0.0
11.379999999999999,179.97982800000003,0.8674608,-0.2170176,-0.15331440000000002,0.0,0.0,0.0,0.0
11.4,179.8070064,0.7589520000000001,0.4337304,-0.30662880000000003,0.0,0.0,0.0,0.0
11.42,179.6500344,1.1387328,0.0542544,-0.0768096,0.0,0.0,0.0,0.0
11.440000000000001,179.4543528,0.7589520000000001,0.0,0.0,0.0,0.0,0.0,0.0
11.46,179.3263368,1.030224,0.8132064000000001,-0.23012400000000002,0.0,0.0,0.0,0.0
11.48,179.2461744,0.9217152000000001,0.0542544,0.0768096,0.0,0.0,0.0,0.0
11.5,179.1285216,0.9759696,0.0,-0.3834384,0.0,0.0,0.0,0.0
11.52,178.96332,1.2469368,-0.16276320000000002,-0.23012400000000002,0.0,0.0,0.0,0.0
11.54,178.77068640000002,0.9217152000000001,-0.0542544,-0.0768096,0.0,0.0,0.0,0.0
11.56,178.5664704,0.9217152000000001,0.2709672,-0.6135624,0.0,0.0,0.0,0.0
11.58,178.4098032,1.030224,0.16276320000000002,0.0768096,0.0,0.0,0.0,0.0
11.600000000000001,178.27416720000002,1.0844784,0.1085088,0.0768096,0.0,0.0,0.0,0.0
11.620000000000001,178.09829760000002,0.650748,0.2170176,-0.4599432,0.0,0.0,0.0,0.0
11.64,177.9431544,0.7589520000000001,0.1085088,-0.0768096,0.0,0.0,0.0,0.0
11.66,177.84318000000002,0.9759696,0.3252216,-0.30662880000000003,0.0,0.0,0.0,0.0
11.68,177.70662959999999,1.0844784,0.1085088,-0.23012400000000002,0.0,0.0,0.0,0.0
11.7,177.4600464,0.9759696,0.1085088,-0.4599432,0.0,0.0,0.0,0.0
11.72,177.2219976,0.9759696,0.2170176,-0.30662880000000003,0.0,0.0,0.0,0.0
11.74,177.0052848,0.9217152000000001,0.2709672,-0.4599432,0.0,0.0,0.0,0.0
11.760000000000002,176.83215840000003,1.0844784,-0.4337304,-0.6900672,0.0,0.0,0.0,0.0
11.780000000000001,176.588928,1.2469368,-0.37947600000000004,-0.15331440000000002,0.0,0.0,0.0,0.0
11.8,176.32283759999999,0.9759696,0.2170176,-0.6135624,0.0,0.0,0.0,0.0
11.82,176.0750352,1.030224,-0.0542544,-0.7668768,0.0,0.0,0.0,0.0
11.84,175.84155840000003,0.9217152000000001,0.16276320000000002,-0.15331440000000002,0.0,0.0,0.0,0.0
11.86,175.48402800000002,0.9759696,0.1085088,-0.23012400000000002,0.0,0.0,0.0,0.0
11.879999999999999,175.2981,1.1926824,0.0,-0.3834384,0.0,0.0,0.0,0.0
11.9,174.9789744,1.1387328,0.0542544,0.3834384,0.0,0.0,0.0,0.0
11.92,174.6394272,1.1387328,0.16276320000000002,-0.0768096,0.0,0.0,0.0,0.0
11.940000000000001,174.3681552,1.1387328,0.0542544,-0.23012400000000002,0.0,0.0,0.0,0.0
11.96,174.0508584,1.2469368,0.2709672,0.15331440000000002,0.0,0.0,0.0,0.0
11.98,173.7323424,1.2469368,-0.16276320000000002,-0.0768096,0.0,0.0,0.0,0.0
12.0,173.47021439999997,1.1926824,0.0,0.3834384,0.0,0.0,0.0,0.0
12.02,173.20046639999998,1.1387328,0.0542544,0.4599432,0.0,0.0,0.0,0.0
12.04,172.9944216,0.9759696,0.1085088,0.4599432,0.0,0.0,0.0,0.0
12.06,172.71156720000002,1.3554456000000001,-0.2709672,-0.15331440000000002,0.0,0.0,0.0,0.0
12.08,172.445172,1.1387328,0.16276320000000002,-0.5367528,0.0,0.0,0.0,0.0
12.100000000000001,172.19432160000002,0.9759696,0.3252216,-0.4599432,0.0,0.0,0.0,0.0
12.120000000000001,171.89805600000003,-0.1085088,0.4337304,0.0768096,0.0,0.0,0.0,0.0
12.14,171.67006560000002,-1.4639544,-0.16276320000000002,-0.9201912000000001,0.0,0.0,0.0,0.0
12.16,171.3100968,-9.2714064,0.4879848,1.5334488,0.0,0.0,0.0,0.0
12.18,171.00438240000003,-222.0781944,0.0,-77.21285040000001,0.0,0.0,0.0,0.0
12.2,170.6953152,209.0656728,-12.9040128,108.0369696,0.0,0.0,0.0,0.0
12.22,170.3825904,221.9696856,0.0,-4.523841600000001,0.0,0.0,0.0,0.0
12.24,169.32798240000002,21.0366864,-6.506260800000001,-5.060594400000001,0.0,0.0,0.0,0.0
12.260000000000002,169.0975536,31.5550296,-6.614769600000001,-21.392692800000003,0.0,0.0,0.0,0.0
12.280000000000001,168.9058344,11.928043200000001,4.012082400000001,13.9549632,0.0,0.0,0.0,0.0
12.3,168.76593119999998,198.5473296,-23.422356,0.6135624,0.0,0.0,0.0,0.0
12.32,168.0542232,113.749836,0.650748,-2.223516,0.0,0.0,0.0,0.0
12.34,167.6793192,82.1408568,40.501214399999995,1.2268200000000002,0.0,0.0,0.0,0.0
12.36,167.4629112,34.157412,-8.566404,34.1976456,0.0,0.0,0.0,0.0
12.38,167.34556320000002,-67.7728896,-48.471124800000005,-17.3287944,0.0,0.0,0.0,0.0
12.4,167.26296240000002,19.7354952,11.385804,22.236074400000003,0.0,0.0,0.0,0.0
12.42,167.1986496,46.248218400000006,-30.958536,26.376477600000005,0.0,0.0,0.0,0.0
12.44,167.115744,-4.0663368,-21.849892800000003,-25.763220000000004,0.0,0.0,0.0,0.0
12.46,167.0468592,62.4053616,14.0424408,-39.488364000000004,0.0,0.0,0.0,0.0
12.48,166.9660872,-1.6806672000000002,-1.4639544,16.8688512,0.0,0.0,0.0,0.0
12.5,166.9002504,-33.452714400000005,-1.4639544,5.9807856,0.0,0.0,0.0,0.0
12.52,166.8679416,-34.157412,-17.2413168,8.4344256,0.0,0.0,0.0,0.0
12.540000000000001,166.84203359999998,-13.7172192,-17.40408,0.4599432,0.0,0.0,0.0,0.0
12.56,166.78686480000002,31.284062400000003,-51.8870184,6.5175384,0.0,0.0,0.0,0.0
12.58,166.5753336,59.9654376,16.8075864,28.753612800000003,0.0,0.0,0.0,0.0
12.6,166.4723112,53.62194000000001,4.5000672,38.7982968,0.0,0.0,0.0,0.0
12.620000000000001,166.48938,33.181747200000004,0.5422392,-20.85594,0.0,0.0,0.0,0.0
12.64,166.4957808,1.5182088,0.2170176,-32.6641968,0.0,0.0,0.0,0.0
12.66,166.5162024,-2.548128,34.7539056,-8.58774,0.0,0.0,0.0,0.0
12.68,166.51955519999999,-27.8139144,32.260032,-9.2778072,0.0,0.0,0.0,0.0
12.700000000000001,166.49821920000002,-25.86228,30.199584,11.654637600000001,0.0,0.0,0.0,0.0
12.72,166.4037312,-20.22348,28.6813752,6.594043200000001,0.0,0.0,0.0,0.0
12.74,166.39397760000003,-10.843564800000001,31.5550296,8.971178400000001,0.0,0.0,0.0,0.0
12.76,166.3330176,2.7651456,42.34434,-6.2874144,0.0,0.0,0.0,0.0
12.780000000000001,166.2583416,-3.0903671999999998,47.7664272,-14.8751544,0.0,0.0,0.0,0.0
12.8,166.1818368,9.7051368,38.2237488,5.903976000000001,0.0,0.0,0.0,0.0
12.82,165.9553704,35.675620800000004,29.16936,28.6002984,0.0,0.0,0.0,0.0
12.84,165.5469384,71.51400480000001,12.416028,11.194694400000001,0.0,0.0,0.0,0.0
12.86,165.2360424,39.145464000000004,8.3496912,-14.185087200000002,0.0,0.0,0.0,0.0
12.88,165.0363984,22.012656,10.193121600000001,-12.114885600000001,0.0,0.0,0.0,0.0
12.9,164.8410216,16.645128,14.476171200000001,-7.0542912,0.0,0.0,0.0,0.0
12.92,164.8337064,13.229234400000001,15.0726648,0.0768096,0.0,0.0,0.0,0.0
12.94,164.83584,21.7956384,15.7234128,-9.1244928,0.0,0.0,0.0,0.0
12.96,164.68831680000002,14.259458400000002,20.5487016,-7.2076056,0.0,0.0,0.0,0.0
12.98,164.62949039999998,-2.6023824,17.024604,-6.2874144,0.0,0.0,0.0,0.0
13.0,164.5648728,0.5422392,18.7595256,-14.108277600000001,0.0,0.0,0.0,0.0
13.02,164.482272,0.1085088,11.385804,-3.910584,0.0,0.0,0.0,0.0
13.040000000000001,164.25672,4.988052,18.000573600000003,-1.6102584000000002,0.0,0.0,0.0,0.0
13.06,164.1518688,5.096560800000001,15.506395200000002,-5.903976000000001,0.0,0.0,0.0,0.0
13.08,163.9958112,6.8314824000000005,0.650748,-7.437729600000001,0.0,0.0,0.0,0.0
13.1,163.9055904,2.9818584,17.0788584,10.3513128,0.0,0.0,0.0,0.0
13.120000000000001,163.80714,5.3132736,31.446520800000002,12.1913904,0.0,0.0,0.0,0.0
13.14,163.7544096,11.2230408,26.2960104,9.891369599999999,0.0,0.0,0.0,0.0
13.16,163.6263936,10.952073600000002,13.3377432,2.0702016,0.0,0.0,0.0,0.0
13.18,163.5233712,12.036552,9.0001344,10.734751200000002,0.0,0.0,0.0,0.0
13.200000000000001,163.3657896,6.668719200000001,4.608576,6.594043200000001,0.0,0.0,0.0,0.0
13.22,163.2807504,6.5605152,3.198876,11.04138,0.0,0.0,0.0,0.0
13.24,163.1710224,4.7170848,-2.4399240000000004,16.7920416,0.0,0.0,0.0,0.0
13.26,163.10579520000002,7.8617064,-0.4879848,12.804952800000002,0.0,0.0,0.0,0.0
13.280000000000001,163.06708559999998,9.217152,7.3737216000000005,7.0542912,0.0,0.0,0.0,0.0
13.3,162.920172,5.638800000000001,17.783556,3.68046,0.0,0.0,0.0,0.0
13.32,162.8247696,3.7953696000000003,14.313712800000001,0.30662880000000003,0.0,0.0,0.0,0.0
13.34,162.8177592,-1.6264128000000002,12.5787912,2.3768304000000002,0.0,0.0,0.0,0.0
13.36,162.8762808,0.1085088,9.4338648,2.8370784000000002,0.0,0.0,0.0,0.0
13.38,162.81654,4.0663368,6.4520064,4.370527200000001,0.0,0.0,0.0,0.0
13.4,162.8525064,9.379915200000001,2.548128,6.2109096,0.0,0.0,0.0,0.0
13.42,162.807396,11.2230408,-6.4520064,5.827471200000001,0.0,0.0,0.0,0.0
13.44,162.5888544,18.8680344,-9.7593912,7.130796,0.0,0.0,0.0,0.0
13.46,162.32611680000002,18.2715408,-6.343497600000001,-0.9201912000000001,0.0,0.0,0.0,0.0
13.48,162.12312,22.0669104,2.7651456,-2.6069544000000002,0.0,0.0,0.0,0.0
13.5,161.9243904,24.9945144,8.729167200000001,2.6069544000000002,0.0,0.0,0.0,0.0
13.52,161.6525088,22.880116800000003,5.5302912,4.4473368,0.0,0.0,0.0,0.0
13.540000000000001,161.4504264,19.0847472,-0.3252216,3.2970216000000003,0.0,0.0,0.0,0.0
13.56,161.1383112,16.2653472,-1.8434304000000001,2.8370784000000002,0.0,0.0,0.0,0.0
13.58,161.0523576,15.0726648,-0.5422392,5.2907184,0.0,0.0,0.0,0.0
13.6,160.91794080000003,14.1509496,-3.5240976,4.4473368,0.0,0.0,0.0,0.0
13.620000000000001,160.7731608,14.747443200000001,-4.012082400000001,5.903976000000001,0.0,0.0,0.0,0.0
13.64,160.693608,14.367967200000002,-4.608576,5.5205376,0.0,0.0,0.0,0.0
13.66,160.64362079999998,15.994380000000001,-2.0061936,2.7602688,0.0,0.0,0.0,0.0
13.68,160.4674464,15.8858712,1.1387328,0.5367528,0.0,0.0,0.0,0.0
13.700000000000001,160.3016352,15.235428,3.5240976,0.7668768,0.0,0.0,0.0,0.0
13.72,160.1788008,13.825728,2.9818584,1.9936968000000002,0.0,0.0,0.0,0.0
13.74,160.0614528,11.5485672,1.6806672000000002,2.9903928,0.0,0.0,0.0,0.0
13.76,159.9556872,10.8978192,1.5724632,5.903976000000001,0.0,0.0,0.0,0.0
13.780000000000001,159.9410568,11.3315496,1.1387328,6.9009768,0.0,0.0,0.0,0.0
13.8,160.0538328,10.5183432,-0.4337304,6.4407288000000005,0.0,0.0,0.0,0.0
13.82,160.026096,9.2714064,-2.4399240000000004,6.1341,0.0,0.0,0.0,0.0
13.84,160.029144,9.4338648,-2.9279088,7.5142344,0.0,0.0,0.0,0.0
13.86,159.9751944,11.1690912,-0.5422392,7.2076056,0.0,0.0,0.0,0.0
13.88,159.89472719999998,12.5787912,2.2771608000000003,3.68046,0.0,0.0,0.0,0.0
13.9,159.824928,13.229234400000001,5.205069600000001,1.7635728,0.0,0.0,0.0,0.0
13.92,159.7862184,12.795504,6.7229735999999995,1.0735056,0.0,0.0,0.0,0.0
13.94,159.754824,13.229234400000001,6.1807343999999995,1.0735056,0.0,0.0,0.0,0.0
13.96,159.70117919999998,13.446252000000001,4.8795432000000005,0.6900672,0.0,0.0,0.0,0.0
13.98,159.69874080000002,15.6691584,3.4158936000000004,0.8433816000000001,0.0,0.0,0.0,0.0
14.0,159.6103488,14.259458400000002,2.548128,1.8400776,0.0,0.0,0.0,0.0
14.02,159.46221599999998,14.6389344,-0.2170176,2.4536400000000005,0.0,0.0,0.0,0.0
14.040000000000001,159.344868,13.3919976,-1.789176,4.370527200000001,0.0,0.0,0.0,0.0
14.06,159.3018912,12.199010400000002,-2.3314152,6.4407288000000005,0.0,0.0,0.0,0.0
14.08,159.1638168,8.837676,-0.8132064000000001,9.1244928,0.0,0.0,0.0,0.0
14.1,159.0327528,8.1326736,0.1085088,8.1277968,0.0,0.0,0.0,0.0
14.120000000000001,158.9888616,5.205069600000001,2.8194000000000004,7.0542912,0.0,0.0,0.0,0.0
14.14,158.8550544,2.7108912000000003,1.8434304000000001,4.2937176,0.0,0.0,0.0,0.0
14.16,158.74746,7.8617064,13.825728,11.7314472,0.0,0.0,0.0,0.0
14.18,158.6106048,6.8314824000000005,7.156704,6.364224,0.0,0.0,0.0,0.0
14.200000000000001,158.4703968,7.3737216000000005,3.4698432,0.0768096,0.0,0.0,0.0,0.0
14.22,158.3247024,12.686995200000002,7.807452,2.8370784000000002,0.0,0.0,0.0,0.0
14.24,158.2360056,13.554456,10.626852000000001,-3.5271456,0.0,0.0,0.0,0.0
14.26,158.1122568,11.5485672,12.3075192,-8.2811112,0.0,0.0,0.0,0.0
14.280000000000001,158.0214264,8.4582,8.3496912,-5.903976000000001,0.0,0.0,0.0,0.0
14.3,157.8739032,15.181173600000001,9.217152,-1.8400776,0.0,0.0,0.0,0.0
14.32,157.7955696,16.102888800000002,5.476036800000001,5.9807856,0.0,0.0,0.0,0.0
14.34,157.7882544,7.915960800000001,2.1686520000000002,-4.7539656,0.0,0.0,0.0,0.0
14.36,157.7958744,10.626852000000001,-2.4941784,2.3003256,0.0,0.0,0.0,0.0
14.38,157.7297328,8.566404,0.2170176,1.6102584000000002,0.0,0.0,0.0,0.0
14.4,157.74680160000003,8.4039456,-0.8132064000000001,3.0672024,0.0,0.0,0.0,0.0
14.42,157.77149039999998,8.0784192,1.030224,3.450336,0.0,0.0,0.0,0.0
14.44,157.6578,5.096560800000001,4.012082400000001,1.6102584000000002,0.0,0.0,0.0,0.0
14.46,157.476444,6.1807343999999995,5.205069600000001,3.450336,0.0,0.0,0.0,0.0
14.48,157.38073680000002,6.7229735999999995,6.506260800000001,9.1244928,0.0,0.0,0.0,0.0
14.5,157.2030384,6.668719200000001,5.367528,4.523841600000001,0.0,0.0,0.0,0.0
14.52,157.10915999999997,8.295436800000001,4.1748456,1.2268200000000002,0.0,0.0,0.0,0.0
14.540000000000001,156.9198792,11.657076,-0.5964936000000001,-1.8400776,0.0,0.0,0.0,0.0
14.56,156.75010559999998,9.976104,-4.120591200000001,-6.747662400000001,0.0,0.0,0.0,0.0
14.58,156.66232319999997,5.476036800000001,-8.729167200000001,-5.2907184,0.0,0.0,0.0,0.0
14.6,156.554424,6.2349888,-8.729167200000001,-5.9807856,0.0,0.0,0.0,0.0
14.620000000000001,156.5565576,1.4639544,-7.210958400000001,-4.2937176,0.0,0.0,0.0,0.0
14.64,156.4547544,6.885736800000001,4.2833544,11.04138,0.0,0.0,0.0,0.0
14.66,156.3584376,0.7046976,-2.0061936,6.2874144,0.0,0.0,0.0,0.0
14.68,156.27553200000003,4.3376088,-2.8194000000000004,4.6006512,0.0,0.0,0.0,0.0
14.700000000000001,156.2185344,10.193121600000001,0.7589520000000001,7.0542912,0.0,0.0,0.0,0.0
14.72,156.20634239999998,7.210958400000001,-1.8976848000000002,1.9936968000000002,0.0,0.0,0.0,0.0
14.74,156.01767120000002,9.976104,-4.8795432000000005,5.4440328000000004,0.0,0.0,0.0,0.0
14.76,155.8814256,4.1748456,-1.030224,0.0,0.0,0.0,0.0,0.0
14.780000000000001,155.7659064,7.753197600000001,-0.5964936000000001,7.0542912,0.0,0.0,0.0,0.0
14.8,155.7500568,5.259324,-1.030224,8.6645496,0.0,0.0,0.0,0.0
14.82,155.736036,5.367528,-1.4639544,7.8976728000000005,0.0,0.0,0.0,0.0
14.84,155.5598616,8.295436800000001,-0.37947600000000004,6.5175384,0.0,0.0,0.0,0.0
14.86,155.4574488,7.4822304,-2.4941784,3.3738312000000006,0.0,0.0,0.0,0.0
14.88,155.4406848,14.8016976,2.0061936,2.7602688,0.0,0.0,0.0,0.0
14.9,155.3559504,14.8016976,4.1748456,1.6867632000000001,0.0,0.0,0.0,0.0
14.92,155.3407104,16.8075864,5.7470040000000004,4.677156,0.0,0.0,0.0,0.0
14.94,155.3166312,14.1509496,4.2833544,2.8370784000000002,0.0,0.0,0.0,0.0
14.96,155.255976,13.3377432,4.2291,2.7602688,0.0,0.0,0.0,0.0
14.98,155.0865072,12.4702824,4.8795432000000005,2.6069544000000002,0.0,0.0,0.0,0.0
15.0,155.04414,11.4943128,4.120591200000001,2.223516,0.0,0.0,0.0,0.0
