time,baro_altitude,accl_x,accl_y,accl_z,gps_altitude,gyro_roll,gyro_pitch,gyro_yaw
0.0,0.0,-8.6206584,-4.7170848,1.2268200000000002,0.0,0.0,0.0,0.0
0.019999999999999574,0.09326880000000003,-8.6206584,-4.7170848,1.2268200000000002,0.0,0.0,0.0,0.0
0.040000000000000036,0.14142720000000003,-8.6206584,-4.7170848,1.2268200000000002,0.0,0.0,0.0,0.0
0.05999999999999961,0.24353520000000003,-8.566404,-4.6628304,1.2268200000000002,0.0,0.0,0.0,0.0
0.08000000000000007,0.10942320000000004,-8.6206584,-4.7170848,1.1500104,0.0,0.0,0.0,0.0
0.09999999999999964,-0.0374904,-8.6749128,-4.6628304,1.1500104,0.0,0.0,0.0,0.0
0.1200000000000001,0.030480000000000028,-8.566404,-4.6628304,1.2268200000000002,0.0,0.0,0.0,0.0
0.13999999999999968,-0.0725424,-8.6206584,-4.7170848,1.2268200000000002,0.0,0.0,0.0,0.0
0.16000000000000014,-0.02468879999999999,-8.566404,-4.6628304,1.1500104,0.0,0.0,0.0,0.0
0.17999999999999972,-0.14660879999999996,-8.566404,-4.6628304,1.1500104,0.0,0.0,0.0,0.0
0.20000000000000018,-0.0768096,-8.729167200000001,-4.7170848,1.3036296,0.0,0.0,0.0,0.0
0.21999999999999975,-0.17434560000000002,-8.6206584,-4.7170848,1.2268200000000002,0.0,0.0,0.0,0.0
0.23999999999999977,-0.04236720000000001,-8.6206584,-4.7170848,1.1500104,0.0,0.0,0.0,0.0
0.2599999999999998,-0.037795199999999966,-8.5121496,-4.7170848,1.3036296,0.0,0.0,0.0,0.0
0.2799999999999998,-0.06553199999999997,-8.6206584,-4.7170848,1.2268200000000002,0.0,0.0,0.0,0.0
0.2999999999999998,0.02316480000000002,-8.6206584,-4.7170848,1.1500104,0.0,0.0,0.0,0.0
0.31999999999999984,0.23865840000000002,-8.566404,-4.6628304,1.1500104,0.0,0.0,0.0,0.0
0.33999999999999986,0.27127200000000007,-8.6206584,-4.7170848,1.2268200000000002,0.0,0.0,0.0,0.0
0.3599999999999999,0.28072080000000005,-8.6749128,-4.6628304,1.3036296,0.0,0.0,0.0,0.0
0.3799999999999999,0.0399288,-8.566404,-4.7713392,1.1500104,0.0,0.0,0.0,0.0
0.3999999999999999,-0.0036576000000000035,-8.6206584,-4.7170848,1.3036296,0.0,0.0,0.0,0.0
0.41999999999999993,-0.03413759999999996,-8.566404,-4.6628304,1.2268200000000002,0.0,0.0,0.0,0.0
0.43999999999999995,0.060350400000000026,-8.6206584,-4.7170848,1.2268200000000002,0.0,0.0,0.0,0.0
0.45999999999999996,0.17708880000000002,-8.5121496,-4.7170848,1.1500104,0.0,0.0,0.0,0.0
0.47999999999999954,0.22951440000000004,-8.6206584,-4.7170848,1.1500104,0.0,0.0,0.0,0.0
0.49999999999999956,0.26944320000000005,-8.6206584,-4.7170848,1.1500104,0.0,0.0,0.0,0.0
0.5199999999999996,0.045110400000000044,-8.6749128,-4.7713392,1.3036296,0.0,0.0,0.0,0.0
0.5399999999999996,0.05760720000000002,-8.6206584,-4.7170848,1.1500104,0.0,0.0,0.0,0.0
0.5599999999999996,-0.031394399999999996,-8.6749128,-4.6628304,1.3036296,0.0,0.0,0.0,0.0
0.5799999999999996,0.011887200000000046,-8.6206584,-4.7170848,1.1500104,0.0,0.0,0.0,0.0
0.5999999999999996,0.030480000000000028,-8.5121496,-4.7170848,1.2268200000000002,0.0,0.0,0.0,0.0
0.6199999999999997,0.12618720000000003,-8.729167200000001,-4.7170848,1.1500104,0.0,0.0,0.0,0.0
0.6399999999999997,0.14051280000000002,-8.729167200000001,-4.7170848,1.2268200000000002,0.0,0.0,0.0,0.0
0.6599999999999997,0.05486400000000002,-8.6206584,-4.7170848,1.2268200000000002,0.0,0.0,0.0,0.0
0.6799999999999997,0.21854160000000003,-8.6206584,-4.8252888,1.2268200000000002,0.0,0.0,0.0,0.0
0.6999999999999997,0.16520160000000003,-8.566404,-4.7713392,1.3036296,0.0,0.0,0.0,0.0
0.7199999999999998,0.039319200000000006,-8.566404,-4.7713392,1.2268200000000002,0.0,0.0,0.0,0.0
0.7399999999999998,0.01950720000000002,-8.566404,-4.6628304,1.1500104,0.0,0.0,0.0,0.0
0.7599999999999998,0.0036576000000000035,-8.6206584,-4.608576,1.1500104,0.0,0.0,0.0,0.0
0.7799999999999998,0.05882640000000002,-8.566404,-4.6628304,1.2268200000000002,0.0,0.0,0.0,0.0
0.7999999999999998,0.0762,-8.566404,-4.6628304,1.2268200000000002,0.0,0.0,0.0,0.0
0.8199999999999998,0.09022080000000002,-8.6206584,-4.7170848,1.2268200000000002,0.0,0.0,0.0,0.0
0.8399999999999999,0.21305520000000003,-8.566404,-4.6628304,1.2268200000000002,0.0,0.0,0.0,0.0
0.8599999999999999,0.188976,-8.6749128,-4.6628304,1.2268200000000002,0.0,0.0,0.0,0.0
0.8799999999999999,0.2532888,-8.6206584,-4.7170848,1.1500104,0.0,0.0,0.0,0.0
0.8999999999999999,0.22341840000000004,-8.6206584,-4.7170848,1.2268200000000002,0.0,0.0,0.0,0.0
0.9199999999999999,0.22067520000000002,-8.6206584,-4.7170848,1.2268200000000002,0.0,0.0,0.0,0.0
0.94,0.17404080000000002,-8.6206584,-4.608576,1.2268200000000002,0.0,0.0,0.0,0.0
0.96,0.0737616,-8.6206584,-4.7170848,1.3036296,0.0,0.0,0.0,0.0
0.9799999999999995,0.0368808,-8.6206584,-4.7170848,1.2268200000000002,0.0,0.0,0.0,0.0
0.9999999999999996,0.11308080000000001,-8.6749128,-4.7713392,1.1500104,0.0,0.0,0.0,0.0
1.0199999999999996,0.04297680000000001,-8.566404,-4.6628304,1.2268200000000002,0.0,0.0,0.0,0.0
1.0399999999999996,-0.035052,-8.6749128,-4.6628304,1.1500104,0.0,0.0,0.0,0.0
1.0599999999999996,-0.05181599999999998,-8.6206584,-4.7170848,1.2268200000000002,0.0,0.0,0.0,0.0
1.0799999999999996,-0.035052,-8.566404,-4.6628304,1.1500104,0.0,0.0,0.0,0.0
1.0999999999999996,0.043586400000000004,-8.6749128,-4.6628304,1.2268200000000002,0.0,0.0,0.0,0.0
1.1199999999999997,-0.0658368,-8.6206584,-4.7170848,1.2268200000000002,0.0,0.0,0.0,0.0
1.1399999999999997,-0.037795199999999966,-8.6749128,-4.6628304,1.3036296,0.0,0.0,0.0,0.0
1.1599999999999997,0.08686800000000001,-8.566404,-4.7713392,1.1500104,0.0,0.0,0.0,0.0
1.1799999999999997,0.1944624,-8.6206584,-4.608576,1.1500104,0.0,0.0,0.0,0.0
1.1999999999999997,0.1115568,-8.6206584,-4.7170848,1.1500104,0.0,0.0,0.0,0.0
1.2199999999999998,0.21793200000000004,-8.6206584,-4.7170848,1.3801344,0.0,0.0,0.0,0.0
1.2399999999999998,0.24932640000000003,-8.6749128,-4.7713392,1.2268200000000002,0.0,0.0,0.0,0.0
1.2599999999999998,0.15849600000000003,-8.566404,-4.6628304,1.2268200000000002,0.0,0.0,0.0,0.0
1.2799999999999998,0.239268,-8.6206584,-4.7170848,1.3036296,0.0,0.0,0.0,0.0
1.2999999999999998,0.1146048,-8.6749128,-4.554321600000001,1.1500104,0.0,0.0,0.0,0.0
1.3199999999999998,0.08229600000000001,-8.6206584,-4.7170848,1.2268200000000002,0.0,0.0,0.0,0.0
1.3399999999999999,0.0405384,-8.566404,-4.6628304,1.1500104,0.0,0.0,0.0,0.0
1.3599999999999999,0.3240024,-8.6206584,-4.7170848,1.1500104,0.0,0.0,0.0,0.0
1.38,0.13472160000000002,-8.566404,-4.6628304,1.2268200000000002,0.0,0.0,0.0,0.0
1.4,0.1484376,-8.6206584,-4.7170848,1.3036296,0.0,0.0,0.0,0.0
1.42,0.12893040000000003,-8.566404,-4.6628304,1.2268200000000002,0.0,0.0,0.0,0.0
1.44,0.13319760000000003,-8.6749128,-4.6628304,1.2268200000000002,0.0,0.0,0.0,0.0
1.46,0.03901440000000004,-8.5121496,-4.8252888,1.2268200000000002,0.0,0.0,0.0,0.0
1.4799999999999995,0.13563600000000003,-8.566404,-4.6628304,1.1500104,0.0,0.0,0.0,0.0
1.4999999999999996,0.23256240000000006,-8.6749128,-4.7713392,1.0735056,0.0,0.0,0.0,0.0
1.5199999999999996,0.21244560000000004,-8.6206584,-4.608576,1.2268200000000002,0.0,0.0,0.0,0.0
1.5399999999999996,0.06705600000000003,-8.6206584,-4.7170848,1.2268200000000002,0.0,0.0,0.0,0.0
1.5599999999999996,0.008229600000000042,-8.566404,-4.6628304,1.2268200000000002,0.0,0.0,0.0,0.0
1.5799999999999996,-0.047548799999999974,-8.6749128,-4.7713392,1.3801344,0.0,0.0,0.0,0.0
1.5999999999999996,0.06370320000000003,-8.6749128,-4.7713392,1.2268200000000002,0.0,0.0,0.0,0.0
1.6199999999999997,0.1563624,-8.6749128,-4.7713392,1.2268200000000002,0.0,0.0,0.0,0.0
1.6399999999999997,0.09997440000000003,-8.6206584,-4.7170848,1.1500104,0.0,0.0,0.0,0.0
1.6599999999999997,-0.00457199999999997,-8.6206584,-4.7170848,1.1500104,0.0,0.0,0.0,0.0
1.6799999999999997,0.018592799999999982,-8.6206584,-4.608576,1.2268200000000002,0.0,0.0,0.0,0.0
1.6999999999999997,0.01097280000000001,-8.566404,-4.7713392,1.2268200000000002,0.0,0.0,0.0,0.0
1.7199999999999998,-0.042671999999999974,-8.6749128,-4.7713392,1.1500104,0.0,0.0,0.0,0.0
1.7399999999999998,0.04480560000000001,-8.729167200000001,-4.7170848,1.2268200000000002,0.0,0.0,0.0,0.0
1.7599999999999998,0.13380720000000002,-8.566404,-4.6628304,1.3036296,0.0,0.0,0.0,0.0
1.7799999999999998,0.10576560000000003,-8.5121496,-4.7170848,1.2268200000000002,0.0,0.0,0.0,0.0
1.7999999999999998,0.05852160000000002,-8.6206584,-4.7170848,1.3036296,0.0,0.0,0.0,0.0
1.8199999999999998,0.09875520000000003,-8.566404,-4.7713392,1.3036296,0.0,0.0,0.0,0.0
1.8399999999999999,0.08625840000000001,-8.566404,-4.6628304,1.3036296,0.0,0.0,0.0,0.0
1.8599999999999999,0.0018288000000000017,-8.6206584,-4.7170848,1.2268200000000002,0.0,0.0,0.0,0.0
1.88,0.04541520000000001,-8.6206584,-4.7170848,1.2268200000000002,0.0,0.0,0.0,0.0
1.9,0.038709600000000004,-8.566404,-4.7713392,1.2268200000000002,0.0,0.0,0.0,0.0
1.92,-0.028346399999999994,-8.566404,-4.6628304,1.2268200000000002,0.0,0.0,0.0,0.0
1.94,0.15758160000000002,-8.6749128,-4.6628304,1.2268200000000002,0.0,0.0,0.0,0.0
1.96,0.1121664,-8.6749128,-4.6628304,1.1500104,0.0,0.0,0.0,0.0
1.9799999999999995,-0.003048000000000003,-8.566404,-4.7713392,1.2268200000000002,0.0,0.0,0.0,0.0
1.9999999999999996,-0.10210799999999999,-8.6749128,-4.6628304,1.3036296,0.0,0.0,0.0,0.0
2.0199999999999996,-0.1621536,-8.566404,-4.6628304,1.2268200000000002,0.0,0.0,0.0,0.0
2.0399999999999996,-0.13929359999999996,-8.566404,-4.7713392,1.1500104,0.0,0.0,0.0,0.0
2.0599999999999996,-0.04145279999999997,-8.729167200000001,-4.7170848,1.0735056,0.0,0.0,0.0,0.0
2.0799999999999996,0.1520952,-8.6749128,-4.6628304,1.2268200000000002,0.0,0.0,0.0,0.0
2.0999999999999996,0.2980944,-8.6206584,-4.7170848,1.1500104,0.0,0.0,0.0,0.0
2.1199999999999997,0.3465576,-8.6749128,-4.7713392,1.1500104,0.0,0.0,0.0,0.0
2.1399999999999997,0.33192720000000003,-8.5121496,-4.7170848,1.3036296,0.0,0.0,0.0,0.0
2.1599999999999997,0.35539680000000007,-8.6206584,-4.7170848,1.2268200000000002,0.0,0.0,0.0,0.0
2.1799999999999997,0.3154680000000001,-8.6206584,-4.7170848,1.1500104,0.0,0.0,0.0,0.0
2.1999999999999997,0.36972240000000006,-8.6206584,-4.7170848,1.3801344,0.0,0.0,0.0,0.0
2.2199999999999998,0.67056,-8.6206584,-4.608576,1.2268200000000002,0.0,0.0,0.0,0.0
2.2399999999999998,0.577596,-8.6749128,-4.7713392,1.1500104,0.0,0.0,0.0,0.0
2.26,0.5955792000000001,-8.6749128,-4.6628304,1.1500104,0.0,0.0,0.0,0.0
2.28,0.57912,-8.6206584,-4.8252888,1.1500104,0.0,0.0,0.0,0.0
2.3,0.4843272,-8.6206584,-4.7170848,1.1500104,0.0,0.0,0.0,0.0
2.32,0.4818888,-8.6206584,-4.7170848,1.3036296,0.0,0.0,0.0,0.0
2.34,0.4425696,-8.6749128,-4.6628304,1.2268200000000002,0.0,0.0,0.0,0.0
2.3599999999999994,0.4727448000000001,-8.6206584,-4.7170848,1.0735056,0.0,0.0,0.0,0.0
2.38,0.4111752,-8.6749128,-4.6628304,1.2268200000000002,0.0,0.0,0.0,0.0
2.3999999999999995,0.37764720000000007,-8.566404,-4.7713392,1.2268200000000002,0.0,0.0,0.0,0.0
2.42,0.2901696,-8.6206584,-4.608576,1.1500104,0.0,0.0,0.0,0.0
2.4399999999999995,0.41910000000000003,-8.6206584,-4.7170848,1.0735056,0.0,0.0,0.0,0.0
2.46,0.239268,-8.6206584,-4.7170848,1.1500104,0.0,0.0,0.0,0.0
2.4799999999999995,0.030480000000000028,-8.6206584,-4.608576,1.3036296,0.0,0.0,0.0,0.0
2.5,0.04450080000000004,-8.566404,-4.6628304,1.3036296,0.0,0.0,0.0,0.0
2.5199999999999996,0.1941576,-8.566404,-4.6628304,1.2268200000000002,0.0,0.0,0.0,0.0
2.54,0.2267712,-8.6206584,-4.7170848,1.1500104,0.0,0.0,0.0,0.0
2.5599999999999996,0.09692640000000002,-8.6206584,-4.7170848,1.3036296,0.0,0.0,0.0,0.0
2.58,0.13685520000000004,-8.6206584,-4.7170848,1.2268200000000002,0.0,0.0,0.0,0.0
2.5999999999999996,0.1536192,-8.6749128,-4.6628304,1.2268200000000002,0.0,0.0,0.0,0.0
2.6199999999999997,0.12649200000000002,-8.6206584,-4.7170848,1.2268200000000002,0.0,0.0,0.0,0.0
2.6399999999999997,0.18074640000000003,-8.6206584,-4.7170848,1.2268200000000002,0.0,0.0,0.0,0.0
2.6599999999999997,0.39563040000000005,-8.6206584,-4.608576,1.2268200000000002,0.0,0.0,0.0,0.0
2.6799999999999997,0.2749296,-8.566404,-4.6628304,1.1500104,0.0,0.0,0.0,0.0
2.6999999999999997,0.2795016,-8.6206584,-4.7170848,1.2268200000000002,0.0,0.0,0.0,0.0
2.7199999999999998,0.28986480000000003,-8.566404,-4.6628304,1.1500104,0.0,0.0,0.0,0.0
2.7399999999999998,0.30693360000000003,-8.729167200000001,-4.7170848,1.2268200000000002,0.0,0.0,0.0,0.0
2.76,0.49621440000000006,-8.566404,-4.6628304,1.2268200000000002,0.0,0.0,0.0,0.0
2.78,0.49377600000000005,-8.6206584,-4.7170848,1.2268200000000002,0.0,0.0,0.0,0.0
2.8,0.6178296000000001,-8.5121496,-4.7170848,1.3036296,0.0,0.0,0.0,0.0
2.82,0.6848856,-8.6749128,-4.554321600000001,1.2268200000000002,0.0,0.0,0.0,0.0
2.84,0.6833616,-8.5121496,-4.7170848,1.1500104,0.0,0.0,0.0,0.0
2.8599999999999994,0.6214872000000001,-8.6206584,-4.7170848,1.2268200000000002,0.0,0.0,0.0,0.0
2.88,0.5794248000000001,-8.6749128,-4.7713392,1.1500104,0.0,0.0,0.0,0.0
2.8999999999999995,0.5327904,-8.566404,-4.6628304,1.2268200000000002,0.0,0.0,0.0,0.0
2.92,0.38069520000000007,-8.6206584,-4.7170848,1.1500104,0.0,0.0,0.0,0.0
2.9399999999999995,0.3578352,-8.6749128,-4.7713392,1.1500104,0.0,0.0,0.0,0.0
2.96,0.25146,-8.6206584,-4.7170848,1.2268200000000002,0.0,0.0,0.0,0.0
2.9799999999999995,0.2746248,-8.6206584,-4.7170848,1.2268200000000002,0.0,0.0,0.0,0.0
3.0,0.28163520000000003,-8.6206584,-4.7170848,1.3036296,0.0,0.0,0.0,0.0
3.0199999999999996,0.31668720000000006,-8.6206584,-4.7170848,1.3036296,0.0,0.0,0.0,0.0
3.04,0.43007280000000003,-8.566404,-4.7713392,1.2268200000000002,0.0,0.0,0.0,0.0
3.0599999999999996,0.42092880000000005,-8.6749128,-4.6628304,1.1500104,0.0,0.0,0.0,0.0
3.08,0.3084576,-8.6749128,-4.7713392,1.1500104,0.0,0.0,0.0,0.0
3.0999999999999996,0.25146,-8.566404,-4.6628304,1.1500104,0.0,0.0,0.0,0.0
3.1199999999999997,0.25542240000000005,-8.6749128,-4.7713392,1.1500104,0.0,0.0,0.0,0.0
3.1399999999999997,0.21214080000000002,-8.566404,-4.6628304,1.1500104,0.0,0.0,0.0,0.0
3.1599999999999997,0.26578560000000007,-8.6206584,-4.7170848,1.3036296,0.0,0.0,0.0,0.0
3.1799999999999997,0.18958560000000002,-8.6749128,-4.6628304,1.3801344,0.0,0.0,0.0,0.0
3.1999999999999997,0.17830800000000002,-8.6749128,-4.6628304,1.2268200000000002,0.0,0.0,0.0,0.0
3.2199999999999998,0.37703760000000003,-8.566404,-4.6628304,1.1500104,0.0,0.0,0.0,0.0
3.2399999999999998,0.3614928,-8.5121496,-4.8252888,1.2268200000000002,0.0,0.0,0.0,0.0
3.26,0.43982640000000006,-8.566404,-4.6628304,1.2268200000000002,0.0,0.0,0.0,0.0
3.28,0.4337304,-8.6206584,-4.7170848,1.2268200000000002,0.0,0.0,0.0,0.0
3.3,0.3048,-8.566404,-4.6628304,1.2268200000000002,0.0,0.0,0.0,0.0
3.32,0.40507920000000003,-8.5121496,-4.7170848,1.3036296,0.0,0.0,0.0,0.0
3.34,0.44927520000000004,-8.566404,-4.6628304,1.3036296,0.0,0.0,0.0,0.0
3.36,0.40782240000000003,-8.5121496,-4.8252888,1.3036296,0.0,0.0,0.0,0.0
3.38,0.40477440000000003,-8.566404,-4.6628304,1.2268200000000002,0.0,0.0,0.0,0.0
3.4,0.38465760000000004,-8.5121496,-4.7170848,1.2268200000000002,0.0,0.0,0.0,0.0
3.42,0.25146,-8.566404,-4.7713392,1.1500104,0.0,0.0,0.0,0.0
3.4399999999999995,0.1353312,-8.6749128,-4.6628304,1.2268200000000002,0.0,0.0,0.0,0.0
3.46,0.26639520000000005,-8.566404,-4.6628304,1.2268200000000002,0.0,0.0,0.0,0.0
3.4799999999999995,0.16733520000000002,-8.566404,-4.6628304,1.1500104,0.0,0.0,0.0,0.0
3.5,0.23957280000000003,-8.566404,-4.6628304,1.2268200000000002,0.0,0.0,0.0,0.0
3.5199999999999996,0.18166080000000004,-8.6206584,-4.608576,1.1500104,0.0,0.0,0.0,0.0
3.5399999999999996,0.23804880000000003,-8.566404,-4.7713392,1.2268200000000002,0.0,0.0,0.0,0.0
3.5599999999999996,0.3288792,-8.566404,-4.7713392,1.2268200000000002,0.0,0.0,0.0,0.0
3.5799999999999996,0.38679120000000006,-8.4582,-4.6628304,1.2268200000000002,0.0,0.0,0.0,0.0
3.5999999999999996,0.43494960000000005,-8.729167200000001,-4.7170848,1.1500104,0.0,0.0,0.0,0.0
3.6199999999999997,0.42641520000000005,-8.6206584,-4.7170848,1.2268200000000002,0.0,0.0,0.0,0.0
3.6399999999999997,0.408432,-8.6206584,-4.7170848,1.2268200000000002,0.0,0.0,0.0,0.0
3.6599999999999997,0.46542960000000005,-8.6206584,-4.7170848,1.2268200000000002,0.0,0.0,0.0,0.0
3.6799999999999997,0.4315968,-8.6206584,-4.7170848,1.2268200000000002,0.0,0.0,0.0,0.0
3.6999999999999997,0.47183040000000004,-8.566404,-4.6628304,1.3036296,0.0,0.0,0.0,0.0
3.7199999999999998,0.5145024,-8.566404,-4.6628304,1.2268200000000002,0.0,0.0,0.0,0.0
3.7399999999999998,0.6187440000000001,-8.566404,-4.7713392,1.3801344,0.0,0.0,0.0,0.0
3.76,0.6562344,-8.729167200000001,-4.7170848,1.3036296,0.0,0.0,0.0,0.0
3.78,0.6199631999999999,-8.6749128,-4.7713392,1.0735056,0.0,0.0,0.0,0.0
3.8,0.7074408,-8.6206584,-4.7170848,1.2268200000000002,0.0,0.0,0.0,0.0
3.82,0.6912864,-8.6749128,-4.7713392,1.3036296,0.0,0.0,0.0,0.0
3.84,0.5334,-8.566404,-4.6628304,1.2268200000000002,0.0,0.0,0.0,0.0
3.86,0.4953,-8.566404,-4.6628304,1.2268200000000002,0.0,0.0,0.0,0.0
3.88,0.6605016,-8.729167200000001,-4.7170848,1.2268200000000002,0.0,0.0,0.0,0.0
3.9,0.5477256,-8.566404,-4.6628304,1.1500104,0.0,0.0,0.0,0.0
3.92,0.3773424,-8.566404,-4.6628304,1.2268200000000002,0.0,0.0,0.0,0.0
3.9399999999999995,0.35052000000000005,-8.6749128,-4.554321600000001,1.2268200000000002,0.0,0.0,0.0,0.0
3.96,0.4014216,-8.566404,-4.6628304,1.3036296,0.0,0.0,0.0,0.0
3.9799999999999995,0.4794504,-8.6206584,-4.7170848,1.2268200000000002,0.0,0.0,0.0,0.0
3.9999999999999996,0.39563040000000005,-8.6206584,-4.7170848,1.1500104,0.0,0.0,0.0,0.0
4.02,0.33192720000000003,-8.6206584,-4.608576,1.3036296,0.0,0.0,0.0,0.0
4.04,0.42092880000000005,-8.6749128,-4.7713392,1.3036296,0.0,0.0,0.0,0.0
4.06,0.5705856,-8.566404,-4.7713392,1.1500104,0.0,0.0,0.0,0.0
4.08,0.5550408000000001,-8.566404,-4.7713392,1.2268200000000002,0.0,0.0,0.0,0.0
4.1,0.6132576000000001,-8.6206584,-4.7170848,1.2268200000000002,0.0,0.0,0.0,0.0
4.12,0.38983920000000005,-8.6206584,-4.7170848,1.1500104,0.0,0.0,0.0,0.0
4.14,0.37703760000000003,-8.6206584,-4.8252888,1.1500104,0.0,0.0,0.0,0.0
4.16,0.41757600000000006,-8.6206584,-4.7170848,1.2268200000000002,0.0,0.0,0.0,0.0
4.18,0.44531280000000006,-8.6206584,-4.7170848,1.1500104,0.0,0.0,0.0,0.0
4.2,0.6120384,-8.6749128,-4.7713392,1.0735056,0.0,0.0,0.0,0.0
4.22,0.6644639999999999,-8.566404,-4.7713392,1.3036296,0.0,0.0,0.0,0.0
4.239999999999999,0.6486144,-9.488119200000002,-2.548128,-3.9870888,0.0,0.0,0.0,0.0
4.26,0.6897624,-9.379915200000001,-4.3915584,1.7635728,0.0,0.0,0.0,0.0
4.279999999999999,0.6324600000000001,-9.4338648,-4.7713392,3.5271456,0.0,0.0,0.0,0.0
4.3,0.46390560000000003,-15.235428,-16.5366192,8.5109304,0.0,0.0,0.0,0.0
4.319999999999999,0.48585120000000004,-25.86228,-28.6813752,16.4854128,0.0,0.0,0.0,0.0
4.34,0.5041392,-64.1402832,-48.850600799999995,21.0092544,0.0,0.0,0.0,0.0
4.359999999999999,0.3578352,-97.70150640000001,-72.6524328,40.8684984,0.0,0.0,0.0,0.0
4.38,0.448056,-155.3355288,-66.74266560000001,8.5109304,0.0,0.0,0.0,0.0
4.3999999999999995,0.7574280000000001,-141.8350224,-80.243172,57.353911200000006,0.0,0.0,0.0,0.0
4.42,0.8860536000000001,-155.8774632,-66.20042640000001,62.797944,0.0,0.0,0.0,0.0
4.4399999999999995,1.246632,-142.4857704,-79.59242400000001,55.1300904,0.0,0.0,0.0,0.0
4.46,1.6248888000000001,-55.465370400000005,-36.2721144,18.8622432,0.0,0.0,0.0,0.0
4.4799999999999995,2.1336,-19.4102736,-14.421916800000002,7.6675488,0.0,0.0,0.0,0.0
4.5,2.4893016,-15.6691584,-9.7051368,5.9807856,0.0,0.0,0.0,0.0
4.52,3.0412944,-14.096695200000001,-8.1326736,5.597347200000001,0.0,0.0,0.0,0.0
4.54,3.5094672,-12.6327408,-7.427976000000001,6.1341,0.0,0.0,0.0,0.0
4.56,3.9672768,-12.6327408,-6.2349888,6.4407288000000005,0.0,0.0,0.0,0.0
4.58,4.3629072,-11.3315496,-4.5000672,5.4440328000000004,0.0,0.0,0.0,0.0
4.6,4.780788,-10.0846128,-3.6868608000000003,5.903976000000001,0.0,0.0,0.0,0.0
4.62,5.4324504000000005,-10.247376,-4.0663368,4.6006512,0.0,0.0,0.0,0.0
4.64,5.941466400000001,-8.5121496,-4.7170848,3.450336,0.0,0.0,0.0,0.0
4.66,6.3785496,-9.108643200000001,-3.7953696000000003,4.370527200000001,0.0,0.0,0.0,0.0
4.68,6.7037712,-8.5121496,-3.198876,4.907280000000001,0.0,0.0,0.0,0.0
4.699999999999999,7.226503200000002,-9.0543888,-4.608576,4.7539656,0.0,0.0,0.0,0.0
4.72,7.790688000000001,-8.94588,-4.0663368,4.6006512,0.0,0.0,0.0,0.0
4.74,8.085124800000001,-9.3256608,-3.7953696000000003,4.370527200000001,0.0,0.0,0.0,0.0
4.76,8.4542376,-9.3256608,-3.4698432,4.907280000000001,0.0,0.0,0.0,0.0
4.779999999999999,8.993124000000002,-8.0784192,-4.608576,4.370527200000001,0.0,0.0,0.0,0.0
4.8,9.3277944,-9.379915200000001,-5.1508152,4.2937176,0.0,0.0,0.0,0.0
4.819999999999999,9.8179128,-9.2714064,-5.1508152,4.0638984,0.0,0.0,0.0,0.0
4.84,10.293705600000001,-9.217152,-2.6023824,4.984089600000001,0.0,0.0,0.0,0.0
4.859999999999999,10.601858400000001,-8.729167200000001,-4.5000672,3.910584,0.0,0.0,0.0,0.0
4.88,11.047476000000001,-8.4582,-4.120591200000001,4.0638984,0.0,0.0,0.0,0.0
4.8999999999999995,11.5866672,-8.566404,-3.0361128,4.1404032,0.0,0.0,0.0,0.0
4.92,11.999976000000002,-6.668719200000001,-6.343497600000001,2.8370784000000002,0.0,0.0,0.0,0.0
4.9399999999999995,12.535204800000002,-7.8617064,-3.6326064,4.4473368,0.0,0.0,0.0,0.0
4.96,12.9921,-9.3256608,-4.120591200000001,3.450336,0.0,0.0,0.0,0.0
4.9799999999999995,13.2514848,-7.156704,-4.8795432000000005,4.8304704,0.0,0.0,0.0,0.0
5.0,13.648029600000001,-7.2652128,-3.9035736000000005,3.8337744,0.0,0.0,0.0,0.0
5.02,14.112240000000002,-7.4822304,-4.6628304,3.2205168000000004,0.0,0.0,0.0,0.0
5.04,14.538045600000002,-8.7834216,-1.8434304000000001,3.910584,0.0,0.0,0.0,0.0
5.06,14.971776000000002,-7.4822304,-4.012082400000001,2.223516,0.0,0.0,0.0,0.0
5.08,15.338145600000002,-7.2652128,-4.6628304,2.9135831999999997,0.0,0.0,0.0,0.0
5.1,15.877946400000003,-7.4822304,-3.6868608000000003,3.1437072,0.0,0.0,0.0,0.0
5.12,16.352520000000002,-8.837676,-2.1143976,4.370527200000001,0.0,0.0,0.0,0.0
5.14,16.821912,-8.241182400000001,-4.2291,1.5334488,0.0,0.0,0.0,0.0
5.16,17.3382432,-9.9218496,-3.5240976,0.996696,0.0,0.0,0.0,0.0
5.18,17.952110400000002,-9.7051368,-2.6566368,1.3801344,0.0,0.0,0.0,0.0
5.199999999999999,18.4291224,-8.295436800000001,-4.608576,5.5205376,0.0,0.0,0.0,0.0
5.22,18.8192664,-10.735360799999999,-2.0601432,6.2109096,0.0,0.0,0.0,0.0
5.24,19.279819200000002,-10.5183432,-2.0601432,6.2109096,0.0,0.0,0.0,0.0
5.26,19.8080376,-8.241182400000001,-3.0361128,4.984089600000001,0.0,0.0,0.0,0.0
5.279999999999999,20.3969112,-7.427976000000001,-3.6326064,6.4407288000000005,0.0,0.0,0.0,0.0
5.3,20.999805600000002,-9.5423736,-3.578352,5.750661600000001,0.0,0.0,0.0,0.0
5.32,21.545092800000003,-8.94588,-4.3915584,4.984089600000001,0.0,0.0,0.0,0.0
5.34,21.994977600000002,-8.94588,-4.7170848,6.5175384,0.0,0.0,0.0,0.0
5.359999999999999,22.349155200000002,-9.2714064,-4.5000672,4.2172128,0.0,0.0,0.0,0.0
5.38,22.7758752,-8.8919304,-4.120591200000001,5.5205376,0.0,0.0,0.0,0.0
5.3999999999999995,23.1882696,-8.8919304,-5.205069600000001,5.367223200000001,0.0,0.0,0.0,0.0
5.42,23.479048800000005,-8.1326736,-5.8555128,5.137404,0.0,0.0,0.0,0.0
5.4399999999999995,23.8615728,-8.837676,-4.7170848,5.367223200000001,0.0,0.0,0.0,0.0
5.46,24.3529104,-9.4338648,-4.120591200000001,3.6036504000000003,0.0,0.0,0.0,0.0
5.4799999999999995,24.585777600000004,-10.0303584,-4.1748456,2.9903928,0.0,0.0,0.0,0.0
5.5,24.982932,-9.867595200000002,-2.9279088,3.2205168000000004,0.0,0.0,0.0,0.0
5.52,25.351435200000004,-7.915960800000001,-5.8555128,4.2937176,0.0,0.0,0.0,0.0
5.54,25.7580384,-7.210958400000001,-4.608576,4.1404032,0.0,0.0,0.0,0.0
5.56,26.1756144,-10.735360799999999,-4.988052,4.0638984,0.0,0.0,0.0,0.0
5.58,26.569416,-30.362347200000002,-19.6269864,10.044684,0.0,0.0,0.0,0.0
5.6,27.0772128,0.0542544,-1.4639544,0.4599432,0.0,0.0,0.0,0.0
5.619999999999999,27.5719032,-0.16276320000000002,1.5724632,-0.15331440000000002,0.0,0.0,0.0,0.0
5.64,28.064764800000003,0.9217152000000001,1.1387328,0.30662880000000003,0.0,0.0,0.0,0.0
5.66,28.4661864,-0.1085088,0.7589520000000001,0.4599432,0.0,0.0,0.0,0.0
5.68,28.9706304,-1.5724632,-0.37947600000000004,0.996696,0.0,0.0,0.0,0.0
5.699999999999999,29.344010400000002,-8.5121496,-1.1387328,3.0672024,0.0,0.0,0.0,0.0
5.72,29.8704,-21.63318,-13.5005064,7.591044000000001,0.0,0.0,0.0,0.0
5.74,30.367224,-45.9772512,-29.603090400000003,19.398996,0.0,0.0,0.0,0.0
5.76,30.8408832,-88.2130824,-49.82657040000001,26.5300968,0.0,0.0,0.0,0.0
5.779999999999999,31.3416696,-133.1601096,-76.12258080000001,44.2423296,0.0,0.0,0.0,0.0
5.8,31.3706256,-141.67225919999998,-80.4056304,61.18768560000001,0.0,0.0,0.0,0.0
5.82,32.0549016,-159.45612,-62.6220744,75.44958240000001,0.0,0.0,0.0,0.0
5.84,32.8047096,-153.166572,-68.9113176,70.4654928,0.0,0.0,0.0,0.0
5.859999999999999,33.6160872,-124.376688,-79.4839152,40.1784312,0.0,0.0,0.0,0.0
5.88,34.559443200000004,-104.7497016,-66.037968,32.8175112,0.0,0.0,0.0,0.0
5.8999999999999995,35.556139200000004,-90.598752,-56.2243224,27.756916800000003,0.0,0.0,0.0,0.0
5.92,36.748212,-80.4598848,-50.31455520000001,24.459590400000003,0.0,0.0,0.0,0.0
5.9399999999999995,38.05245120000001,-76.8815328,-47.495155200000006,24.229771200000002,0.0,0.0,0.0,0.0
5.96,39.315542400000005,-75.74310480000001,-47.1156792,23.079456,0.0,0.0,0.0,0.0
5.9799999999999995,40.5563832,-73.953624,-45.109485600000006,22.6963224,0.0,0.0,0.0,0.0
6.0,41.8862256,-72.0019896,-45.109485600000006,22.4661984,0.0,0.0,0.0,0.0
6.02,43.177968,-72.0019896,-44.78426400000001,21.852636,0.0,0.0,0.0,0.0
6.04,44.402959200000005,-70.97176560000001,-43.9710576,20.932749600000005,0.0,0.0,0.0,0.0
6.06,45.6751944,-71.35124160000001,-43.266055200000004,21.315883200000002,0.0,0.0,0.0,0.0
6.08,46.8776304,-68.9113176,-42.452848800000005,21.315883200000002,0.0,0.0,0.0,0.0
6.1,48.0712272,-66.90542880000001,-41.422929599999996,21.0092544,0.0,0.0,0.0,0.0
6.119999999999999,49.3007904,-66.47169840000001,-40.44696,19.398996,0.0,0.0,0.0,0.0
6.14,50.53401120000001,-64.6825224,-40.067179200000005,19.7059296,0.0,0.0,0.0,0.0
6.16,51.8675112,-65.8209504,-40.3384512,19.0923672,0.0,0.0,0.0,0.0
6.18,53.216860800000006,-62.94729600000001,-37.898527200000004,18.4791096,0.0,0.0,0.0,0.0
6.199999999999999,54.638448,-62.567820000000005,-39.3624816,18.939052800000002,0.0,0.0,0.0,0.0
6.22,56.12404320000001,-63.7608072,-39.6877032,19.3224912,0.0,0.0,0.0,0.0
6.24,57.6446904,-64.628268,-37.1938296,18.2489856,0.0,0.0,0.0,0.0
6.26,59.2128864,-44.4590424,-27.651456,12.421514400000001,0.0,0.0,0.0,0.0
6.279999999999999,60.764928000000005,-9.867595200000002,-6.8314824000000005,2.683764,0.0,0.0,0.0,0.0
6.3,62.372138400000004,11.5485672,8.4039456,-5.6741568000000004,0.0,0.0,0.0,0.0
6.32,64.0040376,16.970349600000002,11.2230408,-7.8208632,0.0,0.0,0.0,0.0
6.34,65.58198720000001,18.705271200000002,12.7412496,-7.591044000000001,0.0,0.0,0.0,0.0
6.359999999999999,67.19316,19.789749600000004,12.7412496,-7.9744824,0.0,0.0,0.0,0.0
6.38,68.7241704,20.3319888,12.199010400000002,-8.357616,0.0,0.0,0.0,0.0
6.4,70.21677600000001,18.9222888,13.3919976,-8.1277968,0.0,0.0,0.0,0.0
6.42,71.8035648,20.602956,12.795504,-7.5142344,0.0,0.0,0.0,0.0
6.4399999999999995,73.3857816,19.6269864,12.036552,-7.6675488,0.0,0.0,0.0,0.0
6.46,75.1143024,19.1390016,12.0908064,-7.36092,0.0,0.0,0.0,0.0
6.4799999999999995,76.7602224,17.3498256,12.361773600000001,-8.2811112,0.0,0.0,0.0,0.0
6.5,78.4756368,18.8680344,11.6028216,-6.594043200000001,0.0,0.0,0.0,0.0
6.52,80.060292,17.0788584,11.657076,-7.130796,0.0,0.0,0.0,0.0
6.539999999999999,81.7248048,16.9160952,11.0605824,-8.2043016,0.0,0.0,0.0,0.0
6.56,83.33079599999999,17.6210976,10.4640888,-7.437729600000001,0.0,0.0,0.0,0.0
6.58,84.9931752,17.40408,9.379915200000001,-6.5175384,0.0,0.0,0.0,0.0
6.6,86.6293416,16.2653472,11.0605824,-6.6708528000000005,0.0,0.0,0.0,0.0
6.619999999999999,88.1438928,16.0486344,10.5183432,-5.827471200000001,0.0,0.0,0.0,0.0
6.64,89.6663688,16.2653472,10.0846128,-6.6708528000000005,0.0,0.0,0.0,0.0
6.66,91.21475280000001,15.777667200000002,10.247376,-6.0572904,0.0,0.0,0.0,0.0
6.68,92.65371360000002,16.0486344,9.217152,-6.747662400000001,0.0,0.0,0.0,0.0
6.699999999999999,94.02104640000002,15.614904,9.867595200000002,-6.747662400000001,0.0,0.0,0.0,0.0
6.72,95.4164208,16.0486344,9.6508824,-5.903976000000001,0.0,0.0,0.0,0.0
6.74,96.76058880000001,15.343632000000001,10.5725976,-5.903976000000001,0.0,0.0,0.0,0.0
6.76,98.0255088,16.0486344,9.217152,-5.903976000000001,0.0,0.0,0.0,0.0
6.779999999999999,99.09566160000001,14.8016976,9.2714064,-5.903976000000001,0.0,0.0,0.0,0.0
6.8,100.17709200000002,14.259458400000002,9.9218496,-6.0572904,0.0,0.0,0.0,0.0
6.82,101.27101920000001,14.909901600000001,8.94588,-5.5205376,0.0,0.0,0.0,0.0
6.84,102.3996936,14.476171200000001,9.1628976,-5.9807856,0.0,0.0,0.0,0.0
6.859999999999999,103.38206400000001,13.771473600000002,9.3256608,-5.6741568000000004,0.0,0.0,0.0,0.0
6.88,104.41381200000001,13.0664712,9.2714064,-4.984089600000001,0.0,0.0,0.0,0.0
6.9,105.3818568,13.3377432,8.566404,-5.750661600000001,0.0,0.0,0.0,0.0
6.92,106.5349152,12.8497584,8.295436800000001,-4.907280000000001,0.0,0.0,0.0,0.0
6.9399999999999995,107.65657920000001,12.524536800000002,8.6206584,-5.750661600000001,0.0,0.0,0.0,0.0
6.96,108.63376800000002,12.7412496,8.295436800000001,-4.4473368,0.0,0.0,0.0,0.0
6.9799999999999995,109.656372,12.6327408,8.186928,-4.1404032,0.0,0.0,0.0,0.0
7.0,110.72195280000001,11.982297599999999,8.4039456,-4.907280000000001,0.0,0.0,0.0,0.0
7.02,111.7439472,13.3919976,6.777228,-5.750661600000001,0.0,0.0,0.0,0.0
7.039999999999999,112.8253776,11.928043200000001,8.3496912,-4.523841600000001,0.0,0.0,0.0,0.0
7.06,113.864136,11.76528,7.6446888,-4.907280000000001,0.0,0.0,0.0,0.0
7.08,115.0114032,11.657076,7.8617064,-3.7572696000000003,0.0,0.0,0.0,0.0
7.1,116.1480024,11.76528,7.3194672,-4.8304704,0.0,0.0,0.0,0.0
7.119999999999999,117.33336960000001,11.982297599999999,6.777228,-4.523841600000001,0.0,0.0,0.0,0.0
7.14,118.36176480000002,11.657076,6.885736800000001,-4.2172128,0.0,0.0,0.0,0.0
7.16,119.431308,11.5485672,6.343497600000001,-3.9870888,0.0,0.0,0.0,0.0
7.18,120.55266720000002,10.355580000000002,7.5364848,-4.1404032,0.0,0.0,0.0,0.0
7.199999999999999,121.53747600000001,10.193121600000001,6.614769600000001,-4.907280000000001,0.0,0.0,0.0,0.0
7.22,122.662188,10.5183432,6.614769600000001,-3.8337744,0.0,0.0,0.0,0.0
7.24,123.73356,10.5183432,6.614769600000001,-3.68046,0.0,0.0,0.0,0.0
7.26,124.74427680000001,10.138867200000002,7.1024496,-3.8337744,0.0,0.0,0.0,0.0
7.279999999999999,125.65136160000002,9.976104,6.2892432000000005,-4.370527200000001,0.0,0.0,0.0,0.0
7.3,126.648972,9.976104,6.1807343999999995,-4.2172128,0.0,0.0,0.0,0.0
7.32,127.5868416,9.488119200000002,6.5605152,-4.0638984,0.0,0.0,0.0,0.0
7.34,128.5301976,9.7051368,6.1267848,-3.8337744,0.0,0.0,0.0,0.0
7.359999999999999,129.3744936,9.7051368,5.9097672,-4.1404032,0.0,0.0,0.0,0.0
7.38,130.29742800000002,9.0543888,5.5845456,-4.523841600000001,0.0,0.0,0.0,0.0
7.4,131.2282872,9.379915200000001,5.1508152,-4.984089600000001,0.0,0.0,0.0,0.0
7.42,132.056124,9.3256608,5.638800000000001,-3.8337744,0.0,0.0,0.0,0.0
7.4399999999999995,132.7852056,8.6749128,6.2892432000000005,-3.6036504000000003,0.0,0.0,0.0,0.0
7.46,133.7023488,8.4039456,6.018276,-3.450336,0.0,0.0,0.0,0.0
7.4799999999999995,134.61034800000002,8.8919304,5.5302912,-3.68046,0.0,0.0,0.0,0.0
7.5,135.4168488,8.1326736,5.205069600000001,-3.68046,0.0,0.0,0.0,0.0
7.52,136.2977208,8.4039456,5.1508152,-3.2970216000000003,0.0,0.0,0.0,0.0
7.539999999999999,137.1383592,8.295436800000001,5.476036800000001,-3.9870888,0.0,0.0,0.0,0.0
7.56,138.00094320000002,8.241182400000001,4.7713392,-3.5271456,0.0,0.0,0.0,0.0
7.58,138.87937680000002,7.8617064,5.0423064,-3.3738312000000006,0.0,0.0,0.0,0.0
7.6,139.7267208,7.6989432,5.5302912,-3.2205168000000004,0.0,0.0,0.0,0.0
7.619999999999999,140.57650320000002,7.6446888,4.933797600000001,-2.9135831999999997,0.0,0.0,0.0,0.0
7.64,141.5027904,7.753197600000001,4.608576,-3.450336,0.0,0.0,0.0,0.0
7.66,142.44401280000002,7.915960800000001,4.445812800000001,-3.2970216000000003,0.0,0.0,0.0,0.0
7.68,143.3343336,7.6446888,4.5000672,-3.0672024,0.0,0.0,0.0,0.0
7.699999999999999,144.2429424,6.9942456,5.0423064,-3.2205168000000004,0.0,0.0,0.0,0.0
7.72,145.0180488,6.9942456,4.5000672,-3.2205168000000004,0.0,0.0,0.0,0.0
7.74,145.8504576,7.1024496,4.1748456,-2.9903928,0.0,0.0,0.0,0.0
7.76,146.8270368,7.427976000000001,4.5000672,-2.4536400000000005,0.0,0.0,0.0,0.0
7.779999999999999,147.6076296,7.1024496,4.2833544,-2.9135831999999997,0.0,0.0,0.0,0.0
7.8,148.474176,6.885736800000001,4.608576,-2.5304496,0.0,0.0,0.0,0.0
7.82,149.3452944,6.9942456,4.1748456,-2.9903928,0.0,0.0,0.0,0.0
7.84,150.12375360000001,6.885736800000001,4.3915584,-3.2970216000000003,0.0,0.0,0.0,0.0
7.859999999999999,150.8747808,7.048500000000001,3.6868608000000003,-2.6069544000000002,0.0,0.0,0.0,0.0
7.88,151.5797832,6.343497600000001,3.957828,-2.8370784000000002,0.0,0.0,0.0,0.0
7.9,152.2421136,6.506260800000001,4.012082400000001,-2.6069544000000002,0.0,0.0,0.0,0.0
7.92,152.8514088,6.343497600000001,4.2833544,-2.5304496,0.0,0.0,0.0,0.0
7.9399999999999995,153.54360960000002,6.614769600000001,3.6868608000000003,-2.5304496,0.0,0.0,0.0,0.0
7.96,154.20746400000002,5.9097672,3.957828,-2.6069544000000002,0.0,0.0,0.0,0.0
7.9799999999999995,154.9255728,6.1267848,3.8496240000000004,-2.3003256,0.0,0.0,0.0,0.0
8.0,155.6805624,6.018276,3.7411152,-2.7602688,0.0,0.0,0.0,0.0
8.02,156.38800319999999,5.9097672,3.8496240000000004,-2.683764,0.0,0.0,0.0,0.0
8.04,156.9616368,6.0725304,3.7953696000000003,-2.5304496,0.0,0.0,0.0,0.0
8.059999999999999,157.71479760000003,6.0725304,3.4698432,-2.3768304000000002,0.0,0.0,0.0,0.0
8.08,158.41218,5.6930544,3.4158936000000004,-2.5304496,0.0,0.0,0.0,0.0
8.1,159.1043808,5.801258400000001,3.3073848000000003,-2.6069544000000002,0.0,0.0,0.0,0.0
8.12,159.8106024,5.7470040000000004,3.3616392,-2.6069544000000002,0.0,0.0,0.0,0.0
8.14,160.4579976,5.638800000000001,3.2531304000000003,-2.3003256,0.0,0.0,0.0,0.0
8.16,161.19744240000003,5.421782400000001,3.2531304000000003,-2.4536400000000005,0.0,0.0,0.0,0.0
8.18,161.973768,5.205069600000001,3.578352,-2.223516,0.0,0.0,0.0,0.0
8.2,162.66139680000003,5.5845456,3.0903671999999998,-2.3768304000000002,0.0,0.0,0.0,0.0
8.219999999999999,163.3862112,4.8252888,3.3073848000000003,-2.3003256,0.0,0.0,0.0,0.0
8.239999999999998,164.1786912,5.259324,3.4158936000000004,-2.5304496,0.0,0.0,0.0,0.0
8.26,164.7629928,5.3132736,3.1446216000000002,-2.3768304000000002,0.0,0.0,0.0,0.0
8.28,165.4600704,5.1508152,2.8736544000000004,-2.1470112,0.0,0.0,0.0,0.0
8.3,166.2190224,5.0423064,2.7651456,-2.223516,0.0,0.0,0.0,0.0
8.32,166.83228000000003,4.8252888,2.7651456,-2.3003256,0.0,0.0,0.0,0.0
8.34,167.60007120000003,4.5000672,3.0903671999999998,-1.9936968000000002,0.0,0.0,0.0,0.0
8.36,168.3376872,4.6628304,2.9279088,-1.9936968000000002,0.0,0.0,0.0,0.0
8.379999999999999,169.0381176,4.6628304,2.6023824,-2.1470112,0.0,0.0,0.0,0.0
8.399999999999999,169.68368400000003,4.3376088,2.9279088,-1.9168872,0.0,0.0,0.0,0.0
8.42,170.23842,4.3915584,2.6566368,-2.0702016,0.0,0.0,0.0,0.0
8.44,170.8291224,4.2291,2.8194000000000004,-1.5334488,0.0,0.0,0.0,0.0
8.46,171.3911736,4.5000672,2.548128,-2.1470112,0.0,0.0,0.0,0.0
8.48,171.9001896,4.120591200000001,2.4941784,-2.0702016,0.0,0.0,0.0,0.0
8.5,172.365924,4.554321600000001,2.4941784,-2.0702016,0.0,0.0,0.0,0.0
8.52,172.92066000000003,4.2291,2.3856696,-1.8400776,0.0,0.0,0.0,0.0
8.54,173.38487039999998,4.1748456,2.2229064000000003,-1.5334488,0.0,0.0,0.0,0.0
8.559999999999999,173.8378032,3.7953696000000003,2.4941784,-1.8400776,0.0,0.0,0.0,0.0
8.58,174.28829760000002,3.7953696000000003,2.2771608000000003,-1.9168872,0.0,0.0,0.0,0.0
8.6,174.7092264,4.012082400000001,2.7108912000000003,-1.6867632000000001,0.0,0.0,0.0,0.0
8.620000000000001,175.19477280000004,3.8496240000000004,2.4399240000000004,-1.6867632000000001,0.0,0.0,0.0,0.0
8.64,175.75743359999998,3.7953696000000003,2.2771608000000003,-1.6102584000000002,0.0,0.0,0.0,0.0
8.66,176.22072960000003,3.8496240000000004,2.1143976,-1.6867632000000001,0.0,0.0,0.0,0.0
8.68,176.6203224,3.4158936000000004,2.6566368,-1.3801344,0.0,0.0,0.0,0.0
8.7,177.1016016,3.3616392,2.7108912000000003,-1.7635728,0.0,0.0,0.0,0.0
8.719999999999999,177.58501440000003,3.5240976,2.3314152,-1.8400776,0.0,0.0,0.0,0.0
8.739999999999998,178.06690319999998,3.198876,2.2229064000000003,-1.6102584000000002,0.0,0.0,0.0,0.0
8.76,178.53355200000001,3.2531304000000003,2.2771608000000003,-1.6867632000000001,0.0,0.0,0.0,0.0
8.78,178.9934952,3.2531304000000003,2.1686520000000002,-1.6102584000000002,0.0,0.0,0.0,0.0
8.8,179.486052,3.3073848000000003,2.2229064000000003,-1.3801344,0.0,0.0,0.0,0.0
8.82,180.072792,3.3073848000000003,2.3314152,-1.6102584000000002,0.0,0.0,0.0,0.0
8.84,180.5754072,3.1446216000000002,1.9519392,-1.4569440000000002,0.0,0.0,0.0,0.0
8.86,181.05942960000002,2.9279088,2.0601432,-1.6867632000000001,0.0,0.0,0.0,0.0
8.879999999999999,181.61782320000003,2.9818584,1.8976848000000002,-1.5334488,0.0,0.0,0.0,0.0
8.899999999999999,182.1137328,2.8194000000000004,2.0601432,-1.6102584000000002,0.0,0.0,0.0,0.0
8.92,182.555388,3.0361128,2.0601432,-1.6102584000000002,0.0,0.0,0.0,0.0
8.94,182.90164080000002,2.8736544000000004,2.1143976,-1.5334488,0.0,0.0,0.0,0.0
8.96,183.35548799999998,2.9279088,1.9519392,-1.5334488,0.0,0.0,0.0,0.0
8.98,183.7992768,2.9279088,1.9519392,-1.4569440000000002,0.0,0.0,0.0,0.0
9.0,184.32200880000002,2.8194000000000004,1.7349216,-1.3801344,0.0,0.0,0.0,0.0
9.02,184.7761608,2.4941784,1.6264128000000002,-1.4569440000000002,0.0,0.0,0.0,0.0
9.04,185.26627919999999,1.9519392,0.8674608,-1.3036296,0.0,0.0,0.0,0.0
9.059999999999999,185.7375,-2.1686520000000002,-1.5182088,0.4599432,0.0,0.0,0.0,0.0
9.08,184.77158880000002,56.00760960000001,37.4647968,-9.891369599999999,0.0,0.0,0.0,0.0
9.1,184.9858632,4.3376088,6.506260800000001,-1.0735056,0.0,0.0,0.0,0.0
9.120000000000001,185.33150640000002,28.193390400000002,21.5789256,-27.910231200000002,0.0,0.0,0.0,0.0
9.14,185.64941280000002,112.3943904,53.9471616,-18.939052800000002,0.0,0.0,0.0,0.0
9.16,185.93562,24.832056,13.554456,-31.0539384,0.0,0.0,0.0,0.0
9.18,186.249564,7.6446888,1.3554456000000001,-18.0956712,0.0,0.0,0.0,0.0
9.2,186.61776240000003,-2.548128,-2.3314152,-31.360567200000002,0.0,0.0,0.0,0.0
9.219999999999999,187.0585032,4.120591200000001,-21.470416800000002,-35.6545896,0.0,0.0,0.0,0.0
9.239999999999998,187.63640400000003,35.2418904,-69.94154160000001,-46.695969600000005,0.0,0.0,0.0,0.0
9.26,188.5745784,26.133247200000003,-83.821524,-29.2903656,0.0,0.0,0.0,0.0
9.28,188.6541312,45.3807576,-65.76669600000001,15.795345600000001,0.0,0.0,0.0,0.0
9.3,188.7333792,66.9596832,-11.873788800000002,60.5741232,0.0,0.0,0.0,0.0
9.32,189.1582704,25.8080256,17.5668432,25.533096,0.0,0.0,0.0,0.0
9.34,189.5651784,5.259324,13.608710400000001,-2.3003256,0.0,0.0,0.0,0.0
9.36,189.8672352,-8.4582,8.3496912,-8.6645496,0.0,0.0,0.0,0.0
9.379999999999999,190.11290400000001,-61.6461048,8.0784192,14.0317728,0.0,0.0,0.0,0.0
9.399999999999999,190.3771656,-88.15882800000001,6.0725304,-19.4758056,0.0,0.0,0.0,0.0
9.42,190.6563624,-35.458908,92.2794192,-71.99894160000001,0.0,0.0,0.0,0.0
9.44,191.0535168,-36.0550968,-3.8496240000000004,23.2327704,0.0,0.0,0.0,0.0
9.46,191.35100160000002,6.9399912,-4.445812800000001,-28.906927200000002,0.0,0.0,0.0,0.0
9.48,191.51102160000002,15.7234128,9.6508824,-12.2682,0.0,0.0,0.0,0.0
9.5,191.6241024,44.187770400000005,9.596628,-49.302924000000004,0.0,0.0,0.0,0.0
9.52,191.7426696,75.3090696,-4.608576,1.4569440000000002,0.0,0.0,0.0,0.0
9.54,191.8399008,44.025312,-0.1085088,45.6989688,0.0,0.0,0.0,0.0
9.559999999999999,191.95023840000002,23.151084,3.198876,19.4758056,0.0,0.0,0.0,0.0
9.58,192.0416784,10.5183432,9.0001344,0.996696,0.0,0.0,0.0,0.0
9.6,192.13189920000002,3.5240976,18.5967624,-2.7602688,0.0,0.0,0.0,0.0
9.620000000000001,192.30197760000001,-15.777667200000002,45.4892664,6.9774816,0.0,0.0,0.0,0.0
9.64,192.49400160000002,-3.0903671999999998,-0.7046976,27.1433544,0.0,0.0,0.0,0.0
9.66,192.61287360000003,0.0542544,-8.94588,24.6132096,0.0,0.0,0.0,0.0
9.68,192.7146768,6.4520064,-19.789749600000004,6.594043200000001,0.0,0.0,0.0,0.0
9.7,192.8079456,3.4158936000000004,-14.693188800000001,0.0768096,0.0,0.0,0.0,0.0
9.719999999999999,192.8814024,0.5964936000000001,-6.885736800000001,-6.4407288000000005,0.0,0.0,0.0,0.0
9.739999999999998,192.9390096,-4.6628304,7.156704,-10.044684,0.0,0.0,0.0,0.0
9.76,192.9938736,-8.186928,11.873788800000002,-19.1691768,0.0,0.0,0.0,0.0
9.78,193.0621488,-1.8976848000000002,6.885736800000001,-5.2139088000000005,0.0,0.0,0.0,0.0
9.8,193.1154888,4.8795432000000005,11.8195344,6.2874144,0.0,0.0,0.0,0.0
9.82,193.17370560000003,5.421782400000001,-0.9759696,12.1913904,0.0,0.0,0.0,0.0
9.84,193.23375120000003,3.9035736000000005,-6.2892432000000005,11.271504,0.0,0.0,0.0,0.0
9.86,193.30019760000002,16.4281104,-5.6930544,5.903976000000001,0.0,0.0,0.0,0.0
9.879999999999999,193.3648152,22.175419200000004,-7.753197600000001,-4.4473368,0.0,0.0,0.0,0.0
9.899999999999999,193.41693600000002,8.4039456,-14.1509496,-17.7887376,0.0,0.0,0.0,0.0
9.92,193.47271440000003,-1.8434304000000001,-8.241182400000001,-1.8400776,0.0,0.0,0.0,0.0
9.94,193.520568,-3.1446216000000002,-7.5904344,-4.1404032,0.0,0.0,0.0,0.0
9.96,193.5732984,3.4158936000000004,-4.7170848,-11.1181896,0.0,0.0,0.0,0.0
9.98,193.6437072,5.1508152,1.6806672000000002,-9.047683200000002,0.0,0.0,0.0,0.0
10.0,193.7061912,-0.2170176,2.8194000000000004,-5.2907184,0.0,0.0,0.0,0.0
10.02,193.7863536,5.964021600000001,6.9399912,-13.0350768,0.0,0.0,0.0,0.0
10.04,193.86804,-0.0542544,5.6930544,-4.0638984,0.0,0.0,0.0,0.0
10.059999999999999,193.90614,0.9759696,2.2771608000000003,0.15331440000000002,0.0,0.0,0.0,0.0
10.08,193.9619184,2.6566368,7.6446888,2.4536400000000005,0.0,0.0,0.0,0.0
10.1,193.9948368,-0.4337304,6.8314824000000005,0.996696,0.0,0.0,0.0,0.0
10.120000000000001,194.04848160000003,-2.1686520000000002,4.120591200000001,-0.0768096,0.0,0.0,0.0,0.0
10.14,194.08871520000002,-1.8434304000000001,2.9279088,-1.4569440000000002,0.0,0.0,0.0,0.0
10.16,194.1185856,-1.6264128000000002,3.2531304000000003,-1.1500104,0.0,0.0,0.0,0.0
10.18,194.1420552,-0.9759696,2.6023824,-0.6135624,0.0,0.0,0.0,0.0
10.2,194.169792,-0.2709672,2.3314152,0.15331440000000002,0.0,0.0,0.0,0.0
10.219999999999999,194.1944808,3.0361128,4.120591200000001,2.1470112,0.0,0.0,0.0,0.0
10.239999999999998,194.21856000000002,3.1446216000000002,2.4941784,0.8433816000000001,0.0,0.0,0.0,0.0
10.26,194.2325808,2.6566368,1.8976848000000002,-1.0735056,0.0,0.0,0.0,0.0
10.28,194.247516,2.6023824,2.7108912000000003,-2.5304496,0.0,0.0,0.0,0.0
10.3,194.25513600000002,1.7349216,3.578352,-3.68046,0.0,0.0,0.0,0.0
10.32,194.2636704,0.8674608,4.554321600000001,-1.5334488,0.0,0.0,0.0,0.0
10.34,194.33316480000002,0.8674608,3.1446216000000002,2.1470112,0.0,0.0,0.0,0.0
10.36,194.3788848,0.8674608,2.1686520000000002,1.9936968000000002,0.0,0.0,0.0,0.0
10.379999999999999,194.4276528,4.8795432000000005,0.650748,6.8241672,0.0,0.0,0.0,0.0
10.399999999999999,194.3794944,6.018276,-4.8252888,0.30662880000000003,0.0,0.0,0.0,0.0
10.42,194.2194744,7.8617064,-4.1748456,-2.9135831999999997,0.0,0.0,0.0,0.0
10.44,194.0469576,-0.7589520000000001,1.8434304000000001,-0.9201912000000001,0.0,0.0,0.0,0.0
10.46,193.95978480000002,-1.789176,2.7651456,1.5334488,0.0,0.0,0.0,0.0
10.48,193.924428,0.5964936000000001,5.367528,3.9870888,0.0,0.0,0.0,0.0
10.5,193.8293304,2.0601432,1.3011912,5.137404,0.0,0.0,0.0,0.0
10.52,193.86042,9.0543888,0.9217152000000001,10.121188800000002,0.0,0.0,0.0,0.0
10.54,193.79184,2.4399240000000004,-2.548128,0.23012400000000002,0.0,0.0,0.0,0.0
10.559999999999999,193.7692848,5.7470040000000004,-3.6868608000000003,1.6102584000000002,0.0,0.0,0.0,0.0
10.58,193.6808928,6.885736800000001,-5.476036800000001,1.0735056,0.0,0.0,0.0,0.0
10.6,193.4294328,2.6023824,-3.578352,-1.7635728,0.0,0.0,0.0,0.0
10.620000000000001,193.25142960000002,2.6023824,-4.120591200000001,-2.6069544000000002,0.0,0.0,0.0,0.0
10.64,193.2026616,4.5000672,-5.0423064,-1.2268200000000002,0.0,0.0,0.0,0.0
10.66,193.1142696,3.957828,-2.6566368,-1.2268200000000002,0.0,0.0,0.0,0.0
10.68,193.0615392,2.4399240000000004,-0.9217152000000001,-1.6867632000000001,0.0,0.0,0.0,0.0
10.7,192.942972,5.476036800000001,1.3554456000000001,-0.15331440000000002,0.0,0.0,0.0,0.0
10.719999999999999,192.84299760000002,9.7051368,3.198876,1.9168872,0.0,0.0,0.0,0.0
10.739999999999998,192.73113600000002,3.578352,6.614769600000001,-3.450336,0.0,0.0,0.0,0.0
10.76,192.6738336,5.3132736,12.686995200000002,-5.827471200000001,0.0,0.0,0.0,0.0
10.78,192.568068,6.506260800000001,6.1807343999999995,-4.2937176,0.0,0.0,0.0,0.0
10.8,192.39555120000003,3.198876,2.4399240000000004,-4.2937176,0.0,0.0,0.0,0.0
10.82,192.29649120000002,0.37947600000000004,1.3554456000000001,-1.6867632000000001,0.0,0.0,0.0,0.0
10.84,192.1834104,0.4879848,3.0903671999999998,-1.0735056,0.0,0.0,0.0,0.0
10.86,191.9471904,-0.1085088,4.120591200000001,-2.8370784000000002,0.0,0.0,0.0,0.0
10.879999999999999,191.80728720000002,2.1143976,3.3073848000000003,-7.2076056,0.0,0.0,0.0,0.0
10.899999999999999,191.71706640000002,2.6566368,4.933797600000001,-5.2139088000000005,0.0,0.0,0.0,0.0
10.92,191.66616480000002,1.6806672000000002,4.608576,-7.437729600000001,0.0,0.0,0.0,0.0
10.94,191.60032800000002,2.7108912000000003,3.7953696000000003,-6.6708528000000005,0.0,0.0,0.0,0.0
10.96,191.49303840000002,3.7953696000000003,4.6628304,-5.367223200000001,0.0,0.0,0.0,0.0
10.98,191.44030800000002,4.120591200000001,1.5182088,-6.1341,0.0,0.0,0.0,0.0
11.0,191.39885519999999,3.3073848000000003,2.4399240000000004,-6.6708528000000005,0.0,0.0,0.0,0.0
11.02,191.29827120000002,0.8674608,1.8434304000000001,-5.9807856,0.0,0.0,0.0,0.0
11.04,191.23822560000002,3.4158936000000004,2.8736544000000004,-7.130796,0.0,0.0,0.0,0.0
11.059999999999999,191.2403592,5.096560800000001,6.506260800000001,-9.1244928,0.0,0.0,0.0,0.0
11.08,191.161416,3.957828,2.2229064000000003,-6.9774816,0.0,0.0,0.0,0.0
11.1,190.98219360000002,4.554321600000001,2.3856696,-5.4440328000000004,0.0,0.0,0.0,0.0
11.120000000000001,190.78834080000001,1.5724632,1.789176,-3.7572696000000003,0.0,0.0,0.0,0.0
11.14,190.67739360000002,3.5240976,5.0423064,-2.0702016,0.0,0.0,0.0,0.0
11.16,190.5539496,2.1686520000000002,6.9399912,-3.2970216000000003,0.0,0.0,0.0,0.0
11.18,190.4448312,0.650748,4.554321600000001,-4.0638984,0.0,0.0,0.0,0.0
11.2,190.3451616,1.8976848000000002,6.5605152,-7.8976728000000005,0.0,0.0,0.0,0.0
11.219999999999999,190.20525840000002,0.2709672,1.6806672000000002,-6.8241672,0.0,0.0,0.0,0.0
11.239999999999998,190.0994928,1.1926824,0.0,-4.984089600000001,0.0,0.0,0.0,0.0
11.26,189.9138696,2.7651456,0.5964936000000001,-2.5304496,0.0,0.0,0.0,0.0
11.28,189.7477536,2.7108912000000003,1.9519392,0.996696,0.0,0.0,0.0,0.0
11.3,189.6185184,1.6806672000000002,5.801258400000001,3.2205168000000004,0.0,0.0,0.0,0.0
11.32,189.37864080000003,-0.5964936000000001,6.777228,0.6135624,0.0,0.0,0.0,0.0
11.34,189.1753392,-0.5422392,9.108643200000001,-3.450336,0.0,0.0,0.0,0.0
11.36,189.1921032,-1.4097000000000002,6.506260800000001,-8.357616,0.0,0.0,0.0,0.0
11.379999999999999,189.0768888,1.0844784,2.2771608000000003,-10.3513128,0.0,0.0,0.0,0.0
11.399999999999999,188.92296480000002,9.4338648,-1.1926824,-8.817864,0.0,0.0,0.0,0.0
11.42,188.7967776,6.4520064,-2.548128,-1.9168872,0.0,0.0,0.0,0.0
11.44,188.66479920000003,5.638800000000001,0.0,2.7602688,0.0,0.0,0.0,0.0
11.46,188.5440984,4.554321600000001,4.7713392,5.903976000000001,0.0,0.0,0.0,0.0
11.48,188.3767632,1.2469368,5.9097672,3.5271456,0.0,0.0,0.0,0.0
11.5,188.2639872,1.030224,6.9942456,1.5334488,0.0,0.0,0.0,0.0
11.52,188.0853744,0.37947600000000004,7.427976000000001,-0.15331440000000002,0.0,0.0,0.0,0.0
11.54,187.843668,0.0542544,6.2349888,-1.2268200000000002,0.0,0.0,0.0,0.0
11.559999999999999,187.69157280000002,0.8674608,5.421782400000001,-2.5304496,0.0,0.0,0.0,0.0
11.58,187.6254312,1.8976848000000002,3.957828,-3.6036504000000003,0.0,0.0,0.0,0.0
11.6,187.522104,2.9818584,3.0903671999999998,-4.370527200000001,0.0,0.0,0.0,0.0
11.620000000000001,187.36360800000003,3.3616392,1.0844784,-5.597347200000001,0.0,0.0,0.0,0.0
11.64,187.10148,3.5240976,-0.9217152000000001,-7.2076056,0.0,0.0,0.0,0.0
11.66,186.898788,0.7589520000000001,-2.9279088,-7.9744824,0.0,0.0,0.0,0.0
11.68,186.58728240000002,3.0903671999999998,-4.5000672,-10.888065600000001,0.0,0.0,0.0,0.0
11.7,186.3419184,2.3856696,-2.2771608000000003,-12.1913904,0.0,0.0,0.0,0.0
11.719999999999999,186.3467952,3.3616392,3.2531304000000003,-16.7920416,0.0,0.0,0.0,0.0
11.739999999999998,186.2715096,-0.0542544,4.5000672,-22.389388800000003,0.0,0.0,0.0,0.0
11.76,186.2392008,-1.8434304000000001,-1.0844784,-12.421514400000001,0.0,0.0,0.0,0.0
11.78,186.3102192,-0.5422392,-4.2291,-8.817864,0.0,0.0,0.0,0.0
11.8,186.43762560000002,3.7953696000000003,-9.6508824,-4.1404032,0.0,0.0,0.0,0.0
11.82,186.4708488,4.8795432000000005,-11.1690912,-2.8370784000000002,0.0,0.0,0.0,0.0
11.84,186.3940392,7.753197600000001,-10.247376,6.1341,0.0,0.0,0.0,0.0
11.86,186.06881760000002,7.1024496,-10.247376,7.5142344,0.0,0.0,0.0,0.0
11.879999999999999,185.7012288,5.801258400000001,-9.813645600000001,3.910584,0.0,0.0,0.0,0.0
11.899999999999999,185.3113896,5.6930544,-9.488119200000002,2.223516,0.0,0.0,0.0,0.0
11.92,185.05688160000003,3.7411152,-7.753197600000001,-0.8433816000000001,0.0,0.0,0.0,0.0
11.94,184.7060568,4.1748456,-7.970215200000001,-1.6867632000000001,0.0,0.0,0.0,0.0
11.96,184.47501839999998,4.8252888,-8.4039456,-2.0702016,0.0,0.0,0.0,0.0
11.98,184.42686000000003,4.608576,-8.4039456,-2.1470112,0.0,0.0,0.0,0.0
12.0,184.2796416,5.0423064,-8.4039456,-1.0735056,0.0,0.0,0.0,0.0
12.02,184.2595248,5.801258400000001,-8.837676,0.9201912000000001,0.0,0.0,0.0,0.0
12.04,184.10316240000003,5.9097672,-8.5121496,3.2970216000000003,0.0,0.0,0.0,0.0
12.059999999999999,183.7755024,5.367528,-7.8617064,3.2970216000000003,0.0,0.0,0.0,0.0
12.08,183.59628,3.0903671999999998,-5.476036800000001,4.677156,0.0,0.0,0.0,0.0
12.1,183.3573168,11.2230408,6.018276,8.8943688,0.0,0.0,0.0,0.0
12.120000000000001,183.1311552,15.3978864,12.2532648,-8.2811112,0.0,0.0,0.0,0.0
12.14,182.9552856,12.4702824,16.0486344,-47.2324176,0.0,0.0,0.0,0.0
12.16,182.89889760000003,6.018276,7.1024496,-3.0672024,0.0,0.0,0.0,0.0
12.18,182.8879248,7.3737216000000005,4.7713392,16.715536800000002,0.0,0.0,0.0,0.0
12.2,182.9248056,6.2892432000000005,3.578352,19.3224912,0.0,0.0,0.0,0.0
12.219999999999999,182.96016240000003,9.7051368,-1.030224,19.4758056,0.0,0.0,0.0,0.0
12.239999999999998,183.008016,6.777228,-4.8252888,16.0254696,0.0,0.0,0.0,0.0
12.259999999999998,183.0418488,6.668719200000001,-8.4039456,13.264896000000002,0.0,0.0,0.0,0.0
12.280000000000001,182.70504480000002,4.3915584,-9.2714064,7.8976728000000005,0.0,0.0,0.0,0.0
12.3,182.35391520000002,4.8795432000000005,-0.650748,-2.3768304000000002,0.0,0.0,0.0,0.0
12.32,181.938168,0.4337304,12.361773600000001,-2.8370784000000002,0.0,0.0,0.0,0.0
12.34,181.52272560000003,-2.6566368,12.7412496,-0.8433816000000001,0.0,0.0,0.0,0.0
12.36,181.12160880000002,4.7170848,13.608710400000001,2.9903928,0.0,0.0,0.0,0.0
12.379999999999999,180.87502560000001,13.554456,-0.2170176,5.137404,0.0,0.0,0.0,0.0
12.399999999999999,180.61106880000003,22.7173536,-7.6446888,8.1277968,0.0,0.0,0.0,0.0
12.419999999999998,180.60649680000003,23.964595199999998,-15.3978864,-19.0158624,0.0,0.0,0.0,0.0
12.440000000000001,180.6720288,6.2892432000000005,-6.397752,-11.501323200000002,0.0,0.0,0.0,0.0
12.46,180.6049728,6.506260800000001,-5.7470040000000004,-21.392692800000003,0.0,0.0,0.0,0.0
12.48,180.4227024,2.8736544000000004,-4.933797600000001,-14.72184,0.0,0.0,0.0,0.0
12.5,180.0968712,-2.6023824,-2.9279088,-9.2013024,0.0,0.0,0.0,0.0
12.52,179.769516,6.343497600000001,-5.0423064,-8.6645496,0.0,0.0,0.0,0.0
12.54,179.5634712,8.5121496,-12.8497584,1.2268200000000002,0.0,0.0,0.0,0.0
12.559999999999999,179.333652,16.6993824,-23.6390688,-4.6006512,0.0,0.0,0.0,0.0
12.579999999999998,179.2038072,10.247376,-19.0304928,-3.68046,0.0,0.0,0.0,0.0
12.600000000000001,179.0657328,9.813645600000001,-16.645128,-1.9936968000000002,0.0,0.0,0.0,0.0
12.620000000000001,178.9560048,7.156704,-13.554456,-0.9201912000000001,0.0,0.0,0.0,0.0
12.64,178.88437679999998,5.259324,-11.657076,0.996696,0.0,0.0,0.0,0.0
12.66,178.7962896,4.608576,-8.6206584,5.9807856,0.0,0.0,0.0,0.0
12.68,178.9505184,4.0663368,-4.3915584,9.5079312,0.0,0.0,0.0,0.0
12.7,179.16570719999999,11.7110256,1.4097000000000002,16.101974400000003,0.0,0.0,0.0,0.0
12.719999999999999,179.1474192,14.313712800000001,-1.4097000000000002,15.2585928,0.0,0.0,0.0,0.0
12.739999999999998,179.1016992,10.952073600000002,-6.0725304,6.594043200000001,0.0,0.0,0.0,0.0
12.759999999999998,178.79141280000002,9.4338648,-6.0725304,0.996696,0.0,0.0,0.0,0.0
12.780000000000001,178.5277608,8.94588,-6.885736800000001,-1.1500104,0.0,0.0,0.0,0.0
12.8,178.2433824,10.0303584,-8.837676,-1.3036296,0.0,0.0,0.0,0.0
12.82,178.1165856,15.235428,-9.9218496,-3.6036504000000003,0.0,0.0,0.0,0.0
12.84,177.9952752,4.554321600000001,-3.1446216000000002,-5.9807856,0.0,0.0,0.0,0.0
12.86,177.78191520000001,0.4879848,0.7046976,-5.6741568000000004,0.0,0.0,0.0,0.0
12.879999999999999,177.4673616,0.16276320000000002,1.3554456000000001,-3.68046,0.0,0.0,0.0,0.0
12.899999999999999,177.251868,1.8976848000000002,1.789176,-2.5304496,0.0,0.0,0.0,0.0
12.919999999999998,176.9735856,2.2229064000000003,2.7651456,-1.4569440000000002,0.0,0.0,0.0,0.0
12.940000000000001,176.74559520000003,4.0663368,4.0663368,-1.6102584000000002,0.0,0.0,0.0,0.0
12.96,176.51516640000003,4.012082400000001,3.2531304000000003,-0.15331440000000002,0.0,0.0,0.0,0.0
12.98,176.3066832,5.421782400000001,2.3856696,0.7668768,0.0,0.0,0.0,0.0
13.0,176.15153999999998,5.3132736,2.8194000000000004,-2.0702016,0.0,0.0,0.0,0.0
13.02,176.01438000000002,10.0303584,4.2833544,-2.9135831999999997,0.0,0.0,0.0,0.0
13.04,175.84673999999998,9.9218496,6.5605152,-4.1404032,0.0,0.0,0.0,0.0
13.059999999999999,175.66538400000002,11.873788800000002,9.813645600000001,-8.5109304,0.0,0.0,0.0,0.0
13.079999999999998,175.45872960000003,9.7051368,6.1267848,0.6900672,0.0,0.0,0.0,0.0
13.100000000000001,175.39624560000001,10.4640888,0.16276320000000002,1.3801344,0.0,0.0,0.0,0.0
13.120000000000001,175.2953568,11.5485672,-3.6326064,0.23012400000000002,0.0,0.0,0.0,0.0
13.14,175.17282720000003,9.1628976,-5.5845456,-3.6036504000000003,0.0,0.0,0.0,0.0
13.16,175.12314480000003,6.7229735999999995,-4.445812800000001,-5.5205376,0.0,0.0,0.0,0.0
13.18,175.05578400000002,6.777228,-0.4879848,-7.8208632,0.0,0.0,0.0,0.0
13.2,174.9497136,3.957828,1.1387328,-6.747662400000001,0.0,0.0,0.0,0.0
13.219999999999999,174.8101152,1.5182088,1.9519392,-4.1404032,0.0,0.0,0.0,0.0
13.239999999999998,174.73513440000002,1.8434304000000001,6.1807343999999995,-3.0672024,0.0,0.0,0.0,0.0
13.259999999999998,174.542196,2.1143976,8.5121496,-0.8433816000000001,0.0,0.0,0.0,0.0
13.280000000000001,174.4617288,0.2709672,5.367528,-1.5334488,0.0,0.0,0.0,0.0
13.3,174.432468,2.1143976,12.8497584,0.996696,0.0,0.0,0.0,0.0
13.32,174.4117416,-0.0542544,4.5000672,-1.6867632000000001,0.0,0.0,0.0,0.0
13.34,174.33036,-0.37947600000000004,5.801258400000001,-1.9936968000000002,0.0,0.0,0.0,0.0
13.36,174.1910664,-0.5964936000000001,6.5605152,-3.68046,0.0,0.0,0.0,0.0
13.379999999999999,174.1005408,1.0844784,4.012082400000001,-5.750661600000001,0.0,0.0,0.0,0.0
13.399999999999999,173.9557608,3.4158936000000004,3.8496240000000004,-9.4311216,0.0,0.0,0.0,0.0
13.419999999999998,173.777148,3.578352,0.4337304,-11.04138,0.0,0.0,0.0,0.0
13.440000000000001,173.5781136,12.5787912,-5.3132736,-15.4119072,0.0,0.0,0.0,0.0
13.46,173.41047360000002,6.8314824000000005,-7.2652128,-4.370527200000001,0.0,0.0,0.0,0.0
13.48,173.167548,17.837810400000002,-14.58468,-6.6708528000000005,0.0,0.0,0.0,0.0
13.5,172.91791680000003,2.6566368,-7.970215200000001,-2.3768304000000002,0.0,0.0,0.0,0.0
13.52,172.6780392,2.548128,-7.1024496,-4.8304704,0.0,0.0,0.0,0.0
13.54,172.39030800000003,1.3011912,-6.0725304,-6.9009768,0.0,0.0,0.0,0.0
13.559999999999999,172.34214960000003,4.608576,-3.4158936000000004,-15.335402400000001,0.0,0.0,0.0,0.0
13.579999999999998,172.437552,3.4698432,-7.2652128,-14.491716000000002,0.0,0.0,0.0,0.0
13.600000000000001,172.69663200000002,10.843564800000001,-11.277295200000001,-14.2618968,0.0,0.0,0.0,0.0
13.620000000000001,172.7188824,14.367967200000002,-8.94588,-5.827471200000001,0.0,0.0,0.0,0.0
13.64,172.3528176,17.1870624,-4.8252888,1.9168872,0.0,0.0,0.0,0.0
13.66,172.0455792,10.4098344,-0.650748,4.0638984,0.0,0.0,0.0,0.0
13.68,171.7648584,11.6028216,8.024164800000001,7.5142344,0.0,0.0,0.0,0.0
13.7,171.7337688,6.018276,8.295436800000001,2.9135831999999997,0.0,0.0,0.0,0.0
13.719999999999999,171.7355976,0.7589520000000001,4.120591200000001,3.68046,0.0,0.0,0.0,0.0
13.739999999999998,171.599352,2.6566368,7.1024496,4.2172128,0.0,0.0,0.0,0.0
13.759999999999998,171.44359920000002,0.5964936000000001,5.9097672,2.223516,0.0,0.0,0.0,0.0
13.780000000000001,171.105576,-0.37947600000000004,4.2833544,-0.4599432,0.0,0.0,0.0,0.0
13.8,170.8245504,-3.0903671999999998,6.2349888,-1.2268200000000002,0.0,0.0,0.0,0.0
13.82,170.7053736,1.2469368,8.94588,-6.747662400000001,0.0,0.0,0.0,0.0
13.84,170.63618400000001,-1.3554456000000001,5.9097672,-19.5523104,0.0,0.0,0.0,0.0
13.86,170.5785768,-1.0844784,1.0844784,-17.17548,0.0,0.0,0.0,0.0
13.879999999999999,170.3280312,1.6806672000000002,-1.8976848000000002,-18.0956712,0.0,0.0,0.0,0.0
13.899999999999999,170.07626640000004,0.5422392,-6.7229735999999995,-15.0284688,0.0,0.0,0.0,0.0
13.919999999999998,169.86961200000002,8.5121496,-4.0663368,-18.172176,0.0,0.0,0.0,0.0
13.940000000000001,169.6754544,5.0423064,-8.5121496,-10.5046272,0.0,0.0,0.0,0.0
13.96,169.5017184,1.789176,-5.259324,-7.8208632,0.0,0.0,0.0,0.0
13.98,169.2725088,6.885736800000001,-4.2833544,-7.130796,0.0,0.0,0.0,0.0
14.0,169.02592560000002,9.488119200000002,-1.030224,-4.8304704,0.0,0.0,0.0,0.0
14.02,168.92290319999998,8.4582,1.3011912,-5.2907184,0.0,0.0,0.0,0.0
14.04,168.639744,9.867595200000002,3.7953696000000003,-2.9903928,0.0,0.0,0.0,0.0
14.059999999999999,168.51599520000002,8.837676,3.0903671999999998,-2.7602688,0.0,0.0,0.0,0.0
14.079999999999998,168.3099504,7.753197600000001,3.6326064,-5.4440328000000004,0.0,0.0,0.0,0.0
14.100000000000001,168.0786072,9.6508824,2.7108912000000003,-7.591044000000001,0.0,0.0,0.0,0.0
14.120000000000001,167.9484576,8.94588,1.030224,-4.8304704,0.0,0.0,0.0,0.0
14.14,167.757348,18.81378,3.8496240000000004,-6.2109096,0.0,0.0,0.0,0.0
14.16,167.64121920000002,4.8795432000000005,1.3011912,-1.8400776,0.0,0.0,0.0,0.0
14.18,167.4644352,4.6628304,2.8194000000000004,-2.8370784000000002,0.0,0.0,0.0,0.0
14.2,167.4309072,9.0001344,6.397752,-3.1437072,0.0,0.0,0.0,0.0
14.219999999999999,167.32148400000003,4.7713392,4.3376088,-2.9135831999999997,0.0,0.0,0.0,0.0
14.239999999999998,167.20413600000003,8.295436800000001,5.6930544,-4.370527200000001,0.0,0.0,0.0,0.0
14.259999999999998,167.17609439999998,6.777228,3.3073848000000003,-1.2268200000000002,0.0,0.0,0.0,0.0
14.280000000000001,167.027352,9.488119200000002,2.7651456,0.30662880000000003,0.0,0.0,0.0,0.0
14.3,166.94200800000002,13.174980000000001,0.9217152000000001,5.6741568000000004,0.0,0.0,0.0,0.0
14.32,166.9209768,11.277295200000001,-4.6628304,5.2907184,0.0,0.0,0.0,0.0
14.34,166.9218912,18.488558400000002,-8.4039456,0.996696,0.0,0.0,0.0,0.0
14.36,166.93591200000003,9.7593912,-7.807452,-2.223516,0.0,0.0,0.0,0.0
14.379999999999999,166.96121040000003,12.524536800000002,-10.0303584,-5.5205376,0.0,0.0,0.0,0.0
14.399999999999999,166.9042128,6.8314824000000005,-5.964021600000001,-2.1470112,0.0,0.0,0.0,0.0
14.419999999999998,166.84355760000003,6.506260800000001,-5.096560800000001,-0.23012400000000002,0.0,0.0,0.0,0.0
14.440000000000001,166.77192960000002,6.506260800000001,-2.3856696,-1.8400776,0.0,0.0,0.0,0.0
14.46,166.58417280000003,4.5000672,0.16276320000000002,-1.8400776,0.0,0.0,0.0,0.0
14.48,166.24889280000002,5.801258400000001,4.7170848,0.23012400000000002,0.0,0.0,0.0,0.0
14.5,165.82674480000003,1.030224,1.5724632,-0.5367528,0.0,0.0,0.0,0.0
14.52,165.4786632,0.5964936000000001,0.8132064000000001,-0.8433816000000001,0.0,0.0,0.0,0.0
14.54,165.2119632,0.8132064000000001,1.4639544,-1.3801344,0.0,0.0,0.0,0.0
14.559999999999999,164.9556264,0.5964936000000001,2.2229064000000003,-1.0735056,0.0,0.0,0.0,0.0
14.579999999999998,164.7166632,3.2531304000000003,0.8674608,0.30662880000000003,0.0,0.0,0.0,0.0
14.600000000000001,164.44264800000002,6.343497600000001,-1.3554456000000001,0.15331440000000002,0.0,0.0,0.0,0.0
14.620000000000001,164.2158768,3.578352,-1.6264128000000002,-2.1470112,0.0,0.0,0.0,0.0
