time,baro_altitude,accl_x,accl_y,accl_z,gps_altitude,gyro_roll,gyro_pitch,gyro_yaw
0.0,0.0,-8.6749128,-4.6628304,1.8400776,0.0,0.0,0.0,0.0
0.019999999999999574,0.025908000000000007,-8.6206584,-4.7170848,1.7635728,0.0,0.0,0.0,0.0
0.03999999999999915,0.09692640000000001,-8.6206584,-4.608576,1.7635728,0.0,0.0,0.0,0.0
0.05999999999999961,-0.112776,-8.6749128,-4.554321600000001,1.8400776,0.0,0.0,0.0,0.0
0.07999999999999918,-0.16123920000000003,-8.729167200000001,-4.608576,1.8400776,0.0,0.0,0.0,0.0
0.09999999999999964,-0.1118616,-8.6749128,-4.6628304,1.8400776,0.0,0.0,0.0,0.0
0.11999999999999922,0.0627888,-8.729167200000001,-4.608576,1.7635728,0.0,0.0,0.0,0.0
0.13999999999999968,-0.030175199999999996,-8.729167200000001,-4.608576,1.6102584000000002,0.0,0.0,0.0,0.0
0.15999999999999925,-0.0374904,-8.6749128,-4.6628304,1.8400776,0.0,0.0,0.0,0.0
0.17999999999999972,0.04145280000000002,-8.6749128,-4.6628304,1.7635728,0.0,0.0,0.0,0.0
0.1999999999999993,-0.112776,-8.566404,-4.6628304,1.7635728,0.0,0.0,0.0,0.0
0.21999999999999975,-0.08382,-8.6206584,-4.608576,1.6867632000000001,0.0,0.0,0.0,0.0
0.23999999999999932,0.1225296,-8.6206584,-4.608576,1.7635728,0.0,0.0,0.0,0.0
0.2599999999999998,0.2526792,-8.729167200000001,-4.608576,1.7635728,0.0,0.0,0.0,0.0
0.27999999999999936,0.20116799999999999,-8.729167200000001,-4.608576,1.6867632000000001,0.0,0.0,0.0,0.0
0.2999999999999998,0.1880616,-8.6206584,-4.608576,1.7635728,0.0,0.0,0.0,0.0
0.3199999999999994,0.14081760000000001,-8.6206584,-4.608576,1.7635728,0.0,0.0,0.0,0.0
0.33999999999999986,0.049987199999999996,-8.6749128,-4.554321600000001,1.7635728,0.0,0.0,0.0,0.0
0.35999999999999943,-0.15575280000000002,-8.729167200000001,-4.608576,1.6867632000000001,0.0,0.0,0.0,0.0
0.3799999999999999,-0.1002792,-8.6749128,-4.554321600000001,1.6867632000000001,0.0,0.0,0.0,0.0
0.39999999999999947,0.0627888,-8.6749128,-4.6628304,1.6867632000000001,0.0,0.0,0.0,0.0
0.41999999999999993,-0.022555200000000004,-8.6206584,-4.608576,1.6867632000000001,0.0,0.0,0.0,0.0
0.4399999999999995,-0.1392936,-8.6749128,-4.554321600000001,1.6102584000000002,0.0,0.0,0.0,0.0
0.45999999999999996,-0.37764719999999996,-8.729167200000001,-4.608576,1.8400776,0.0,0.0,0.0,0.0
0.47999999999999954,-0.260604,-8.6749128,-4.554321600000001,1.7635728,0.0,0.0,0.0,0.0
0.5,-0.24353519999999998,-8.729167200000001,-4.608576,1.7635728,0.0,0.0,0.0,0.0
0.5199999999999996,-0.324612,-8.6749128,-4.554321600000001,1.9168872,0.0,0.0,0.0,0.0
0.5399999999999996,-0.24993600000000002,-8.6749128,-4.6628304,1.6867632000000001,0.0,0.0,0.0,0.0
0.5599999999999996,-0.1359408,-8.6749128,-4.6628304,1.9168872,0.0,0.0,0.0,0.0
0.5799999999999996,-0.0597408,-8.6749128,-4.554321600000001,1.7635728,0.0,0.0,0.0,0.0
0.5999999999999996,-0.0161544,-8.6749128,-4.6628304,1.8400776,0.0,0.0,0.0,0.0
0.6199999999999997,-0.0009144000000000009,-8.729167200000001,-4.608576,1.8400776,0.0,0.0,0.0,0.0
0.6399999999999997,-0.089916,-8.566404,-4.6628304,1.7635728,0.0,0.0,0.0,0.0
0.6599999999999997,-0.013411199999999996,-8.6206584,-4.7170848,1.6867632000000001,0.0,0.0,0.0,0.0
0.6799999999999997,-0.0704088,-8.729167200000001,-4.608576,1.6867632000000001,0.0,0.0,0.0,0.0
0.6999999999999997,0.131064,-8.7834216,-4.554321600000001,1.8400776,0.0,0.0,0.0,0.0
0.7199999999999998,0.03779520000000002,-8.729167200000001,-4.608576,1.6102584000000002,0.0,0.0,0.0,0.0
0.7399999999999998,0.1426464,-8.6749128,-4.6628304,1.7635728,0.0,0.0,0.0,0.0
0.7599999999999998,0.07132320000000002,-8.6749128,-4.554321600000001,1.8400776,0.0,0.0,0.0,0.0
0.7799999999999994,0.0935736,-8.6749128,-4.6628304,1.6867632000000001,0.0,0.0,0.0,0.0
0.7999999999999994,0.057607200000000004,-8.6206584,-4.608576,1.6867632000000001,0.0,0.0,0.0,0.0
0.8199999999999994,0.1423416,-8.7834216,-4.6628304,1.7635728,0.0,0.0,0.0,0.0
0.8399999999999994,0.10728960000000001,-8.6749128,-4.6628304,1.7635728,0.0,0.0,0.0,0.0
0.8599999999999994,0.07620000000000002,-8.6749128,-4.6628304,1.7635728,0.0,0.0,0.0,0.0
0.8799999999999994,0.06675120000000001,-8.6749128,-4.554321600000001,1.7635728,0.0,0.0,0.0,0.0
0.8999999999999995,0.041148000000000025,-8.6749128,-4.554321600000001,1.6867632000000001,0.0,0.0,0.0,0.0
0.9199999999999995,0.0530352,-8.6206584,-4.7170848,1.6867632000000001,0.0,0.0,0.0,0.0
0.9399999999999995,0.062484000000000005,-8.729167200000001,-4.608576,1.6102584000000002,0.0,0.0,0.0,0.0
0.9599999999999995,0.0527304,-8.6206584,-4.608576,1.8400776,0.0,0.0,0.0,0.0
0.9799999999999995,-0.004267200000000004,-8.6749128,-4.6628304,1.7635728,0.0,0.0,0.0,0.0
0.9999999999999996,-0.04907279999999999,-8.729167200000001,-4.608576,1.7635728,0.0,0.0,0.0,0.0
1.0199999999999996,-0.1313688,-8.6749128,-4.6628304,1.6867632000000001,0.0,0.0,0.0,0.0
1.0399999999999996,-0.2755392,-8.6206584,-4.608576,1.6867632000000001,0.0,0.0,0.0,0.0
1.0599999999999996,-0.3837432,-8.6749128,-4.6628304,1.7635728,0.0,0.0,0.0,0.0
1.0799999999999996,-0.5434584000000001,-8.6206584,-4.608576,1.6867632000000001,0.0,0.0,0.0,0.0
1.0999999999999996,-0.3934968,-8.6749128,-4.6628304,1.9168872,0.0,0.0,0.0,0.0
1.1199999999999997,-0.33192720000000003,-8.729167200000001,-4.608576,1.6867632000000001,0.0,0.0,0.0,0.0
1.1399999999999997,-0.19354800000000003,-8.729167200000001,-4.608576,1.6867632000000001,0.0,0.0,0.0,0.0
1.1599999999999997,-0.2292096,-8.729167200000001,-4.608576,1.7635728,0.0,0.0,0.0,0.0
1.1799999999999997,-0.2721864,-8.729167200000001,-4.608576,1.7635728,0.0,0.0,0.0,0.0
1.1999999999999997,-0.13807439999999999,-8.6749128,-4.6628304,1.6867632000000001,0.0,0.0,0.0,0.0
1.2199999999999998,-0.2798064,-8.6749128,-4.554321600000001,1.7635728,0.0,0.0,0.0,0.0
1.2399999999999998,-0.1258824,-8.6749128,-4.6628304,1.7635728,0.0,0.0,0.0,0.0
1.2599999999999998,-0.20391120000000001,-8.6749128,-4.554321600000001,1.7635728,0.0,0.0,0.0,0.0
1.2799999999999994,-0.23378159999999998,-8.729167200000001,-4.608576,1.6867632000000001,0.0,0.0,0.0,0.0
1.2999999999999994,-0.1905,-8.6206584,-4.7170848,1.7635728,0.0,0.0,0.0,0.0
1.3199999999999994,-0.1240536,-8.6749128,-4.6628304,1.8400776,0.0,0.0,0.0,0.0
1.3399999999999994,-0.0890016,-8.729167200000001,-4.608576,1.6867632000000001,0.0,0.0,0.0,0.0
1.3599999999999994,-0.1484376,-8.566404,-4.6628304,1.6867632000000001,0.0,0.0,0.0,0.0
1.3799999999999994,-0.0637032,-8.729167200000001,-4.608576,1.7635728,0.0,0.0,0.0,0.0
1.3999999999999995,-0.033527999999999995,-8.6206584,-4.7170848,1.6867632000000001,0.0,0.0,0.0,0.0
1.4199999999999995,0.0862584,-8.6206584,-4.7170848,1.8400776,0.0,0.0,0.0,0.0
1.4399999999999995,-0.1069848,-8.6749128,-4.554321600000001,1.8400776,0.0,0.0,0.0,0.0
1.4599999999999995,-0.0633984,-8.6749128,-4.6628304,1.8400776,0.0,0.0,0.0,0.0
1.4799999999999995,0.0515112,-8.6749128,-4.6628304,1.7635728,0.0,0.0,0.0,0.0
1.4999999999999996,-0.009753599999999992,-8.6206584,-4.7170848,1.7635728,0.0,0.0,0.0,0.0
1.5199999999999996,-0.0783336,-8.729167200000001,-4.608576,1.6867632000000001,0.0,0.0,0.0,0.0
1.5399999999999996,-0.051816,-8.6749128,-4.6628304,1.8400776,0.0,0.0,0.0,0.0
1.5599999999999996,-0.0984504,-8.6206584,-4.608576,1.6867632000000001,0.0,0.0,0.0,0.0
1.5799999999999996,-0.30114240000000003,-8.6749128,-4.6628304,1.6867632000000001,0.0,0.0,0.0,0.0
1.5999999999999996,-0.22616160000000002,-8.6749128,-4.6628304,1.8400776,0.0,0.0,0.0,0.0
1.6199999999999997,-0.19690080000000001,-8.7834216,-4.554321600000001,1.7635728,0.0,0.0,0.0,0.0
1.6399999999999997,-0.1200912,-8.6749128,-4.6628304,1.6867632000000001,0.0,0.0,0.0,0.0
1.6599999999999997,-0.02499359999999999,-8.6749128,-4.6628304,1.7635728,0.0,0.0,0.0,0.0
1.6799999999999997,-0.1831848,-8.6749128,-4.6628304,1.6867632000000001,0.0,0.0,0.0,0.0
1.6999999999999997,-0.009448799999999992,-8.729167200000001,-4.608576,1.7635728,0.0,0.0,0.0,0.0
1.7199999999999998,-0.021945600000000003,-8.6749128,-4.6628304,1.6102584000000002,0.0,0.0,0.0,0.0
1.7399999999999998,-0.08260080000000002,-8.5121496,-4.608576,1.7635728,0.0,0.0,0.0,0.0
1.7599999999999998,-0.04876799999999999,-8.729167200000001,-4.608576,1.8400776,0.0,0.0,0.0,0.0
1.7799999999999994,0.04389119999999999,-8.6749128,-4.554321600000001,1.7635728,0.0,0.0,0.0,0.0
1.7999999999999994,0.11430000000000003,-8.6749128,-4.6628304,1.8400776,0.0,0.0,0.0,0.0
1.8199999999999994,0.0999744,-8.6206584,-4.608576,1.6102584000000002,0.0,0.0,0.0,0.0
1.8399999999999994,0.0018288000000000017,-8.6749128,-4.554321600000001,1.6867632000000001,0.0,0.0,0.0,0.0
1.8599999999999994,0.0216408,-8.566404,-4.6628304,1.9168872,0.0,0.0,0.0,0.0
1.8799999999999994,-0.014020799999999996,-8.6749128,-4.6628304,1.7635728,0.0,0.0,0.0,0.0
1.8999999999999995,0.0554736,-8.6206584,-4.608576,1.7635728,0.0,0.0,0.0,0.0
1.9199999999999995,-0.0064007999999999895,-8.7834216,-4.6628304,1.6867632000000001,0.0,0.0,0.0,0.0
1.9399999999999995,0.01036320000000001,-8.729167200000001,-4.608576,1.7635728,0.0,0.0,0.0,0.0
1.9599999999999995,-0.04358639999999999,-8.7834216,-4.6628304,1.7635728,0.0,0.0,0.0,0.0
1.9799999999999995,0.014020799999999996,-8.6206584,-4.5000672,1.6867632000000001,0.0,0.0,0.0,0.0
1.9999999999999996,-0.00731519999999999,-8.6749128,-4.6628304,1.8400776,0.0,0.0,0.0,0.0
2.0199999999999996,-0.1399032,-8.729167200000001,-4.608576,1.8400776,0.0,0.0,0.0,0.0
2.0399999999999996,0.005791200000000005,-8.7834216,-4.554321600000001,1.6102584000000002,0.0,0.0,0.0,0.0
2.0599999999999996,-0.1261872,-8.6749128,-4.6628304,1.8400776,0.0,0.0,0.0,0.0
2.0799999999999996,-0.0972312,-8.566404,-4.6628304,1.6867632000000001,0.0,0.0,0.0,0.0
2.0999999999999996,-0.0722376,-8.6749128,-4.6628304,1.7635728,0.0,0.0,0.0,0.0
2.1199999999999997,-0.08260080000000002,-8.6206584,-4.608576,1.7635728,0.0,0.0,0.0,0.0
2.1399999999999997,-0.0076199999999999905,-8.6749128,-4.554321600000001,1.7635728,0.0,0.0,0.0,0.0
2.1599999999999997,0.11887199999999999,-8.6206584,-4.608576,1.7635728,0.0,0.0,0.0,0.0
2.1799999999999997,0.1837944,-8.6749128,-4.554321600000001,1.7635728,0.0,0.0,0.0,0.0
2.1999999999999997,0.09845040000000001,-8.6749128,-4.6628304,1.7635728,0.0,0.0,0.0,0.0
2.2199999999999998,0.04450079999999999,-8.729167200000001,-4.7170848,1.6867632000000001,0.0,0.0,0.0,0.0
2.2399999999999998,-0.049987199999999996,-8.6206584,-4.608576,1.8400776,0.0,0.0,0.0,0.0
2.26,-0.1414272,-8.6206584,-4.608576,1.6867632000000001,0.0,0.0,0.0,0.0
2.2799999999999994,-0.1786128,-8.729167200000001,-4.608576,1.6867632000000001,0.0,0.0,0.0,0.0
2.2999999999999994,-0.0374904,-8.6749128,-4.554321600000001,1.8400776,0.0,0.0,0.0,0.0
2.3199999999999994,-0.0908304,-8.6206584,-4.5000672,1.7635728,0.0,0.0,0.0,0.0
2.3399999999999994,0.0009144000000000009,-8.6749128,-4.554321600000001,1.7635728,0.0,0.0,0.0,0.0
2.3599999999999994,-0.0576072,-8.729167200000001,-4.608576,1.6867632000000001,0.0,0.0,0.0,0.0
2.3799999999999994,0.07802880000000002,-8.6206584,-4.7170848,1.6867632000000001,0.0,0.0,0.0,0.0
2.3999999999999995,0.134112,-8.6206584,-4.608576,1.7635728,0.0,0.0,0.0,0.0
2.4199999999999995,0.07680960000000002,-8.6749128,-4.554321600000001,1.7635728,0.0,0.0,0.0,0.0
2.4399999999999995,-0.004267200000000004,-8.6749128,-4.554321600000001,1.8400776,0.0,0.0,0.0,0.0
2.4599999999999995,0.09631680000000001,-8.6749128,-4.554321600000001,1.7635728,0.0,0.0,0.0,0.0
2.4799999999999995,0.1575816,-8.729167200000001,-4.7170848,1.8400776,0.0,0.0,0.0,0.0
2.4999999999999996,-0.012496799999999995,-8.6206584,-4.608576,1.6867632000000001,0.0,0.0,0.0,0.0
2.5199999999999996,0.0841248,-8.6206584,-4.608576,1.6867632000000001,0.0,0.0,0.0,0.0
2.5399999999999996,0.07620000000000002,-8.6749128,-4.6628304,1.7635728,0.0,0.0,0.0,0.0
2.5599999999999996,-0.047243999999999994,-8.729167200000001,-4.608576,1.7635728,0.0,0.0,0.0,0.0
2.5799999999999996,-0.1441704,-8.6749128,-4.6628304,1.6867632000000001,0.0,0.0,0.0,0.0
2.5999999999999996,-0.16794479999999998,-8.566404,-4.6628304,1.6867632000000001,0.0,0.0,0.0,0.0
2.6199999999999997,-0.2825496,-8.6749128,-4.6628304,1.7635728,0.0,0.0,0.0,0.0
2.6399999999999997,-0.25054560000000003,-8.566404,-4.554321600000001,1.6867632000000001,0.0,0.0,0.0,0.0
2.6599999999999993,-0.2691384,-8.566404,-4.6628304,1.7635728,0.0,0.0,0.0,0.0
2.6799999999999997,-0.19537680000000002,-8.6749128,-4.554321600000001,1.6867632000000001,0.0,0.0,0.0,0.0
2.6999999999999993,-0.09997439999999999,-8.6749128,-4.6628304,1.7635728,0.0,0.0,0.0,0.0
2.7199999999999998,-0.1222248,-8.729167200000001,-4.608576,1.8400776,0.0,0.0,0.0,0.0
2.7399999999999993,-0.0719328,-8.837676,-4.608576,1.6867632000000001,0.0,0.0,0.0,0.0
2.76,0.0176784,-8.729167200000001,-4.5000672,1.8400776,0.0,0.0,0.0,0.0
2.7799999999999994,-0.1286256,-8.6206584,-4.608576,1.8400776,0.0,0.0,0.0,0.0
2.8,-0.1292352,-8.6206584,-4.608576,1.8400776,0.0,0.0,0.0,0.0
2.8199999999999994,0.03657600000000002,-8.6749128,-4.6628304,1.6102584000000002,0.0,0.0,0.0,0.0
2.84,0.049987199999999996,-8.6206584,-4.608576,1.7635728,0.0,0.0,0.0,0.0
2.8599999999999994,0.2557272,-8.6749128,-4.6628304,1.7635728,0.0,0.0,0.0,0.0
2.88,0.11369040000000002,-8.729167200000001,-4.608576,1.6102584000000002,0.0,0.0,0.0,0.0
2.8999999999999995,0.0954024,-8.729167200000001,-4.608576,1.7635728,0.0,0.0,0.0,0.0
2.9199999999999995,-0.022555200000000004,-8.6749128,-4.6628304,1.6102584000000002,0.0,0.0,0.0,0.0
2.9399999999999995,0.014630399999999997,-8.6749128,-4.554321600000001,1.8400776,0.0,0.0,0.0,0.0
2.9599999999999995,-0.1225296,-8.6749128,-4.554321600000001,1.8400776,0.0,0.0,0.0,0.0
2.9799999999999995,0.0844296,-8.6206584,-4.608576,1.7635728,0.0,0.0,0.0,0.0
2.9999999999999996,0.065532,-8.729167200000001,-4.608576,1.8400776,0.0,0.0,0.0,0.0
3.0199999999999996,0.04876799999999999,-8.6749128,-4.6628304,1.8400776,0.0,0.0,0.0,0.0
3.0399999999999996,0.050291999999999996,-8.6749128,-4.554321600000001,1.7635728,0.0,0.0,0.0,0.0
3.0599999999999996,0.06736080000000001,-8.6749128,-4.6628304,1.7635728,0.0,0.0,0.0,0.0
3.0799999999999996,0.16245839999999998,-8.6749128,-4.6628304,1.6102584000000002,0.0,0.0,0.0,0.0
3.0999999999999996,0.06979920000000002,-8.6749128,-4.6628304,1.7635728,0.0,0.0,0.0,0.0
3.1199999999999997,0.1274064,-8.6749128,-4.6628304,1.8400776,0.0,0.0,0.0,0.0
3.1399999999999997,-0.010972799999999993,-8.6749128,-4.6628304,1.8400776,0.0,0.0,0.0,0.0
3.1599999999999993,-0.0545592,-8.6749128,-4.7713392,1.7635728,0.0,0.0,0.0,0.0
3.1799999999999997,-0.11978640000000002,-8.6749128,-4.6628304,1.6867632000000001,0.0,0.0,0.0,0.0
3.1999999999999993,-0.10149839999999999,-8.729167200000001,-4.608576,1.7635728,0.0,0.0,0.0,0.0
3.2199999999999998,-0.0505968,-8.6749128,-4.6628304,1.7635728,0.0,0.0,0.0,0.0
3.2399999999999993,-0.0743712,-8.729167200000001,-4.608576,1.8400776,0.0,0.0,0.0,0.0
3.26,0.025603200000000007,-8.729167200000001,-4.608576,1.7635728,0.0,0.0,0.0,0.0
3.2799999999999994,0.0557784,-8.6749128,-4.554321600000001,1.8400776,0.0,0.0,0.0,0.0
3.3,0.07894320000000002,-8.6749128,-4.6628304,1.7635728,0.0,0.0,0.0,0.0
3.3199999999999994,0.09631680000000001,-8.6206584,-4.608576,1.6102584000000002,0.0,0.0,0.0,0.0
3.34,0.024384000000000006,-8.729167200000001,-4.608576,1.7635728,0.0,0.0,0.0,0.0
3.3599999999999994,-0.19903440000000003,-8.6749128,-4.6628304,1.7635728,0.0,0.0,0.0,0.0
3.38,-0.0067055999999999895,-8.729167200000001,-4.5000672,1.8400776,0.0,0.0,0.0,0.0
3.3999999999999995,-0.0192024,-8.6749128,-4.6628304,1.8400776,0.0,0.0,0.0,0.0
3.4199999999999995,0.27066239999999997,-8.6749128,-4.6628304,1.7635728,0.0,0.0,0.0,0.0
3.4399999999999995,0.2630424,-8.566404,-4.7713392,1.6867632000000001,0.0,0.0,0.0,0.0
3.4599999999999995,0.052425599999999996,-8.729167200000001,-4.608576,1.8400776,0.0,0.0,0.0,0.0
3.4799999999999995,0.06614160000000001,-8.729167200000001,-4.608576,1.7635728,0.0,0.0,0.0,0.0
3.4999999999999996,0.1258824,-8.6749128,-4.554321600000001,1.7635728,0.0,0.0,0.0,0.0
3.5199999999999996,0.0877824,-8.566404,-4.554321600000001,1.7635728,0.0,0.0,0.0,0.0
3.5399999999999996,0.1240536,-8.729167200000001,-4.7170848,1.7635728,0.0,0.0,0.0,0.0
3.5599999999999996,0.18348959999999997,-8.6749128,-4.554321600000001,1.7635728,0.0,0.0,0.0,0.0
3.5799999999999996,0.178308,-8.6749128,-4.6628304,1.6867632000000001,0.0,0.0,0.0,0.0
3.5999999999999996,0.0560832,-8.566404,-4.6628304,1.7635728,0.0,0.0,0.0,0.0
3.6199999999999997,-0.05821679999999999,-8.6749128,-4.6628304,1.6867632000000001,0.0,0.0,0.0,0.0
3.6399999999999997,-0.262128,-8.6206584,-4.5000672,1.7635728,0.0,0.0,0.0,0.0
3.6599999999999997,-0.21793200000000001,-8.729167200000001,-4.608576,1.7635728,0.0,0.0,0.0,0.0
3.6799999999999997,-0.32552640000000005,-8.729167200000001,-4.608576,1.7635728,0.0,0.0,0.0,0.0
3.6999999999999997,-0.3700272,-8.6206584,-4.7170848,1.6867632000000001,0.0,0.0,0.0,0.0
3.7199999999999998,-0.36240720000000004,-8.6206584,-4.608576,1.7635728,0.0,0.0,0.0,0.0
3.7399999999999993,-0.4306824,-8.6206584,-4.608576,1.8400776,0.0,0.0,0.0,0.0
3.76,-0.24475439999999998,-8.729167200000001,-4.608576,1.8400776,0.0,0.0,0.0,0.0
3.7799999999999994,-0.22463760000000002,-8.729167200000001,-4.608576,1.7635728,0.0,0.0,0.0,0.0
3.8,-0.0896112,-8.6206584,-4.608576,1.7635728,0.0,0.0,0.0,0.0
3.8199999999999994,-0.1469136,-8.6749128,-4.6628304,1.8400776,0.0,0.0,0.0,0.0
3.8399999999999994,0.0557784,-8.6749128,-4.6628304,1.7635728,0.0,0.0,0.0,0.0
3.8599999999999994,0.06461760000000001,-8.729167200000001,-4.608576,1.8400776,0.0,0.0,0.0,0.0
3.8799999999999994,0.0993648,-8.6749128,-4.6628304,1.7635728,0.0,0.0,0.0,0.0
3.8999999999999995,0.13716,-8.6749128,-4.6628304,1.7635728,0.0,0.0,0.0,0.0
3.9199999999999995,0.1438656,-8.729167200000001,-4.608576,1.6867632000000001,0.0,0.0,0.0,0.0
3.9399999999999995,0.01036320000000001,-8.729167200000001,-4.608576,1.7635728,0.0,0.0,0.0,0.0
3.9599999999999995,0.03383280000000002,-8.566404,-4.6628304,1.6867632000000001,0.0,0.0,0.0,0.0
3.9799999999999995,-0.0329184,-8.6206584,-4.608576,1.6102584000000002,0.0,0.0,0.0,0.0
3.9999999999999996,-0.021945600000000003,-8.566404,-4.554321600000001,1.7635728,0.0,0.0,0.0,0.0
4.02,-0.2968752,-8.566404,-4.6628304,1.9168872,0.0,0.0,0.0,0.0
4.039999999999999,-0.1959864,-8.729167200000001,-4.608576,1.8400776,0.0,0.0,0.0,0.0
4.06,-0.2609088,-8.6206584,-4.7170848,1.6867632000000001,0.0,0.0,0.0,0.0
4.079999999999999,-0.0938784,-8.7834216,-4.6628304,1.7635728,0.0,0.0,0.0,0.0
4.1,-0.0911352,-8.6749128,-4.6628304,1.6867632000000001,0.0,0.0,0.0,0.0
4.119999999999999,-0.12161519999999999,-8.729167200000001,-4.608576,1.8400776,0.0,0.0,0.0,0.0
4.14,-0.09479280000000001,-8.6749128,-4.554321600000001,1.7635728,0.0,0.0,0.0,0.0
4.159999999999999,-0.0740664,-8.6749128,-4.6628304,1.8400776,0.0,0.0,0.0,0.0
4.18,-0.24018240000000002,-8.6206584,-4.7170848,1.6867632000000001,0.0,0.0,0.0,0.0
4.199999999999999,-0.252984,-8.6206584,-4.608576,1.6867632000000001,0.0,0.0,0.0,0.0
4.22,-0.176784,-8.729167200000001,-4.608576,1.8400776,0.0,0.0,0.0,0.0
4.239999999999999,-0.1972056,-8.6206584,-4.608576,1.6867632000000001,0.0,0.0,0.0,0.0
4.26,-0.16245840000000003,-8.729167200000001,-4.608576,1.7635728,0.0,0.0,0.0,0.0
4.279999999999999,-0.16581120000000002,-8.729167200000001,-4.608576,1.7635728,0.0,0.0,0.0,0.0
4.3,-0.1359408,-8.6206584,-4.608576,1.6867632000000001,0.0,0.0,0.0,0.0
4.319999999999999,-0.1780032,-8.6749128,-4.6628304,1.6867632000000001,0.0,0.0,0.0,0.0
4.34,-0.2267712,-8.729167200000001,-4.608576,1.7635728,0.0,0.0,0.0,0.0
4.359999999999999,-0.34686239999999996,-8.6206584,-4.608576,1.6867632000000001,0.0,0.0,0.0,0.0
4.38,-0.1901952,-8.6749128,-4.6628304,1.7635728,0.0,0.0,0.0,0.0
4.3999999999999995,-0.24688800000000002,-8.729167200000001,-4.608576,1.7635728,0.0,0.0,0.0,0.0
4.42,-0.2081784,-8.729167200000001,-4.608576,1.8400776,0.0,0.0,0.0,0.0
4.4399999999999995,-0.242316,-8.7834216,-4.6628304,1.7635728,0.0,0.0,0.0,0.0
4.46,-0.3194304,-8.6749128,-4.554321600000001,1.7635728,0.0,0.0,0.0,0.0
4.4799999999999995,-0.16276320000000002,-8.729167200000001,-4.7170848,1.8400776,0.0,0.0,0.0,0.0
4.5,-0.2203704,-8.566404,-4.7713392,1.6867632000000001,0.0,0.0,0.0,0.0
4.52,-0.23317200000000002,-8.6749128,-4.6628304,1.7635728,0.0,0.0,0.0,0.0
4.539999999999999,-0.1274064,-8.6206584,-4.608576,1.7635728,0.0,0.0,0.0,0.0
4.56,-0.2932176,-7.156704,-3.4698432,0.996696,0.0,0.0,0.0,0.0
4.579999999999999,-0.1749552,-8.4582,-4.3376088,2.0702016,0.0,0.0,0.0,0.0
4.6,-0.11430000000000001,-18.542508,-17.024604,8.1277968,0.0,0.0,0.0,0.0
4.619999999999999,-0.5175504,-47.65791840000001,-22.2836232,23.693018400000003,0.0,0.0,0.0,0.0
4.64,-0.8820912000000001,-30.6875688,-31.3383168,23.6162088,0.0,0.0,0.0,0.0
4.659999999999999,-1.039368,-34.428684000000004,-9.488119200000002,-4.6006512,0.0,0.0,0.0,0.0
4.68,6.552895200000001,-80.7854112,-0.8674608,-61.2641904,0.0,0.0,0.0,0.0
4.699999999999999,8.302142400000001,-90.3277848,-69.8330328,-9.737750400000001,0.0,0.0,0.0,0.0
4.72,10.250728800000001,-89.83980000000001,-72.056244,-5.5205376,0.0,0.0,0.0,0.0
4.739999999999999,12.398349600000001,-112.3943904,-19.898258400000003,-6.6708528000000005,0.0,0.0,0.0,0.0
4.76,10.1370384,-87.45413040000001,-66.8511744,-8.4344256,0.0,0.0,0.0,0.0
4.779999999999999,8.403336000000001,-102.68955840000001,-51.9412728,-4.370527200000001,0.0,0.0,0.0,0.0
4.8,6.9156072,-116.840508,-47.65791840000001,-7.744358400000001,0.0,0.0,0.0,0.0
4.819999999999999,5.875020000000001,-97.70150640000001,-72.5442288,-8.4344256,0.0,0.0,0.0,0.0
4.84,5.114239200000001,-118.7381928,-49.772316,-11.04138,0.0,0.0,0.0,0.0
4.859999999999999,4.8088296,-104.47873440000001,-72.2729568,-11.8082568,0.0,0.0,0.0,0.0
4.88,4.719218400000001,-115.4850624,-62.459616,-14.72184,0.0,0.0,0.0,0.0
4.8999999999999995,4.994757600000001,-119.768112,-62.4053616,-9.4311216,0.0,0.0,0.0,0.0
4.92,5.6948832000000005,-118.7921424,-67.2849048,-7.36092,0.0,0.0,0.0,0.0
4.9399999999999995,6.176467200000001,-123.7262448,-63.86901120000001,-7.36092,0.0,0.0,0.0,0.0
4.96,7.023811200000001,-122.208036,-67.555872,-7.6675488,0.0,0.0,0.0,0.0
4.9799999999999995,8.113471200000001,-118.1959536,-65.06199840000001,-7.744358400000001,0.0,0.0,0.0,0.0
5.0,9.194292,-114.2920752,-68.5318416,-9.2013024,0.0,0.0,0.0,0.0
5.02,10.3126032,-117.87042720000001,-67.7728896,-10.811256,0.0,0.0,0.0,0.0
5.039999999999999,11.5741704,-118.5754296,-65.658492,-9.4311216,0.0,0.0,0.0,0.0
5.06,13.0265424,-124.9189272,-63.43528080000001,-13.418210400000001,0.0,0.0,0.0,0.0
5.08,14.490496799999999,-122.47900320000001,-67.61012640000001,-12.498324000000002,0.0,0.0,0.0,0.0
5.1,15.94104,-122.966988,-66.90542880000001,-12.651638400000001,0.0,0.0,0.0,0.0
5.119999999999999,17.4592488,-121.7200512,-75.2008656,-5.903976000000001,0.0,0.0,0.0,0.0
5.14,19.027444799999998,-112.5028992,-74.0078784,-9.584436,0.0,0.0,0.0,0.0
5.159999999999999,20.585277599999998,-117.0029664,-63.3270768,-6.2874144,0.0,0.0,0.0,0.0
5.18,22.217176799999997,-106.53887759999999,-66.5259528,-6.364224,0.0,0.0,0.0,0.0
5.199999999999999,23.6771688,-108.8702928,-56.820816,-5.6741568000000004,0.0,0.0,0.0,0.0
5.22,25.1066808,-100.73761920000001,-60.9414072,-5.597347200000001,0.0,0.0,0.0,0.0
5.239999999999999,26.57094,-101.55082560000001,-54.380892,-5.5205376,0.0,0.0,0.0,0.0
5.26,28.239415200000003,-95.04456480000002,-57.4173096,-4.370527200000001,0.0,0.0,0.0,0.0
5.279999999999999,29.748175200000002,-94.33986720000001,-56.7123072,-3.9870888,0.0,0.0,0.0,0.0
5.3,31.240476000000005,-86.58666960000001,-58.1762616,-1.8400776,0.0,0.0,0.0,0.0
5.319999999999999,32.7836784,-63.86901120000001,-40.8806904,-0.30662880000000003,0.0,0.0,0.0,0.0
5.34,34.2326976,-30.524805600000004,-22.392132000000004,0.30662880000000003,0.0,0.0,0.0,0.0
5.359999999999999,35.98926,-8.6749128,-10.843564800000001,0.23012400000000002,0.0,0.0,0.0,0.0
5.38,37.9021848,-1.1387328,-4.1748456,-0.5367528,0.0,0.0,0.0,0.0
5.3999999999999995,39.399972,0.9217152000000001,-0.0542544,-0.30662880000000003,0.0,0.0,0.0,0.0
5.42,40.6834848,-37.085320800000005,45.2179944,-38.031420000000004,0.0,0.0,0.0,0.0
5.4399999999999995,41.8027104,1.0844784,2.0601432,-1.6102584000000002,0.0,0.0,0.0,0.0
5.459999999999999,43.1371248,2.8736544000000004,2.9818584,0.9201912000000001,0.0,0.0,0.0,0.0
5.4799999999999995,44.521526400000006,1.7349216,0.3252216,1.7635728,0.0,0.0,0.0,0.0
5.5,45.652944000000005,1.6264128000000002,0.1085088,0.30662880000000003,0.0,0.0,0.0,0.0
5.52,46.606968,3.6868608000000003,-2.3856696,0.7668768,0.0,0.0,0.0,0.0
5.539999999999999,47.4524832,26.566977600000005,22.337877600000002,44.77908240000001,0.0,0.0,0.0,0.0
5.56,48.595788000000006,16.645128,2.2229064000000003,18.0188616,0.0,0.0,0.0,0.0
5.58,49.8070632,13.5005064,2.8736544000000004,-11.271504,0.0,0.0,0.0,0.0
5.6,50.68397280000001,8.6749128,0.0,-4.7539656,0.0,0.0,0.0,0.0
5.619999999999999,51.2326128,9.0543888,0.2709672,-5.2139088000000005,0.0,0.0,0.0,0.0
5.64,51.809294400000006,11.928043200000001,-2.8194000000000004,-14.645030400000001,0.0,0.0,0.0,0.0
5.659999999999999,52.382928,10.193121600000001,-1.6264128000000002,-7.2076056,0.0,0.0,0.0,0.0
5.68,52.855063200000004,8.4582,-1.7349216,-6.747662400000001,0.0,0.0,0.0,0.0
5.699999999999999,53.3564592,9.6508824,-0.3252216,-5.060594400000001,0.0,0.0,0.0,0.0
5.72,53.975508000000005,10.681106400000001,-2.9818584,-5.597347200000001,0.0,0.0,0.0,0.0
5.739999999999999,54.5585904,9.2714064,2.1143976,-5.367223200000001,0.0,0.0,0.0,0.0
5.76,55.15264560000001,8.241182400000001,0.1085088,-6.2109096,0.0,0.0,0.0,0.0
5.779999999999999,55.858867200000006,8.4582,-1.5182088,-5.827471200000001,0.0,0.0,0.0,0.0
5.8,56.55716400000001,8.4582,-3.4698432,-6.2874144,0.0,0.0,0.0,0.0
5.819999999999999,57.3243456,9.7051368,-2.4399240000000004,-6.6708528000000005,0.0,0.0,0.0,0.0
5.84,58.0555608,8.94588,-0.8132064000000001,-7.130796,0.0,0.0,0.0,0.0
5.859999999999999,58.92850800000001,8.729167200000001,-1.030224,-7.9744824,0.0,0.0,0.0,0.0
5.88,59.777680800000006,7.8617064,1.3554456000000001,-5.4440328000000004,0.0,0.0,0.0,0.0
5.8999999999999995,60.608260800000004,9.2714064,0.9217152000000001,-6.0572904,0.0,0.0,0.0,0.0
5.92,61.5293664,8.729167200000001,-0.5964936000000001,-5.5205376,0.0,0.0,0.0,0.0
5.9399999999999995,62.48095200000001,8.3496912,1.6264128000000002,-6.364224,0.0,0.0,0.0,0.0
5.959999999999999,63.5169672,8.1326736,-1.1926824,-5.903976000000001,0.0,0.0,0.0,0.0
5.9799999999999995,64.58651040000001,9.4338648,-0.9759696,-5.4440328000000004,0.0,0.0,0.0,0.0
6.0,65.63410800000001,8.4582,-5.964021600000001,-5.5205376,0.0,0.0,0.0,0.0
6.02,66.6106872,8.94588,-2.0061936,-4.8304704,0.0,0.0,0.0,0.0
6.039999999999999,67.7424096,8.295436800000001,-1.789176,-5.367223200000001,0.0,0.0,0.0,0.0
6.06,68.85828240000001,6.668719200000001,0.0542544,-4.370527200000001,0.0,0.0,0.0,0.0
6.08,70.0177416,9.2714064,-3.198876,-6.0572904,0.0,0.0,0.0,0.0
6.1,71.22231120000001,7.156704,-1.5182088,-6.0572904,0.0,0.0,0.0,0.0
6.119999999999999,72.3293448,8.566404,0.1085088,-5.060594400000001,0.0,0.0,0.0,0.0
6.14,73.3976688,7.5364848,0.4879848,-6.9774816,0.0,0.0,0.0,0.0
6.159999999999999,74.4912912,7.6446888,-2.4399240000000004,-6.2874144,0.0,0.0,0.0,0.0
6.18,75.66355200000001,5.476036800000001,-2.4399240000000004,-5.903976000000001,0.0,0.0,0.0,0.0
6.199999999999999,76.75626,7.807452,-2.2771608000000003,-4.984089600000001,0.0,0.0,0.0,0.0
6.22,77.84988240000001,8.94588,-1.2469368,-3.68046,0.0,0.0,0.0,0.0
6.239999999999999,78.7993344,6.1267848,-1.1387328,-2.683764,0.0,0.0,0.0,0.0
6.26,79.87710720000001,7.2652128,1.5182088,-3.3738312000000006,0.0,0.0,0.0,0.0
6.279999999999999,80.89392,6.4520064,2.1143976,-3.1437072,0.0,0.0,0.0,0.0
6.3,81.9189624,5.801258400000001,-0.0542544,-5.4440328000000004,0.0,0.0,0.0,0.0
6.319999999999999,82.93912800000001,5.964021600000001,-0.3252216,-4.907280000000001,0.0,0.0,0.0,0.0
6.34,83.97849599999999,7.753197600000001,-0.16276320000000002,-3.6036504000000003,0.0,0.0,0.0,0.0
6.359999999999999,85.0459056,6.668719200000001,-1.6806672000000002,-3.6036504000000003,0.0,0.0,0.0,0.0
6.38,86.028276,6.397752,-1.4097000000000002,-4.6006512,0.0,0.0,0.0,0.0
6.3999999999999995,87.0460032,8.295436800000001,-3.198876,-3.450336,0.0,0.0,0.0,0.0
6.42,88.0823232,4.7170848,0.16276320000000002,-5.2907184,0.0,0.0,0.0,0.0
6.4399999999999995,89.18295599999999,5.9097672,-0.2709672,-4.1404032,0.0,0.0,0.0,0.0
6.459999999999999,90.0260328,4.7713392,-1.9519392,-4.907280000000001,0.0,0.0,0.0,0.0
6.4799999999999995,91.0099272,6.4520064,-0.0542544,-4.907280000000001,0.0,0.0,0.0,0.0
6.5,92.031312,6.1807343999999995,-0.8674608,-5.750661600000001,0.0,0.0,0.0,0.0
6.52,93.04873440000001,3.1446216000000002,-0.5422392,-5.903976000000001,0.0,0.0,0.0,0.0
6.539999999999999,94.1124864,5.205069600000001,1.0844784,-4.1404032,0.0,0.0,0.0,0.0
6.56,95.10613440000002,6.614769600000001,-2.0601432,-4.370527200000001,0.0,0.0,0.0,0.0
6.58,96.14916,6.397752,0.7589520000000001,-3.1437072,0.0,0.0,0.0,0.0
6.6,97.28179680000001,5.5845456,-0.5964936000000001,-4.2172128,0.0,0.0,0.0,0.0
6.619999999999999,98.2501464,6.1807343999999995,0.2170176,-3.2205168000000004,0.0,0.0,0.0,0.0
6.64,99.306888,4.933797600000001,-0.16276320000000002,-3.8337744,0.0,0.0,0.0,0.0
6.66,100.40447280000001,4.933797600000001,0.16276320000000002,-4.2937176,0.0,0.0,0.0,0.0
6.68,101.41458000000002,5.6930544,-1.030224,-4.370527200000001,0.0,0.0,0.0,0.0
6.699999999999999,102.4588248,4.7170848,1.030224,-3.3738312000000006,0.0,0.0,0.0,0.0
6.72,103.363776,5.367528,1.4639544,-3.5271456,0.0,0.0,0.0,0.0
6.74,104.27177520000001,5.9097672,0.37947600000000004,-2.683764,0.0,0.0,0.0,0.0
6.76,105.3029136,5.5845456,-2.4399240000000004,-3.1437072,0.0,0.0,0.0,0.0
6.779999999999999,106.35660720000001,5.259324,-0.0542544,-3.1437072,0.0,0.0,0.0,0.0
6.799999999999999,107.3935368,4.2291,-2.4941784,-4.677156,0.0,0.0,0.0,0.0
6.819999999999999,108.4152264,4.5000672,-4.1748456,-4.2172128,0.0,0.0,0.0,0.0
6.84,109.24367280000001,4.1748456,-0.8132064000000001,-3.8337744,0.0,0.0,0.0,0.0
6.859999999999999,110.24616,5.638800000000001,-1.4097000000000002,-3.6036504000000003,0.0,0.0,0.0,0.0
6.879999999999999,111.27729839999999,4.3376088,-1.6264128000000002,-4.0638984,0.0,0.0,0.0,0.0
6.8999999999999995,112.1651808,5.9097672,-0.5964936000000001,-3.1437072,0.0,0.0,0.0,0.0
6.92,113.17132560000002,4.554321600000001,0.650748,-3.2205168000000004,0.0,0.0,0.0,0.0
6.9399999999999995,114.098832,4.933797600000001,1.2469368,-2.7602688,0.0,0.0,0.0,0.0
6.959999999999999,115.05590400000001,4.0663368,1.8976848000000002,-3.910584,0.0,0.0,0.0,0.0
6.9799999999999995,116.09923440000001,4.8252888,2.2229064000000003,-3.1437072,0.0,0.0,0.0,0.0
7.0,117.07215599999999,4.445812800000001,-0.7589520000000001,-4.4473368,0.0,0.0,0.0,0.0
7.02,117.96095280000002,4.608576,-2.6566368,-4.8304704,0.0,0.0,0.0,0.0
7.039999999999999,118.88632560000002,4.445812800000001,-2.1686520000000002,-3.450336,0.0,0.0,0.0,0.0
7.06,119.7476904,4.6628304,-0.2170176,-1.9936968000000002,0.0,0.0,0.0,0.0
7.08,120.64044960000001,4.3376088,-0.9759696,-2.3768304000000002,0.0,0.0,0.0,0.0
7.1,121.51309200000001,5.421782400000001,-2.9279088,-2.0702016,0.0,0.0,0.0,0.0
7.119999999999999,122.34397680000001,5.205069600000001,-1.3011912,-1.4569440000000002,0.0,0.0,0.0,0.0
7.14,123.2147904,5.096560800000001,-0.2170176,-1.0735056,0.0,0.0,0.0,0.0
7.16,124.1203512,4.608576,-0.37947600000000004,-0.9201912000000001,0.0,0.0,0.0,0.0
7.18,124.97135280000002,4.8252888,0.2709672,-1.3801344,0.0,0.0,0.0,0.0
7.199999999999999,125.74097280000001,4.1748456,-0.7046976,-2.4536400000000005,0.0,0.0,0.0,0.0
7.22,126.5386344,3.8496240000000004,0.16276320000000002,-2.5304496,0.0,0.0,0.0,0.0
7.24,127.44663360000001,3.957828,0.0542544,-2.6069544000000002,0.0,0.0,0.0,0.0
7.26,128.35280400000002,3.5240976,-1.5724632,-2.9135831999999997,0.0,0.0,0.0,0.0
7.279999999999999,129.25806,2.9818584,-0.7046976,-3.6036504000000003,0.0,0.0,0.0,0.0
7.299999999999999,130.077972,3.0903671999999998,-0.7046976,-2.9903928,0.0,0.0,0.0,0.0
7.319999999999999,130.9097712,2.7651456,-0.37947600000000004,-3.68046,0.0,0.0,0.0,0.0
7.34,131.8141128,3.4158936000000004,-0.4879848,-2.7602688,0.0,0.0,0.0,0.0
7.359999999999999,132.61055520000002,3.1446216000000002,0.2170176,-2.683764,0.0,0.0,0.0,0.0
7.379999999999999,133.4484504,2.7108912000000003,-1.1926824,-3.0672024,0.0,0.0,0.0,0.0
7.3999999999999995,134.479284,3.0361128,-0.9759696,-2.5304496,0.0,0.0,0.0,0.0
7.42,135.24006480000003,2.9818584,-1.3554456000000001,-2.3003256,0.0,0.0,0.0,0.0
7.4399999999999995,136.03498320000003,3.3073848000000003,-0.37947600000000004,-1.9168872,0.0,0.0,0.0,0.0
7.459999999999999,136.8122232,3.4158936000000004,0.2709672,-2.3768304000000002,0.0,0.0,0.0,0.0
7.4799999999999995,137.6239056,3.4158936000000004,0.16276320000000002,-1.9936968000000002,0.0,0.0,0.0,0.0
7.5,138.56208,3.957828,0.7046976,-1.6102584000000002,0.0,0.0,0.0,0.0
7.52,139.343892,3.0361128,-0.4337304,-1.6867632000000001,0.0,0.0,0.0,0.0
7.539999999999999,140.23207920000002,3.2531304000000003,0.8674608,-1.2268200000000002,0.0,0.0,0.0,0.0
7.56,141.0669264,4.120591200000001,0.1085088,-0.5367528,0.0,0.0,0.0,0.0
7.58,141.9642576,3.8496240000000004,-1.3554456000000001,-1.4569440000000002,0.0,0.0,0.0,0.0
7.6,142.8664656,2.0061936,-1.4639544,-2.9903928,0.0,0.0,0.0,0.0
7.619999999999999,143.7132,2.0601432,-1.4097000000000002,-4.2937176,0.0,0.0,0.0,0.0
7.64,144.5602392,1.4097000000000002,-1.4097000000000002,-3.7572696000000003,0.0,0.0,0.0,0.0
7.66,145.418556,2.0061936,-1.8976848000000002,-3.0672024,0.0,0.0,0.0,0.0
7.68,146.3113152,2.4399240000000004,-1.6806672000000002,-2.223516,0.0,0.0,0.0,0.0
7.699999999999999,147.1607928,3.4698432,-1.1926824,-1.9168872,0.0,0.0,0.0,0.0
7.72,148.009356,2.8736544000000004,-1.1387328,-1.1500104,0.0,0.0,0.0,0.0
7.74,148.7725752,3.0361128,-1.4097000000000002,-1.1500104,0.0,0.0,0.0,0.0
7.76,149.49921840000002,3.3073848000000003,-1.6806672000000002,-0.6900672,0.0,0.0,0.0,0.0
7.779999999999999,150.29322240000002,3.1446216000000002,-1.6264128000000002,-1.9168872,0.0,0.0,0.0,0.0
7.799999999999999,151.13325120000002,2.6566368,-0.8132064000000001,-1.9936968000000002,0.0,0.0,0.0,0.0
7.819999999999999,151.8794016,1.8976848000000002,-0.37947600000000004,-2.9903928,0.0,0.0,0.0,0.0
7.84,152.630124,1.6264128000000002,0.1085088,-3.3738312000000006,0.0,0.0,0.0,0.0
7.859999999999999,153.4588752,1.6806672000000002,0.16276320000000002,-3.0672024,0.0,0.0,0.0,0.0
7.879999999999999,154.0892016,2.7108912000000003,1.0844784,-1.7635728,0.0,0.0,0.0,0.0
7.8999999999999995,154.8655272,2.6023824,0.650748,-1.5334488,0.0,0.0,0.0,0.0
7.92,155.6101536,2.4941784,0.9759696,-1.3801344,0.0,0.0,0.0,0.0
7.9399999999999995,156.41482560000003,2.7651456,0.9217152000000001,-1.6867632000000001,0.0,0.0,0.0,0.0
7.959999999999999,157.1115984,2.7651456,0.8132064000000001,-2.1470112,0.0,0.0,0.0,0.0
7.9799999999999995,157.826964,2.0601432,0.4337304,-2.4536400000000005,0.0,0.0,0.0,0.0
8.0,158.59506000000002,2.1686520000000002,0.8674608,-2.683764,0.0,0.0,0.0,0.0
8.02,159.2391024,1.8434304000000001,0.3252216,-2.3003256,0.0,0.0,0.0,0.0
8.04,159.92429280000002,2.2229064000000003,-0.4879848,-2.0702016,0.0,0.0,0.0,0.0
8.059999999999999,160.74207120000003,2.2229064000000003,-0.2709672,-1.7635728,0.0,0.0,0.0,0.0
8.08,161.396172,2.3314152,-0.2709672,-1.3801344,0.0,0.0,0.0,0.0
8.1,162.0554544,2.8194000000000004,-0.9759696,-0.6135624,0.0,0.0,0.0,0.0
8.12,162.7430832,2.3314152,-0.5964936000000001,-1.1500104,0.0,0.0,0.0,0.0
8.14,163.4590584,2.6566368,-1.030224,-0.9201912000000001,0.0,0.0,0.0,0.0
8.16,164.13723840000003,2.6023824,-0.650748,-0.5367528,0.0,0.0,0.0,0.0
8.18,164.8209048,2.7651456,-1.1387328,-0.6900672,0.0,0.0,0.0,0.0
8.2,165.54541440000003,2.3314152,-0.2709672,-0.6900672,0.0,0.0,0.0,0.0
8.219999999999999,166.20896399999998,2.7108912000000003,-0.3252216,-0.30662880000000003,0.0,0.0,0.0,0.0
8.24,166.86885600000002,2.2229064000000003,-0.5964936000000001,-1.0735056,0.0,0.0,0.0,0.0
8.26,167.58666000000002,2.2771608000000003,-0.7589520000000001,-0.7668768,0.0,0.0,0.0,0.0
8.28,168.2102808,2.0601432,-0.4337304,-1.2268200000000002,0.0,0.0,0.0,0.0
8.299999999999999,168.92229360000002,1.8434304000000001,-0.7589520000000001,-1.9168872,0.0,0.0,0.0,0.0
8.32,169.4937936,2.0601432,-0.4337304,-1.6867632000000001,0.0,0.0,0.0,0.0
8.34,170.0902872,1.8976848000000002,-0.5964936000000001,-1.6102584000000002,0.0,0.0,0.0,0.0
8.36,170.660568,1.8976848000000002,-1.030224,-1.6102584000000002,0.0,0.0,0.0,0.0
8.379999999999999,171.34332,1.5182088,-0.1085088,-1.6867632000000001,0.0,0.0,0.0,0.0
8.399999999999999,171.9059808,1.8976848000000002,-0.37947600000000004,-1.6102584000000002,0.0,0.0,0.0,0.0
8.42,172.43846640000004,1.1387328,0.16276320000000002,-1.7635728,0.0,0.0,0.0,0.0
8.44,172.95906480000002,1.0844784,-0.4337304,-2.683764,0.0,0.0,0.0,0.0
8.459999999999999,173.5677504,1.3554456000000001,-0.7046976,-2.3003256,0.0,0.0,0.0,0.0
8.48,174.1919808,1.4097000000000002,-0.3252216,-2.0702016,0.0,0.0,0.0,0.0
8.5,174.842424,1.3554456000000001,0.2709672,-1.9168872,0.0,0.0,0.0,0.0
8.52,175.40599920000002,1.6264128000000002,-0.650748,-2.0702016,0.0,0.0,0.0,0.0
8.54,175.9326936,1.4097000000000002,-0.2170176,-1.7635728,0.0,0.0,0.0,0.0
8.559999999999999,176.512728,1.6806672000000002,-0.0542544,-1.6867632000000001,0.0,0.0,0.0,0.0
8.579999999999998,177.04308,1.6264128000000002,-0.1085088,-1.4569440000000002,0.0,0.0,0.0,0.0
8.6,177.7255272,1.7349216,-0.650748,-1.5334488,0.0,0.0,0.0,0.0
8.62,178.2107688,1.4097000000000002,0.0,-1.3801344,0.0,0.0,0.0,0.0
8.64,178.7700768,1.6264128000000002,0.0,-1.0735056,0.0,0.0,0.0,0.0
8.66,179.5387824,1.5724632,-0.0542544,-0.996696,0.0,0.0,0.0,0.0
8.68,180.15966000000003,1.6264128000000002,0.0,-0.8433816000000001,0.0,0.0,0.0,0.0
8.7,180.71226240000001,1.4097000000000002,0.1085088,-1.5334488,0.0,0.0,0.0,0.0
8.719999999999999,181.31729040000002,1.4639544,0.0542544,-1.3036296,0.0,0.0,0.0,0.0
8.739999999999998,181.8342312,1.4639544,0.0542544,-1.1500104,0.0,0.0,0.0,0.0
8.76,182.3231304,1.5182088,-0.2170176,-1.2268200000000002,0.0,0.0,0.0,0.0
8.78,182.8263552,1.5724632,-0.16276320000000002,-0.9201912000000001,0.0,0.0,0.0,0.0
8.8,183.3058056,1.3554456000000001,0.2709672,-0.7668768,0.0,0.0,0.0,0.0
8.82,183.8513976,1.4097000000000002,0.2170176,-0.6900672,0.0,0.0,0.0,0.0
8.84,184.45459680000002,1.4097000000000002,0.0,-0.9201912000000001,0.0,0.0,0.0,0.0
8.86,185.0946768,1.3554456000000001,-0.0542544,-1.0735056,0.0,0.0,0.0,0.0
8.879999999999999,185.64453600000002,1.5724632,-0.16276320000000002,-0.6900672,0.0,0.0,0.0,0.0
8.899999999999999,186.17641200000003,1.4097000000000002,-0.3252216,-0.4599432,0.0,0.0,0.0,0.0
8.92,186.6948768,1.4097000000000002,0.0,-0.3834384,0.0,0.0,0.0,0.0
8.94,187.2133416,1.4639544,-0.0542544,-0.5367528,0.0,0.0,0.0,0.0
8.96,187.78179360000001,1.4097000000000002,0.0,-0.3834384,0.0,0.0,0.0,0.0
8.98,188.35695120000003,1.3554456000000001,0.2709672,-0.4599432,0.0,0.0,0.0,0.0
9.0,188.99733600000002,1.3011912,0.0,-0.5367528,0.0,0.0,0.0,0.0
9.02,189.63223440000002,1.3554456000000001,0.16276320000000002,-0.6900672,0.0,0.0,0.0,0.0
9.04,190.1884944,1.1926824,0.1085088,-0.996696,0.0,0.0,0.0,0.0
9.059999999999999,190.73987760000003,1.4097000000000002,-0.2170176,-0.6135624,0.0,0.0,0.0,0.0
9.079999999999998,191.20043040000002,1.5724632,-0.16276320000000002,-0.23012400000000002,0.0,0.0,0.0,0.0
9.1,191.64574320000003,1.5182088,-0.3252216,-0.15331440000000002,0.0,0.0,0.0,0.0
9.12,192.1389096,1.5182088,-0.2170176,0.23012400000000002,0.0,0.0,0.0,0.0
9.14,192.6140928,1.4639544,-0.16276320000000002,-0.15331440000000002,0.0,0.0,0.0,0.0
9.16,193.0371552,1.3011912,-0.1085088,-0.3834384,0.0,0.0,0.0,0.0
9.18,193.50258480000002,1.1926824,-0.2170176,-0.5367528,0.0,0.0,0.0,0.0
9.2,193.8838896,1.030224,-0.2709672,-0.9201912000000001,0.0,0.0,0.0,0.0
9.219999999999999,194.25544080000003,0.8674608,-0.650748,-0.9201912000000001,0.0,0.0,0.0,0.0
9.239999999999998,194.7053256,0.8674608,-0.5422392,-0.996696,0.0,0.0,0.0,0.0
9.26,195.2234856,0.8132064000000001,-0.37947600000000004,-1.2268200000000002,0.0,0.0,0.0,0.0
9.28,195.7513992,0.650748,-0.5422392,-1.1500104,0.0,0.0,0.0,0.0
9.3,196.06869600000002,0.5964936000000001,-0.7046976,-1.4569440000000002,0.0,0.0,0.0,0.0
9.32,196.5963048,0.650748,-0.7589520000000001,-0.996696,0.0,0.0,0.0,0.0
9.34,197.024244,0.7589520000000001,-0.8674608,-0.7668768,0.0,0.0,0.0,0.0
9.36,197.4530976,0.4879848,-0.8132064000000001,-1.1500104,0.0,0.0,0.0,0.0
9.379999999999999,197.81032320000003,0.3252216,-0.7589520000000001,-1.4569440000000002,0.0,0.0,0.0,0.0
9.399999999999999,198.276972,0.3252216,-0.8674608,-1.3801344,0.0,0.0,0.0,0.0
9.42,198.71740800000003,0.4337304,-0.8674608,-1.3036296,0.0,0.0,0.0,0.0
9.44,199.1237064,0.5422392,-0.8674608,-0.9201912000000001,0.0,0.0,0.0,0.0
9.46,199.53610079999999,0.2709672,-0.2709672,-1.3036296,0.0,0.0,0.0,0.0
9.48,199.907652,0.8132064000000001,-0.16276320000000002,-0.5367528,0.0,0.0,0.0,0.0
9.5,200.2801176,0.5422392,-0.650748,-1.0735056,0.0,0.0,0.0,0.0
9.52,200.605644,0.5422392,-0.2170176,-0.996696,0.0,0.0,0.0,0.0
9.54,201.0997248,0.7046976,-0.0542544,-0.7668768,0.0,0.0,0.0,0.0
9.559999999999999,201.5425992,0.5422392,-0.2170176,-0.6135624,0.0,0.0,0.0,0.0
9.579999999999998,201.9671856,0.7046976,-0.0542544,-0.4599432,0.0,0.0,0.0,0.0
9.6,202.40000160000002,0.7046976,-0.2709672,-0.4599432,0.0,0.0,0.0,0.0
9.62,202.86360240000002,0.7046976,-0.2709672,-0.4599432,0.0,0.0,0.0,0.0
9.64,203.20741680000003,0.8132064000000001,-0.37947600000000004,-0.30662880000000003,0.0,0.0,0.0,0.0
9.66,203.5585464,0.650748,-0.3252216,-0.30662880000000003,0.0,0.0,0.0,0.0
9.68,203.95326240000003,0.5964936000000001,-0.2709672,-0.3834384,0.0,0.0,0.0,0.0
9.7,204.252576,0.650748,-0.2170176,-0.30662880000000003,0.0,0.0,0.0,0.0
9.719999999999999,204.64058640000002,0.650748,-0.1085088,-0.23012400000000002,0.0,0.0,0.0,0.0
9.739999999999998,204.9594072,0.650748,-0.1085088,-0.30662880000000003,0.0,0.0,0.0,0.0
9.76,205.36601040000002,0.4879848,-0.0542544,-0.30662880000000003,0.0,0.0,0.0,0.0
9.78,205.72628400000002,0.4879848,-0.16276320000000002,-0.5367528,0.0,0.0,0.0,0.0
9.8,206.0481528,0.5964936000000001,-0.5964936000000001,-0.5367528,0.0,0.0,0.0,0.0
9.82,206.3721552,0.4337304,-0.2170176,-0.5367528,0.0,0.0,0.0,0.0
9.84,206.6766504,0.4337304,-0.2170176,-0.5367528,0.0,0.0,0.0,0.0
9.86,207.04942080000004,0.2709672,-0.16276320000000002,-0.6900672,0.0,0.0,0.0,0.0
9.879999999999999,207.41944800000002,0.5964936000000001,-0.2709672,-0.5367528,0.0,0.0,0.0,0.0
9.899999999999999,207.8007528,0.5422392,-0.2170176,-0.3834384,0.0,0.0,0.0,0.0
9.92,208.09427520000003,0.4879848,-0.16276320000000002,-0.4599432,0.0,0.0,0.0,0.0
9.94,208.37438640000002,0.37947600000000004,-0.16276320000000002,-0.3834384,0.0,0.0,0.0,0.0
9.96,208.6785768,0.3252216,-0.3252216,-0.5367528,0.0,0.0,0.0,0.0
9.98,208.9080912,0.4337304,-0.1085088,-0.4599432,0.0,0.0,0.0,0.0
10.0,209.1958224,0.4879848,-0.16276320000000002,-0.3834384,0.0,0.0,0.0,0.0
10.02,209.51007120000003,0.4337304,0.0,-0.4599432,0.0,0.0,0.0,0.0
10.04,209.69173200000003,0.4337304,0.0,-0.15331440000000002,0.0,0.0,0.0,0.0
10.059999999999999,209.9651376,0.37947600000000004,0.0542544,-0.30662880000000003,0.0,0.0,0.0,0.0
10.079999999999998,210.1486272,0.3252216,0.1085088,-0.5367528,0.0,0.0,0.0,0.0
10.1,210.5113392,0.2170176,0.0,-0.6135624,0.0,0.0,0.0,0.0
10.12,210.7621896,0.3252216,0.0,-0.3834384,0.0,0.0,0.0,0.0
10.14,211.1465424,0.2709672,0.16276320000000002,-0.30662880000000003,0.0,0.0,0.0,0.0
10.16,211.354416,0.37947600000000004,0.0542544,-0.4599432,0.0,0.0,0.0,0.0
10.18,211.66683600000002,0.4879848,0.16276320000000002,-0.30662880000000003,0.0,0.0,0.0,0.0
10.2,211.9460328,0.4879848,0.16276320000000002,-0.30662880000000003,0.0,0.0,0.0,0.0
10.219999999999999,212.1624408,0.3252216,0.0,-0.30662880000000003,0.0,0.0,0.0,0.0
10.239999999999998,212.45840160000003,0.2709672,-0.0542544,-0.15331440000000002,0.0,0.0,0.0,0.0
10.26,212.7500952,0.4879848,0.0542544,-0.0768096,0.0,0.0,0.0,0.0
10.28,213.01222320000002,0.3252216,0.1085088,-0.15331440000000002,0.0,0.0,0.0,0.0
10.3,213.3133656,0.2709672,-0.0542544,-0.15331440000000002,0.0,0.0,0.0,0.0
10.32,213.52398240000002,0.1085088,-0.2170176,-0.15331440000000002,0.0,0.0,0.0,0.0
10.34,213.81537120000002,0.7046976,-0.16276320000000002,-0.0768096,0.0,0.0,0.0,0.0
10.36,214.09182479999998,0.37947600000000004,-0.2709672,0.0,0.0,0.0,0.0,0.0
10.379999999999999,214.30731839999999,0.4337304,-0.2170176,-0.15331440000000002,0.0,0.0,0.0,0.0
10.399999999999999,214.4941608,0.37947600000000004,-0.16276320000000002,-0.0768096,0.0,0.0,0.0,0.0
10.42,214.7428776,0.4337304,-0.2170176,-0.0768096,0.0,0.0,0.0,0.0
10.44,214.9736112,0.2170176,-0.1085088,-0.15331440000000002,0.0,0.0,0.0,0.0
10.46,215.17508400000003,0.37947600000000004,0.0542544,-0.0768096,0.0,0.0,0.0,0.0
10.48,215.2927368,0.3252216,-0.1085088,-0.23012400000000002,0.0,0.0,0.0,0.0
10.5,215.423496,0.3252216,-0.2170176,-0.23012400000000002,0.0,0.0,0.0,0.0
10.52,215.5923552,0.3252216,-0.2170176,0.0,0.0,0.0,0.0,0.0
10.54,215.7706632,0.2709672,-0.2709672,0.0,0.0,0.0,0.0,0.0
10.559999999999999,215.9084328,0.3252216,-0.2170176,-0.0768096,0.0,0.0,0.0,0.0
10.579999999999998,216.1952496,0.2170176,-0.1085088,0.0768096,0.0,0.0,0.0,0.0
10.6,216.38971200000003,0.16276320000000002,-0.16276320000000002,0.0768096,0.0,0.0,0.0,0.0
10.62,216.5430264,0.16276320000000002,-0.16276320000000002,-0.0768096,0.0,0.0,0.0,0.0
10.64,216.6628128,0.5964936000000001,0.0542544,0.0,0.0,0.0,0.0,0.0
10.66,216.8130792,0.1085088,-0.2170176,-0.0768096,0.0,0.0,0.0,0.0
10.68,216.9795,0.0,-0.3252216,-0.15331440000000002,0.0,0.0,0.0,0.0
10.7,217.1721336,0.37947600000000004,-0.2709672,-0.0768096,0.0,0.0,0.0,0.0
10.719999999999999,217.3266672,0.2170176,-0.2170176,0.0,0.0,0.0,0.0,0.0
10.739999999999998,217.49766000000002,0.3252216,-0.5422392,0.3834384,0.0,0.0,0.0,0.0
10.76,217.69608480000002,0.4879848,-0.16276320000000002,0.6135624,0.0,0.0,0.0,0.0
10.78,217.892376,0.37947600000000004,-0.16276320000000002,0.4599432,0.0,0.0,0.0,0.0
10.8,218.06275920000002,0.8674608,-1.0844784,0.4599432,0.0,0.0,0.0,0.0
10.82,218.2224744,1.0844784,-0.5422392,0.5367528,0.0,0.0,0.0,0.0
10.84,218.49588000000003,0.4337304,0.0,0.5367528,0.0,0.0,0.0,0.0
10.86,218.73179520000002,0.7046976,-0.2709672,0.5367528,0.0,0.0,0.0,0.0
10.879999999999999,218.82689280000002,0.2170176,-0.2170176,0.30662880000000003,0.0,0.0,0.0,0.0
10.899999999999999,218.9466792,0.5964936000000001,-0.2709672,0.5367528,0.0,0.0,0.0,0.0
10.92,219.027756,0.37947600000000004,-0.2709672,0.3834384,0.0,0.0,0.0,0.0
10.94,219.16095360000003,0.37947600000000004,-0.37947600000000004,0.4599432,0.0,0.0,0.0,0.0
10.96,219.2673288,0.0542544,-0.2709672,0.15331440000000002,0.0,0.0,0.0,0.0
10.98,219.42399600000002,0.1085088,-0.4337304,0.30662880000000003,0.0,0.0,0.0,0.0
11.0,219.42978720000002,0.0542544,-0.4879848,0.5367528,0.0,0.0,0.0,0.0
11.02,219.58767360000002,-0.0542544,-0.4879848,0.4599432,0.0,0.0,0.0,0.0
11.04,219.6193728,0.0,-0.7589520000000001,0.4599432,0.0,0.0,0.0,0.0
11.059999999999999,219.75135120000002,-0.16276320000000002,-0.5964936000000001,0.23012400000000002,0.0,0.0,0.0,0.0
11.079999999999998,219.8366952,-1.1926824,-0.650748,0.15331440000000002,0.0,0.0,0.0,0.0
11.1,219.94337520000002,-0.4879848,-0.37947600000000004,-0.15331440000000002,0.0,0.0,0.0,0.0
11.12,219.995496,-0.650748,-0.650748,0.0,0.0,0.0,0.0,0.0
11.14,220.03877760000003,-0.3252216,-0.3252216,0.0,0.0,0.0,0.0,0.0
11.16,220.1948352,-0.2709672,-0.0542544,-0.0768096,0.0,0.0,0.0,0.0
11.18,220.3036488,-0.3252216,0.0,-0.3834384,0.0,0.0,0.0,0.0
11.2,220.31126880000002,0.1085088,-0.1085088,-0.8433816000000001,0.0,0.0,0.0,0.0
11.219999999999999,220.4273976,0.0542544,-0.0542544,-0.9201912000000001,0.0,0.0,0.0,0.0
11.239999999999998,220.4795184,0.0542544,-0.2709672,-1.2268200000000002,0.0,0.0,0.0,0.0
11.26,220.65721680000001,-0.1085088,-0.1085088,-1.0735056,0.0,0.0,0.0,0.0
11.28,220.64136720000002,3.198876,-9.0543888,0.6135624,0.0,0.0,0.0,0.0
11.3,220.7251872,-0.2170176,-0.2170176,-0.996696,0.0,0.0,0.0,0.0
11.32,220.7870616,-0.1085088,-0.2170176,-0.4599432,0.0,0.0,0.0,0.0
11.34,220.8175416,-0.7046976,-0.8132064000000001,-0.4599432,0.0,0.0,0.0,0.0
11.36,220.8468024,-0.7046976,-1.4639544,-0.3834384,0.0,0.0,0.0,0.0
11.379999999999999,220.94799600000002,-0.4879848,-1.5724632,-0.23012400000000002,0.0,0.0,0.0,0.0
11.399999999999999,220.9641504,-0.4337304,-1.1926824,-0.6135624,0.0,0.0,0.0,0.0
11.42,220.97146560000002,-0.4337304,-1.4097000000000002,-0.6900672,0.0,0.0,0.0,0.0
11.44,221.0433984,-0.4879848,-1.4639544,-0.8433816000000001,0.0,0.0,0.0,0.0
11.46,221.15769840000002,-0.4337304,-1.4097000000000002,-0.9201912000000001,0.0,0.0,0.0,0.0
11.48,221.20006560000002,-0.5422392,-1.5182088,-0.8433816000000001,0.0,0.0,0.0,0.0
11.5,221.22871680000003,-0.5422392,-1.4097000000000002,-0.5367528,0.0,0.0,0.0,0.0
11.52,221.27108400000003,-0.650748,-1.4097000000000002,-0.3834384,0.0,0.0,0.0,0.0
11.54,221.28937200000001,-0.650748,-1.3011912,-0.30662880000000003,0.0,0.0,0.0,0.0
11.559999999999999,221.3469792,-0.5964936000000001,-1.3554456000000001,-0.30662880000000003,0.0,0.0,0.0,0.0
11.579999999999998,221.4628032,-0.650748,-1.4097000000000002,-0.4599432,0.0,0.0,0.0,0.0
11.6,221.470728,-0.5422392,-1.3011912,-0.6135624,0.0,0.0,0.0,0.0
11.62,221.41037760000003,-0.5964936000000001,-1.4639544,-0.4599432,0.0,0.0,0.0,0.0
11.64,221.42683680000002,-0.4879848,-1.3554456000000001,-0.6135624,0.0,0.0,0.0,0.0
11.66,221.4862728,-0.4337304,-1.3011912,-0.4599432,0.0,0.0,0.0,0.0
11.68,221.4713376,-0.4879848,-1.3554456000000001,-0.30662880000000003,0.0,0.0,0.0,0.0
11.7,221.5280304,-0.5422392,-1.0844784,-0.23012400000000002,0.0,0.0,0.0,0.0
11.719999999999999,221.48657760000003,-0.5422392,-1.3011912,-0.23012400000000002,0.0,0.0,0.0,0.0
11.739999999999998,221.52193440000002,-0.5422392,-1.3011912,-0.3834384,0.0,0.0,0.0,0.0
11.76,221.56125360000001,-0.3252216,-1.0844784,-0.3834384,0.0,0.0,0.0,0.0
11.78,221.578932,-0.3252216,-0.9759696,-0.5367528,0.0,0.0,0.0,0.0
11.8,221.5188864,-0.2170176,-0.9759696,-0.23012400000000002,0.0,0.0,0.0,0.0
11.82,221.5140096,-0.4337304,-0.7589520000000001,-0.0768096,0.0,0.0,0.0,0.0
11.84,221.4347616,-0.3252216,-0.8674608,-0.15331440000000002,0.0,0.0,0.0,0.0
11.86,221.40336720000002,-0.2709672,-0.8132064000000001,-0.0768096,0.0,0.0,0.0,0.0
11.879999999999999,221.412816,-0.16276320000000002,-0.8132064000000001,-0.0768096,0.0,0.0,0.0,0.0
11.899999999999999,221.2631592,-0.2170176,-0.5422392,0.0,0.0,0.0,0.0,0.0
11.92,221.1619656,-0.1085088,-0.5422392,-0.0768096,0.0,0.0,0.0,0.0
11.94,221.053152,-0.0542544,-0.4879848,0.0,0.0,0.0,0.0,0.0
11.96,221.02572,-0.0542544,-0.4879848,0.0,0.0,0.0,0.0,0.0
11.98,221.01901440000003,-0.1085088,-0.650748,0.0768096,0.0,0.0,0.0,0.0
12.0,220.9946304,-0.1085088,-0.650748,0.0768096,0.0,0.0,0.0,0.0
12.02,220.9900584,0.1085088,-0.4337304,0.0768096,0.0,0.0,0.0,0.0
12.04,220.9659792,-0.0542544,-0.4879848,-0.15331440000000002,0.0,0.0,0.0,0.0
12.059999999999999,220.97542800000002,-0.1085088,-0.5422392,-0.23012400000000002,0.0,0.0,0.0,0.0
12.079999999999998,220.9882296,0.0,-0.650748,-0.4599432,0.0,0.0,0.0,0.0
12.1,220.9303176,0.0,-0.650748,-0.6135624,0.0,0.0,0.0,0.0
12.12,220.89648480000002,0.0,-0.7589520000000001,-0.7668768,0.0,0.0,0.0,0.0
12.14,220.8120552,0.2170176,-0.5422392,-0.6135624,0.0,0.0,0.0,0.0
12.16,220.69592640000002,0.0,-0.650748,-0.6135624,0.0,0.0,0.0,0.0
12.18,220.6755048,-0.8132064000000001,-0.4879848,-0.6900672,0.0,0.0,0.0,0.0
12.2,220.6148496,0.3252216,-0.4337304,-0.5367528,0.0,0.0,0.0,0.0
12.219999999999999,220.5947328,-0.1085088,-0.1085088,-0.6135624,0.0,0.0,0.0,0.0
12.239999999999998,220.4731176,0.16276320000000002,-0.16276320000000002,-1.0735056,0.0,0.0,0.0,0.0
12.26,220.44903840000003,0.2709672,-0.2709672,-1.3036296,0.0,0.0,0.0,0.0
12.28,220.38716399999998,0.3252216,-0.3252216,-0.996696,0.0,0.0,0.0,0.0
12.3,220.2670728,0.2709672,-0.2709672,-1.3036296,0.0,0.0,0.0,0.0
12.32,220.24543200000002,0.4337304,-0.3252216,-1.1500104,0.0,0.0,0.0,0.0
12.34,220.12503600000002,0.7046976,-0.4879848,-1.5334488,0.0,0.0,0.0,0.0
12.36,220.0058592,0.650748,-0.4337304,-1.6102584000000002,0.0,0.0,0.0,0.0
12.379999999999999,219.8391336,0.650748,-0.4337304,-2.223516,0.0,0.0,0.0,0.0
12.399999999999999,219.70593600000004,0.2709672,-0.5964936000000001,-1.6867632000000001,0.0,0.0,0.0,0.0
12.42,219.4941,1.1387328,-0.4879848,-0.7668768,0.0,0.0,0.0,0.0
12.44,219.26336640000002,-0.37947600000000004,0.9217152000000001,-1.7635728,0.0,0.0,0.0,0.0
12.46,219.10822320000003,-4.554321600000001,35.024872800000004,-63.3346968,0.0,0.0,0.0,0.0
12.48,218.9463744,9.108643200000001,10.4098344,-7.2076056,0.0,0.0,0.0,0.0
12.5,218.77782,6.9399912,12.9040128,-11.271504,0.0,0.0,0.0,0.0
12.52,218.60256,6.777228,6.343497600000001,-6.9774816,0.0,0.0,0.0,0.0
12.54,219.390468,0.7589520000000001,-0.4337304,0.7668768,0.0,0.0,0.0,0.0
12.559999999999999,219.36151200000003,0.1085088,-0.3252216,-3.5271456,0.0,0.0,0.0,0.0
12.58,219.4017456,3.2531304000000003,-1.1926824,5.827471200000001,0.0,0.0,0.0,0.0
12.6,219.6126672,7.6989432,-6.0725304,4.4473368,0.0,0.0,0.0,0.0
12.62,219.84736320000002,7.048500000000001,-5.5302912,1.5334488,0.0,0.0,0.0,0.0
12.639999999999999,218.1706584,7.427976000000001,-5.367528,-1.8400776,0.0,0.0,0.0,0.0
12.66,215.8462536,23.584814400000003,-11.76528,5.9807856,0.0,0.0,0.0,0.0
12.68,213.57488400000003,15.8858712,0.37947600000000004,-17.3287944,0.0,0.0,0.0,0.0
12.7,211.78692719999998,10.843564800000001,9.217152,-10.1979984,0.0,0.0,0.0,0.0
12.719999999999999,210.6994008,9.379915200000001,7.753197600000001,-9.2778072,0.0,0.0,0.0,0.0
12.74,209.5417704,8.5121496,16.5366192,-12.651638400000001,0.0,0.0,0.0,0.0
12.76,211.29071280000002,-11.982297599999999,44.187770400000005,-7.2841104,0.0,0.0,0.0,0.0
12.78,213.08842320000002,-0.9217152000000001,6.668719200000001,-11.8847616,0.0,0.0,0.0,0.0
12.799999999999999,214.7831112,-32.9104752,149.26299840000001,-48.91948560000001,0.0,0.0,0.0,0.0
12.82,215.74506000000002,-189.00495600000002,33.0732384,156.9561504,0.0,0.0,0.0,0.0
12.84,215.879172,-36.922557600000005,-51.9952224,32.357263200000006,0.0,0.0,0.0,0.0
12.86,215.7855984,-45.27224880000001,-9.9218496,-3.1437072,0.0,0.0,0.0,0.0
12.879999999999999,215.73835440000002,-26.133247200000003,-8.1326736,-7.9744824,0.0,0.0,0.0,0.0
12.9,215.7048264,-30.524805600000004,-18.488558400000002,3.68046,0.0,0.0,0.0,0.0
12.92,215.5569984,-11.928043200000001,-5.964021600000001,-0.8433816000000001,0.0,0.0,0.0,0.0
12.94,215.12875440000002,-31.8802512,-13.662964800000001,-0.4599432,0.0,0.0,0.0,0.0
12.959999999999999,214.26830400000003,-47.224188000000005,-18.488558400000002,0.6135624,0.0,0.0,0.0,0.0
12.98,213.37249680000002,-39.6877032,-22.6630992,6.5175384,0.0,0.0,0.0,0.0
13.0,212.51570400000003,-40.6094184,-28.3561536,10.274503200000002,0.0,0.0,0.0,0.0
13.02,211.8570312,-41.043148800000004,-20.006462400000004,9.737750400000001,0.0,0.0,0.0,0.0
13.04,211.3026,-34.049208,-17.2413168,3.0672024,0.0,0.0,0.0,0.0
13.059999999999999,210.9618336,-29.386377600000003,-21.7956384,0.4599432,0.0,0.0,0.0,0.0
13.08,210.6372216,-20.9281776,-17.024604,3.6036504000000003,0.0,0.0,0.0,0.0
13.1,210.412584,-22.5006408,-15.343632000000001,4.2172128,0.0,0.0,0.0,0.0
13.12,210.200748,-27.8139144,-19.0304928,7.0542912,0.0,0.0,0.0,0.0
13.139999999999999,209.8401696,-31.6635384,-21.7956384,5.6741568000000004,0.0,0.0,0.0,0.0
13.16,209.475324,-10.952073600000002,-6.8314824000000005,1.1500104,0.0,0.0,0.0,0.0
13.18,209.1802776,-2.4399240000000004,-1.8976848000000002,-0.15331440000000002,0.0,0.0,0.0,0.0
13.2,208.9218072,1.1387328,-0.8132064000000001,-1.7635728,0.0,0.0,0.0,0.0
13.219999999999999,208.76849280000002,1.1387328,-0.7046976,-1.8400776,0.0,0.0,0.0,0.0
13.24,208.6054248,0.7589520000000001,-1.1926824,-1.5334488,0.0,0.0,0.0,0.0
13.26,208.640172,-5.964021600000001,4.120591200000001,-5.2139088000000005,0.0,0.0,0.0,0.0
13.28,208.7547768,0.9217152000000001,4.8252888,0.9201912000000001,0.0,0.0,0.0,0.0
13.299999999999999,208.9477152,-84.09249120000001,-27.054962400000004,57.660540000000005,0.0,0.0,0.0,0.0
13.32,209.0184288,-6.7229735999999995,-9.4338648,-15.4119072,0.0,0.0,0.0,0.0
13.34,208.94436240000002,-3.9035736000000005,-23.856086400000002,8.6645496,0.0,0.0,0.0,0.0
13.36,208.90199520000002,-2.2771608000000003,-10.5183432,2.9135831999999997,0.0,0.0,0.0,0.0
13.379999999999999,208.78769520000003,-8.94588,-1.789176,3.68046,0.0,0.0,0.0,0.0
13.4,208.6831488,0.8674608,-0.1085088,-3.450336,0.0,0.0,0.0,0.0
13.42,208.5987192,-65.06199840000001,6.8314824000000005,-55.896967200000006,0.0,0.0,0.0,0.0
13.44,208.84652160000002,-29.494886400000002,-48.362615999999996,48.3059232,0.0,0.0,0.0,0.0
13.459999999999999,208.9980072,-4.1748456,-8.837676,-2.0702016,0.0,0.0,0.0,0.0
13.48,209.4393576,-6.9399912,-7.048500000000001,2.1470112,0.0,0.0,0.0,0.0
13.5,209.8438272,-12.416028,-6.777228,0.15331440000000002,0.0,0.0,0.0,0.0
13.52,209.90570160000001,-11.0605824,-1.3011912,0.6900672,0.0,0.0,0.0,0.0
13.54,210.0248784,-16.482364800000003,-0.8674608,0.6135624,0.0,0.0,0.0,0.0
13.559999999999999,209.94806880000002,-19.3017648,-3.4698432,2.4536400000000005,0.0,0.0,0.0,0.0
13.58,209.89838640000002,-17.6750472,-10.0846128,0.6900672,0.0,0.0,0.0,0.0
13.6,209.94532560000002,-13.7172192,-12.416028,1.8400776,0.0,0.0,0.0,0.0
13.62,210.084924,-23.3138472,-15.7234128,6.9774816,0.0,0.0,0.0,0.0
13.639999999999999,210.1471032,-34.6453968,-12.199010400000002,5.6741568000000004,0.0,0.0,0.0,0.0
13.66,209.8962528,-42.5071032,-12.361773600000001,1.9168872,0.0,0.0,0.0,0.0
13.68,209.487516,-27.380184,-25.645262400000004,-10.734751200000002,0.0,0.0,0.0,0.0
13.7,208.98581520000002,-18.3800496,-20.6572104,-11.7314472,0.0,0.0,0.0,0.0
13.719999999999999,208.37438640000002,-18.1087776,-9.867595200000002,-10.9645704,0.0,0.0,0.0,0.0
13.74,207.88182960000003,-19.247510400000003,-8.94588,-12.5748288,0.0,0.0,0.0,0.0
13.76,207.4490136,-23.368101600000003,-17.40408,-9.814560000000002,0.0,0.0,0.0,0.0
13.78,207.1567104,-8.241182400000001,-9.3256608,-1.9936968000000002,0.0,0.0,0.0,0.0
13.799999999999999,206.8415472,-4.8252888,-3.5240976,-0.5367528,0.0,0.0,0.0,0.0
13.82,206.44896480000003,-2.7651456,-0.8132064000000001,-2.1470112,0.0,0.0,0.0,0.0
13.84,206.17494960000002,-3.4698432,0.1085088,-2.683764,0.0,0.0,0.0,0.0
13.86,206.0182824,-3.1446216000000002,0.5422392,-3.2205168000000004,0.0,0.0,0.0,0.0
13.879999999999999,205.85247120000002,-15.0726648,3.4698432,-12.7281432,0.0,0.0,0.0,0.0
13.9,205.80217919999998,-10.355580000000002,0.5964936000000001,-3.9870888,0.0,0.0,0.0,0.0
13.92,205.72628400000002,-11.873788800000002,-4.2833544,6.2874144,0.0,0.0,0.0,0.0
13.94,205.65313200000003,-1.3011912,-5.3132736,4.2172128,0.0,0.0,0.0,0.0
13.959999999999999,205.38765120000002,-2.0061936,-10.8978192,-0.4599432,0.0,0.0,0.0,0.0
13.98,205.1514312,-1.2469368,-8.0784192,0.996696,0.0,0.0,0.0,0.0
14.0,204.8569944,-8.4039456,-14.367967200000002,-0.9201912000000001,0.0,0.0,0.0,0.0
14.02,204.7917672,-12.795504,-8.3496912,3.6036504000000003,0.0,0.0,0.0,0.0
14.04,204.8505936,-17.2413168,-4.6628304,1.2268200000000002,0.0,0.0,0.0,0.0
14.059999999999999,205.0730976,-15.614904,-4.988052,-0.3834384,0.0,0.0,0.0,0.0
14.08,205.29804,-15.9401256,-10.626852000000001,-5.060594400000001,0.0,0.0,0.0,0.0
14.1,205.41112080000002,-8.7834216,-12.144756000000001,-5.2139088000000005,0.0,0.0,0.0,0.0
14.12,205.33796880000003,-7.6989432,-12.686995200000002,-5.827471200000001,0.0,0.0,0.0,0.0
14.139999999999999,205.2639024,-7.6446888,-8.94588,-5.6741568000000004,0.0,0.0,0.0,0.0
14.16,204.9798288,-10.247376,-6.018276,-5.9807856,0.0,0.0,0.0,0.0
14.18,204.64028160000004,-14.8016976,-6.668719200000001,-8.741054400000001,0.0,0.0,0.0,0.0
14.2,204.49824480000004,-16.2113976,-9.1628976,-5.2907184,0.0,0.0,0.0,0.0
14.219999999999999,204.39126000000002,-8.024164800000001,-6.2892432000000005,1.9936968000000002,0.0,0.0,0.0,0.0
14.24,204.194664,-7.753197600000001,-7.5364848,0.9201912000000001,0.0,0.0,0.0,0.0
14.26,204.0538464,-10.193121600000001,-9.5423736,0.0768096,0.0,0.0,0.0,0.0
14.28,204.0349488,-14.205204,-9.976104,-5.4440328000000004,0.0,0.0,0.0,0.0
14.299999999999999,204.05598,-16.319601600000002,-9.379915200000001,-0.23012400000000002,0.0,0.0,0.0,0.0
14.32,203.9907528,-8.186928,-4.933797600000001,0.0,0.0,0.0,0.0,0.0
14.34,203.874624,-8.4039456,-5.476036800000001,-1.9168872,0.0,0.0,0.0,0.0
14.36,203.72527200000002,-12.036552,-7.5904344,-1.0735056,0.0,0.0,0.0,0.0
14.379999999999999,203.50063440000002,-13.771473600000002,-5.8555128,0.6135624,0.0,0.0,0.0,0.0
14.4,203.2729488,-16.482364800000003,-6.1807343999999995,2.3768304000000002,0.0,0.0,0.0,0.0
14.42,203.0918976,-21.361908,-6.8314824000000005,5.750661600000001,0.0,0.0,0.0,0.0
14.44,202.90536000000003,-26.4042144,-10.5725976,9.2013024,0.0,0.0,0.0,0.0
