time,baro_altitude,accl_x,accl_y,accl_z,gps_altitude,gyro_roll,gyro_pitch,gyro_yaw
0.0,0.0,-9.5423736,5.096560800000001,1.3801344,0.0,0.0,0.0,0.0
0.020000000000000462,0.07223760000000001,-9.4338648,4.988052,1.4569440000000002,0.0,0.0,0.0,0.0
0.040000000000000036,0.1578864,-9.6508824,4.988052,1.5334488,0.0,0.0,0.0,0.0
0.0600000000000005,0.1414272,-9.5423736,4.988052,1.4569440000000002,0.0,0.0,0.0,0.0
0.08000000000000007,0.1094232,-9.488119200000002,5.0423064,1.4569440000000002,0.0,0.0,0.0,0.0
0.10000000000000053,0.048463200000000005,-9.488119200000002,5.1508152,1.3801344,0.0,0.0,0.0,0.0
0.1200000000000001,0.0978408,-9.5423736,4.988052,1.4569440000000002,0.0,0.0,0.0,0.0
0.14000000000000057,-0.04511040000000001,-9.5423736,4.8795432000000005,1.3801344,0.0,0.0,0.0,0.0
0.16000000000000014,0.0286512,-9.5423736,5.096560800000001,1.3801344,0.0,0.0,0.0,0.0
0.1800000000000006,-0.0627888,-9.5423736,4.988052,1.5334488,0.0,0.0,0.0,0.0
0.20000000000000018,0.0667512,-9.4338648,4.988052,1.3036296,0.0,0.0,0.0,0.0
0.22000000000000064,0.12100560000000002,-9.4338648,4.988052,1.3801344,0.0,0.0,0.0,0.0
0.2400000000000002,0.16306800000000002,-9.4338648,4.988052,1.5334488,0.0,0.0,0.0,0.0
0.2600000000000007,0.227076,-9.5423736,4.988052,1.5334488,0.0,0.0,0.0,0.0
0.28000000000000025,0.17678400000000002,-9.5423736,5.096560800000001,1.3801344,0.0,0.0,0.0,0.0
0.3000000000000007,0.1527048,-9.5423736,5.096560800000001,1.4569440000000002,0.0,0.0,0.0,0.0
0.3200000000000003,0.1819656,-9.596628,4.933797600000001,1.5334488,0.0,0.0,0.0,0.0
0.34000000000000075,0.16946880000000003,-9.5423736,4.988052,1.5334488,0.0,0.0,0.0,0.0
0.3600000000000003,0.2898648,-9.488119200000002,5.0423064,1.4569440000000002,0.0,0.0,0.0,0.0
0.3800000000000008,0.2825496,-9.4338648,4.988052,1.3801344,0.0,0.0,0.0,0.0
0.40000000000000036,0.27310080000000003,-9.488119200000002,5.0423064,1.5334488,0.0,0.0,0.0,0.0
0.41999999999999993,0.16276320000000002,-9.5423736,4.988052,1.6102584000000002,0.0,0.0,0.0,0.0
0.4400000000000004,0.2078736,-9.4338648,4.988052,1.3801344,0.0,0.0,0.0,0.0
0.45999999999999996,0.1271016,-9.488119200000002,5.0423064,1.3801344,0.0,0.0,0.0,0.0
0.4800000000000004,0.0798576,-9.488119200000002,4.933797600000001,1.3801344,0.0,0.0,0.0,0.0
0.5,0.077724,-9.4338648,4.988052,1.3801344,0.0,0.0,0.0,0.0
0.5200000000000005,0.2264664,-9.488119200000002,4.933797600000001,1.3801344,0.0,0.0,0.0,0.0
0.54,0.30998159999999997,-9.488119200000002,5.0423064,1.3801344,0.0,0.0,0.0,0.0
0.5600000000000005,0.3243072,-9.488119200000002,5.1508152,1.3801344,0.0,0.0,0.0,0.0
0.5800000000000001,0.2188464,-9.5423736,4.988052,1.5334488,0.0,0.0,0.0,0.0
0.6000000000000005,0.3633216000000001,-9.488119200000002,4.933797600000001,1.4569440000000002,0.0,0.0,0.0,0.0
0.6200000000000001,0.3456432,-9.5423736,4.988052,1.4569440000000002,0.0,0.0,0.0,0.0
0.6400000000000006,0.3922776,-9.5423736,5.096560800000001,1.3036296,0.0,0.0,0.0,0.0
0.6600000000000001,0.26182320000000003,-9.488119200000002,5.0423064,1.5334488,0.0,0.0,0.0,0.0
0.6800000000000006,0.105156,-9.5423736,4.988052,1.4569440000000002,0.0,0.0,0.0,0.0
0.7000000000000002,0.034747200000000006,-9.5423736,4.988052,1.3801344,0.0,0.0,0.0,0.0
0.7200000000000006,-0.0667512,-9.5423736,5.096560800000001,1.3801344,0.0,0.0,0.0,0.0
0.7400000000000002,-0.00731519999999999,-9.488119200000002,5.0423064,1.4569440000000002,0.0,0.0,0.0,0.0
0.7600000000000007,0.0277368,-9.4338648,4.988052,1.5334488,0.0,0.0,0.0,0.0
0.7800000000000002,0.0280416,-9.596628,4.933797600000001,1.5334488,0.0,0.0,0.0,0.0
0.8000000000000007,0.096012,-9.488119200000002,5.0423064,1.4569440000000002,0.0,0.0,0.0,0.0
0.8200000000000003,0.0707136,-9.4338648,4.988052,1.4569440000000002,0.0,0.0,0.0,0.0
0.8400000000000007,0.1182624,-9.488119200000002,5.0423064,1.5334488,0.0,0.0,0.0,0.0
0.8600000000000003,0.207264,-9.488119200000002,5.0423064,1.4569440000000002,0.0,0.0,0.0,0.0
0.8800000000000008,0.16123920000000003,-9.5423736,4.8795432000000005,1.5334488,0.0,0.0,0.0,0.0
0.9000000000000004,0.22341840000000002,-9.488119200000002,4.933797600000001,1.3801344,0.0,0.0,0.0,0.0
0.9200000000000004,0.1374648,-9.488119200000002,5.0423064,1.3801344,0.0,0.0,0.0,0.0
0.9400000000000004,0.07040880000000001,-9.596628,4.933797600000001,1.4569440000000002,0.0,0.0,0.0,0.0
0.9600000000000004,-0.032004,-9.596628,4.933797600000001,1.4569440000000002,0.0,0.0,0.0,0.0
0.9800000000000004,-0.010667999999999993,-9.596628,4.933797600000001,1.3801344,0.0,0.0,0.0,0.0
1.0000000000000004,0.041148000000000004,-9.488119200000002,5.0423064,1.3801344,0.0,0.0,0.0,0.0
1.0200000000000005,0.002133600000000002,-9.488119200000002,5.0423064,1.4569440000000002,0.0,0.0,0.0,0.0
1.0400000000000005,-0.010972799999999993,-9.5423736,4.988052,1.3801344,0.0,0.0,0.0,0.0
1.0600000000000005,0.0627888,-9.488119200000002,5.0423064,1.5334488,0.0,0.0,0.0,0.0
1.0800000000000005,0.0402336,-9.488119200000002,5.0423064,1.5334488,0.0,0.0,0.0,0.0
1.1000000000000005,-0.04297680000000001,-9.488119200000002,5.0423064,1.4569440000000002,0.0,0.0,0.0,0.0
1.1200000000000006,-0.041148000000000004,-9.5423736,5.096560800000001,1.5334488,0.0,0.0,0.0,0.0
1.1400000000000006,-0.23713440000000002,-9.596628,5.0423064,1.4569440000000002,0.0,0.0,0.0,0.0
1.1600000000000001,-0.2718816,-9.488119200000002,5.0423064,1.5334488,0.0,0.0,0.0,0.0
1.1800000000000002,-0.111252,-9.488119200000002,5.0423064,1.4569440000000002,0.0,0.0,0.0,0.0
1.2000000000000002,0.005791200000000005,-9.488119200000002,5.0423064,1.3801344,0.0,0.0,0.0,0.0
1.2200000000000002,0.0313944,-9.488119200000002,5.0423064,1.5334488,0.0,0.0,0.0,0.0
1.2400000000000002,0.1484376,-9.488119200000002,5.0423064,1.4569440000000002,0.0,0.0,0.0,0.0
1.2600000000000002,0.05852160000000001,-9.596628,5.0423064,1.4569440000000002,0.0,0.0,0.0,0.0
1.2800000000000002,0.10027920000000001,-9.488119200000002,5.0423064,1.3801344,0.0,0.0,0.0,0.0
1.3000000000000003,0.21244560000000004,-9.596628,5.0423064,1.4569440000000002,0.0,0.0,0.0,0.0
1.3200000000000003,0.015240000000000005,-9.596628,5.0423064,1.5334488,0.0,0.0,0.0,0.0
1.3400000000000003,0.1063752,-9.488119200000002,4.933797600000001,1.4569440000000002,0.0,0.0,0.0,0.0
1.3600000000000003,0.1408176,-9.4338648,4.988052,1.3801344,0.0,0.0,0.0,0.0
1.3800000000000003,0.1511808,-9.4338648,4.988052,1.3801344,0.0,0.0,0.0,0.0
1.4000000000000004,0.1563624,-9.5423736,4.988052,1.5334488,0.0,0.0,0.0,0.0
1.4200000000000004,0.2551176,-9.5423736,4.8795432000000005,1.5334488,0.0,0.0,0.0,0.0
1.4400000000000004,0.3294888,-9.488119200000002,5.0423064,1.4569440000000002,0.0,0.0,0.0,0.0
1.4600000000000004,0.284988,-9.5423736,5.096560800000001,1.3801344,0.0,0.0,0.0,0.0
1.4800000000000004,0.260604,-9.5423736,5.096560800000001,1.4569440000000002,0.0,0.0,0.0,0.0
1.5000000000000004,0.17190720000000004,-9.5423736,4.8795432000000005,1.5334488,0.0,0.0,0.0,0.0
1.5200000000000005,-0.0161544,-9.488119200000002,4.933797600000001,1.5334488,0.0,0.0,0.0,0.0
1.5400000000000005,0.1499616,-9.5423736,5.096560800000001,1.4569440000000002,0.0,0.0,0.0,0.0
1.5600000000000005,0.1335024,-9.488119200000002,5.1508152,1.4569440000000002,0.0,0.0,0.0,0.0
1.5800000000000005,0.004572000000000004,-9.488119200000002,5.0423064,1.5334488,0.0,0.0,0.0,0.0
1.6000000000000005,-0.04480560000000001,-9.488119200000002,4.933797600000001,1.4569440000000002,0.0,0.0,0.0,0.0
1.6200000000000006,0.0536448,-9.5423736,5.096560800000001,1.3801344,0.0,0.0,0.0,0.0
1.6400000000000006,0.03505200000000001,-9.5423736,5.205069600000001,1.3801344,0.0,0.0,0.0,0.0
1.6600000000000001,0.0384048,-9.488119200000002,5.0423064,1.3801344,0.0,0.0,0.0,0.0
1.6800000000000002,0.0795528,-9.5423736,4.8795432000000005,1.5334488,0.0,0.0,0.0,0.0
1.7000000000000002,0.1770888,-9.5423736,4.988052,1.4569440000000002,0.0,0.0,0.0,0.0
1.7200000000000002,0.18836640000000002,-9.4338648,4.988052,1.4569440000000002,0.0,0.0,0.0,0.0
1.7400000000000002,0.1115568,-9.5423736,5.096560800000001,1.3036296,0.0,0.0,0.0,0.0
1.7600000000000002,0.2999232,-9.5423736,5.096560800000001,1.3801344,0.0,0.0,0.0,0.0
1.7800000000000002,0.24871680000000004,-9.596628,4.933797600000001,1.5334488,0.0,0.0,0.0,0.0
1.8000000000000003,0.16885920000000001,-9.488119200000002,4.933797600000001,1.4569440000000002,0.0,0.0,0.0,0.0
1.8200000000000003,0.32156400000000007,-9.379915200000001,5.0423064,1.3801344,0.0,0.0,0.0,0.0
1.8400000000000003,0.2715768,-9.379915200000001,4.933797600000001,1.3801344,0.0,0.0,0.0,0.0
1.8600000000000003,0.2127504,-9.5423736,4.988052,1.3801344,0.0,0.0,0.0,0.0
1.8800000000000003,0.18044160000000004,-9.5423736,4.8795432000000005,1.3801344,0.0,0.0,0.0,0.0
1.9000000000000004,0.17190720000000004,-9.488119200000002,5.0423064,1.3036296,0.0,0.0,0.0,0.0
1.9200000000000004,0.2968752,-9.5423736,5.096560800000001,1.5334488,0.0,0.0,0.0,0.0
1.9400000000000004,0.1947672,-9.5423736,4.988052,1.3801344,0.0,0.0,0.0,0.0
1.9600000000000004,0.16459200000000002,-9.5423736,4.8795432000000005,1.3801344,0.0,0.0,0.0,0.0
1.9800000000000004,0.0911352,-9.488119200000002,5.0423064,1.4569440000000002,0.0,0.0,0.0,0.0
2.0000000000000004,0.10088880000000001,-9.488119200000002,5.0423064,1.4569440000000002,0.0,0.0,0.0,0.0
2.0200000000000005,0.1606296,-9.488119200000002,5.0423064,1.5334488,0.0,0.0,0.0,0.0
2.0400000000000005,-0.0743712,-9.5423736,4.988052,1.5334488,0.0,0.0,0.0,0.0
2.0600000000000005,-0.17038319999999998,-9.596628,5.0423064,1.4569440000000002,0.0,0.0,0.0,0.0
2.0800000000000005,-0.2252472,-9.5423736,5.096560800000001,1.4569440000000002,0.0,0.0,0.0,0.0
2.1000000000000005,-0.27432,-9.488119200000002,5.0423064,1.4569440000000002,0.0,0.0,0.0,0.0
2.1200000000000006,-0.073152,-9.488119200000002,5.0423064,1.4569440000000002,0.0,0.0,0.0,0.0
2.1400000000000006,0.0082296,-9.5423736,5.096560800000001,1.5334488,0.0,0.0,0.0,0.0
2.16,0.009144,-9.488119200000002,5.0423064,1.4569440000000002,0.0,0.0,0.0,0.0
2.18,0.0268224,-9.4338648,4.988052,1.3801344,0.0,0.0,0.0,0.0
2.2,-0.1581912,-9.4338648,4.988052,1.3801344,0.0,0.0,0.0,0.0
2.22,-0.0185928,-9.596628,5.1508152,1.3801344,0.0,0.0,0.0,0.0
2.24,-0.15605760000000002,-9.488119200000002,4.933797600000001,1.3801344,0.0,0.0,0.0,0.0
2.2600000000000002,0.10241280000000001,-9.5423736,5.096560800000001,1.4569440000000002,0.0,0.0,0.0,0.0
2.2800000000000002,0.10668,-9.4338648,4.988052,1.3801344,0.0,0.0,0.0,0.0
2.3000000000000003,0.12496800000000001,-9.488119200000002,4.933797600000001,1.5334488,0.0,0.0,0.0,0.0
2.3200000000000003,0.10241280000000001,-9.488119200000002,5.0423064,1.5334488,0.0,0.0,0.0,0.0
2.3400000000000003,0.031089600000000005,-9.5423736,4.988052,1.4569440000000002,0.0,0.0,0.0,0.0
2.3600000000000003,0.2365248,-9.488119200000002,5.0423064,1.4569440000000002,0.0,0.0,0.0,0.0
2.3800000000000003,0.2292096,-9.488119200000002,5.0423064,1.3801344,0.0,0.0,0.0,0.0
2.4000000000000004,0.17007840000000002,-9.5423736,4.988052,1.4569440000000002,0.0,0.0,0.0,0.0
2.4200000000000004,0.1353312,-9.5423736,4.988052,1.4569440000000002,0.0,0.0,0.0,0.0
2.4400000000000004,-0.026822399999999993,-9.488119200000002,5.0423064,1.4569440000000002,0.0,0.0,0.0,0.0
2.4600000000000004,0.0765048,-9.379915200000001,5.0423064,1.6102584000000002,0.0,0.0,0.0,0.0
2.4800000000000004,0.12466320000000002,-9.488119200000002,5.0423064,1.5334488,0.0,0.0,0.0,0.0
2.5000000000000004,0.014020800000000005,-9.488119200000002,4.933797600000001,1.5334488,0.0,0.0,0.0,0.0
2.5200000000000005,0.0085344,-9.596628,4.933797600000001,1.4569440000000002,0.0,0.0,0.0,0.0
2.5400000000000005,0.23682960000000003,-9.488119200000002,5.0423064,1.3801344,0.0,0.0,0.0,0.0
2.5600000000000005,0.08473440000000002,-9.488119200000002,5.0423064,1.4569440000000002,0.0,0.0,0.0,0.0
2.5800000000000005,-0.10271759999999999,-9.488119200000002,4.933797600000001,1.4569440000000002,0.0,0.0,0.0,0.0
2.6000000000000005,-0.2145792,-9.596628,4.933797600000001,1.3801344,0.0,0.0,0.0,0.0
2.6200000000000006,-0.033832799999999996,-9.5423736,4.988052,1.3801344,0.0,0.0,0.0,0.0
2.6400000000000006,-0.184404,-9.488119200000002,5.1508152,1.2268200000000002,0.0,0.0,0.0,0.0
2.66,-0.06553199999999999,-9.5423736,5.096560800000001,1.3801344,0.0,0.0,0.0,0.0
2.68,0.0798576,-9.4338648,4.988052,1.3801344,0.0,0.0,0.0,0.0
2.7,0.2630424,-9.4338648,4.988052,1.4569440000000002,0.0,0.0,0.0,0.0
2.72,0.28651200000000004,-9.4338648,4.988052,1.3801344,0.0,0.0,0.0,0.0
2.74,0.185928,-9.488119200000002,5.0423064,1.3801344,0.0,0.0,0.0,0.0
2.7600000000000002,0.24749760000000004,-9.488119200000002,5.0423064,1.3801344,0.0,0.0,0.0,0.0
2.7800000000000002,0.1444752,-9.488119200000002,4.933797600000001,1.5334488,0.0,0.0,0.0,0.0
2.8000000000000003,0.060350400000000005,-9.4338648,4.988052,1.4569440000000002,0.0,0.0,0.0,0.0
2.8200000000000003,0.04267200000000001,-9.4338648,4.988052,1.5334488,0.0,0.0,0.0,0.0
2.8400000000000003,0.16123920000000003,-9.488119200000002,5.0423064,1.4569440000000002,0.0,0.0,0.0,0.0
2.8600000000000003,0.0405384,-9.488119200000002,4.933797600000001,1.5334488,0.0,0.0,0.0,0.0
2.8800000000000003,0.0268224,-9.5423736,4.988052,1.5334488,0.0,0.0,0.0,0.0
2.9000000000000004,0.1353312,-9.488119200000002,5.0423064,1.4569440000000002,0.0,0.0,0.0,0.0
2.9200000000000004,0.16916399999999998,-9.4338648,4.988052,1.4569440000000002,0.0,0.0,0.0,0.0
2.9400000000000004,0.3441192,-9.4338648,4.988052,1.5334488,0.0,0.0,0.0,0.0
2.9600000000000004,0.3133344,-9.488119200000002,4.933797600000001,1.5334488,0.0,0.0,0.0,0.0
2.9800000000000004,0.397764,-9.488119200000002,4.933797600000001,1.3801344,0.0,0.0,0.0,0.0
3.0000000000000004,0.263652,-9.488119200000002,5.0423064,1.4569440000000002,0.0,0.0,0.0,0.0
3.0200000000000005,0.2535936,-9.488119200000002,5.0423064,1.3801344,0.0,0.0,0.0,0.0
3.04,0.24140160000000002,-9.488119200000002,4.933797600000001,1.5334488,0.0,0.0,0.0,0.0
3.0600000000000005,0.030480000000000004,-9.488119200000002,4.933797600000001,1.5334488,0.0,0.0,0.0,0.0
3.08,-0.0027432000000000025,-9.596628,5.0423064,1.3801344,0.0,0.0,0.0,0.0
3.1000000000000005,-0.08900160000000001,-9.5423736,5.096560800000001,1.4569440000000002,0.0,0.0,0.0,0.0
3.12,-0.021945600000000003,-9.488119200000002,5.0423064,1.5334488,0.0,0.0,0.0,0.0
3.1400000000000006,0.056388,-9.488119200000002,5.0423064,1.4569440000000002,0.0,0.0,0.0,0.0
3.16,-0.012191999999999995,-9.488119200000002,5.0423064,1.4569440000000002,0.0,0.0,0.0,0.0
3.1800000000000006,0.0027432000000000025,-9.488119200000002,5.0423064,1.4569440000000002,0.0,0.0,0.0,0.0
3.2,0.0359664,-9.488119200000002,4.933797600000001,1.3801344,0.0,0.0,0.0,0.0
3.2200000000000006,0.19659600000000002,-9.488119200000002,5.0423064,1.4569440000000002,0.0,0.0,0.0,0.0
3.24,0.1892808,-9.596628,5.0423064,1.5334488,0.0,0.0,0.0,0.0
3.2600000000000007,0.1319784,-9.5423736,4.988052,1.4569440000000002,0.0,0.0,0.0,0.0
3.2800000000000002,0.10332720000000001,-9.488119200000002,5.0423064,1.4569440000000002,0.0,0.0,0.0,0.0
3.3000000000000003,0.0804672,-9.488119200000002,5.0423064,1.4569440000000002,0.0,0.0,0.0,0.0
3.3200000000000003,-0.0691896,-9.5423736,4.988052,1.3801344,0.0,0.0,0.0,0.0
3.3400000000000003,-0.0536448,-9.4338648,4.988052,1.4569440000000002,0.0,0.0,0.0,0.0
3.3600000000000003,0.12771120000000002,-9.4338648,4.988052,1.3801344,0.0,0.0,0.0,0.0
3.3800000000000003,0.056388,-9.488119200000002,5.0423064,1.5334488,0.0,0.0,0.0,0.0
3.4000000000000004,0.1472184,-9.488119200000002,5.0423064,1.3801344,0.0,0.0,0.0,0.0
3.4200000000000004,0.13624560000000002,-9.5423736,4.8795432000000005,1.4569440000000002,0.0,0.0,0.0,0.0
3.4400000000000004,0.19385280000000002,-9.5423736,4.988052,1.3801344,0.0,0.0,0.0,0.0
3.4600000000000004,0.1374648,-9.5423736,4.988052,1.4569440000000002,0.0,0.0,0.0,0.0
3.4800000000000004,0.1908048,-9.5423736,4.988052,1.5334488,0.0,0.0,0.0,0.0
3.5000000000000004,0.0972312,-9.5423736,4.8795432000000005,1.6102584000000002,0.0,0.0,0.0,0.0
3.5200000000000005,0.187452,-9.488119200000002,4.933797600000001,1.5334488,0.0,0.0,0.0,0.0
3.54,0.2078736,-9.4338648,4.988052,1.3801344,0.0,0.0,0.0,0.0
3.5600000000000005,0.23957280000000003,-9.488119200000002,5.0423064,1.5334488,0.0,0.0,0.0,0.0
3.58,0.1283208,-9.488119200000002,5.0423064,1.4569440000000002,0.0,0.0,0.0,0.0
3.6000000000000005,0.1886712,-9.4338648,4.988052,1.6102584000000002,0.0,0.0,0.0,0.0
3.62,-0.06370320000000002,-9.488119200000002,5.0423064,1.5334488,0.0,0.0,0.0,0.0
3.6400000000000006,0.0539496,-9.488119200000002,5.0423064,1.4569440000000002,0.0,0.0,0.0,0.0
3.66,-0.1133856,-9.4338648,4.988052,1.3801344,0.0,0.0,0.0,0.0
3.6800000000000006,-0.09418319999999998,-9.5423736,5.096560800000001,1.3801344,0.0,0.0,0.0,0.0
3.7,-0.1399032,-9.488119200000002,5.0423064,1.5334488,0.0,0.0,0.0,0.0
3.7200000000000006,-0.17068799999999998,-9.488119200000002,5.0423064,1.3801344,0.0,0.0,0.0,0.0
3.74,-0.1078992,-9.488119200000002,5.0423064,1.3801344,0.0,0.0,0.0,0.0
3.7600000000000007,-0.019507200000000002,-9.596628,4.933797600000001,1.4569440000000002,0.0,0.0,0.0,0.0
3.7800000000000002,0.03505200000000001,-9.488119200000002,5.0423064,1.5334488,0.0,0.0,0.0,0.0
3.8000000000000003,0.062484000000000005,-9.5423736,4.988052,1.3801344,0.0,0.0,0.0,0.0
3.8200000000000003,-0.014020799999999996,-9.488119200000002,5.0423064,1.4569440000000002,0.0,0.0,0.0,0.0
3.8400000000000003,0.2228088,-9.4338648,4.988052,1.5334488,0.0,0.0,0.0,0.0
3.8600000000000003,0.07589520000000001,-9.5423736,4.988052,1.4569440000000002,0.0,0.0,0.0,0.0
3.8800000000000003,0.18836640000000002,-9.488119200000002,4.933797600000001,1.5334488,0.0,0.0,0.0,0.0
3.9000000000000004,0.2243328,-9.5423736,5.096560800000001,1.4569440000000002,0.0,0.0,0.0,0.0
3.9200000000000004,0.216408,-9.488119200000002,5.0423064,1.4569440000000002,0.0,0.0,0.0,0.0
3.9400000000000004,0.2715768,-9.488119200000002,5.0423064,1.5334488,0.0,0.0,0.0,0.0
3.9600000000000004,0.11308080000000001,-9.488119200000002,5.0423064,1.5334488,0.0,0.0,0.0,0.0
3.9800000000000004,0.216408,-9.5423736,4.988052,1.5334488,0.0,0.0,0.0,0.0
4.0,0.08016240000000001,-9.488119200000002,5.0423064,1.4569440000000002,0.0,0.0,0.0,0.0
4.0200000000000005,0.0691896,-9.4338648,4.988052,1.4569440000000002,0.0,0.0,0.0,0.0
4.04,0.06096000000000001,-9.5423736,5.096560800000001,1.6102584000000002,0.0,0.0,0.0,0.0
4.0600000000000005,0.039319200000000006,-9.4338648,4.8795432000000005,1.5334488,0.0,0.0,0.0,0.0
4.08,-0.060350400000000005,-9.596628,4.933797600000001,1.3036296,0.0,0.0,0.0,0.0
4.1000000000000005,-0.09997439999999999,-9.488119200000002,4.933797600000001,1.4569440000000002,0.0,0.0,0.0,0.0
4.12,-0.029565599999999994,-9.5423736,5.096560800000001,1.3801344,0.0,0.0,0.0,0.0
4.140000000000001,-0.0539496,-9.4338648,4.8795432000000005,1.5334488,0.0,0.0,0.0,0.0
4.16,-0.08412480000000001,-9.4338648,4.988052,1.3801344,0.0,0.0,0.0,0.0
4.180000000000001,-0.08869680000000002,-9.4338648,5.096560800000001,1.3801344,0.0,0.0,0.0,0.0
4.2,-0.1728216,-9.6508824,5.096560800000001,1.5334488,0.0,0.0,0.0,0.0
4.220000000000001,-0.16916399999999998,-9.5423736,5.096560800000001,1.3801344,0.0,0.0,0.0,0.0
4.24,-0.06217920000000001,-9.596628,5.0423064,1.4569440000000002,0.0,0.0,0.0,0.0
4.260000000000001,0.07528560000000001,-9.4338648,4.988052,1.3036296,0.0,0.0,0.0,0.0
4.28,0.23317200000000002,-9.596628,5.1508152,1.4569440000000002,0.0,0.0,0.0,0.0
4.300000000000001,0.40386,-9.4338648,4.988052,1.5334488,0.0,0.0,0.0,0.0
4.32,0.4136136,-9.5423736,4.8795432000000005,1.4569440000000002,0.0,0.0,0.0,0.0
4.34,0.2959608,-9.488119200000002,4.933797600000001,1.4569440000000002,0.0,0.0,0.0,0.0
4.36,0.14782800000000001,-9.4338648,5.096560800000001,1.3036296,0.0,0.0,0.0,0.0
4.380000000000001,0.17465039999999998,-9.4338648,4.988052,1.3801344,0.0,0.0,0.0,0.0
4.4,0.2115312,-9.488119200000002,5.0423064,1.4569440000000002,0.0,0.0,0.0,0.0
4.42,0.21976080000000003,-9.6508824,4.988052,1.4569440000000002,0.0,0.0,0.0,0.0
4.44,0.12405360000000001,-9.6508824,5.205069600000001,1.3801344,0.0,0.0,0.0,0.0
4.46,-0.08260080000000002,-9.488119200000002,5.0423064,1.6102584000000002,0.0,0.0,0.0,0.0
4.48,0.102108,-9.596628,4.933797600000001,1.5334488,0.0,0.0,0.0,0.0
4.5,0.23469600000000002,-9.5423736,4.988052,1.5334488,0.0,0.0,0.0,0.0
4.5200000000000005,0.156972,-9.4338648,4.988052,1.5334488,0.0,0.0,0.0,0.0
4.54,0.1581912,-9.3256608,4.8795432000000005,1.4569440000000002,0.0,0.0,0.0,0.0
4.5600000000000005,0.04511040000000001,-9.7051368,4.933797600000001,1.5334488,0.0,0.0,0.0,0.0
4.58,0.23865840000000002,-9.596628,4.8252888,1.5334488,0.0,0.0,0.0,0.0
4.6000000000000005,0.1597152,-9.488119200000002,5.0423064,1.4569440000000002,0.0,0.0,0.0,0.0
4.62,0.27828240000000004,-9.488119200000002,5.0423064,1.4569440000000002,0.0,0.0,0.0,0.0
4.640000000000001,0.2365248,-9.379915200000001,5.0423064,1.3036296,0.0,0.0,0.0,0.0
4.66,0.2874264,-9.7593912,4.7713392,1.5334488,0.0,0.0,0.0,0.0
4.680000000000001,0.17373600000000003,-9.5423736,5.096560800000001,1.3801344,0.0,0.0,0.0,0.0
4.7,0.132588,-9.4338648,4.8795432000000005,1.4569440000000002,0.0,0.0,0.0,0.0
4.720000000000001,0.21854160000000003,-9.4338648,4.8795432000000005,1.4569440000000002,0.0,0.0,0.0,0.0
4.74,0.32064960000000003,-9.5423736,5.096560800000001,1.7635728,0.0,0.0,0.0,0.0
4.760000000000001,0.3313176,-9.5423736,5.096560800000001,1.3801344,0.0,0.0,0.0,0.0
4.78,0.4684776,-9.596628,4.8252888,1.3801344,0.0,0.0,0.0,0.0
4.800000000000001,0.32308800000000004,-9.1628976,4.8252888,1.6102584000000002,0.0,0.0,0.0,0.0
4.82,0.23804880000000003,-9.596628,4.7170848,1.3036296,0.0,0.0,0.0,0.0
4.840000000000001,0.0725424,-9.867595200000002,5.205069600000001,1.3801344,0.0,0.0,0.0,0.0
4.86,0.1411224,-9.7051368,5.0423064,1.3801344,0.0,0.0,0.0,0.0
4.880000000000001,-0.0170688,-9.6508824,4.988052,1.1500104,0.0,0.0,0.0,0.0
4.9,-0.003962400000000004,-9.9218496,5.0423064,1.4569440000000002,0.0,0.0,0.0,0.0
4.92,0.2593848,-9.6508824,5.205069600000001,1.8400776,0.0,0.0,0.0,0.0
4.94,0.0381,-10.247376,4.5000672,1.6102584000000002,0.0,0.0,0.0,0.0
4.96,-0.033223199999999994,-7.6446888,2.0061936,-1.9168872,0.0,0.0,0.0,0.0
4.98,0.04693920000000001,-33.2899512,4.554321600000001,4.907280000000001,0.0,0.0,0.0,0.0
5.0,0.2959608,-66.79692,48.254412,34.9645224,0.0,0.0,0.0,0.0
5.0200000000000005,0.34259520000000004,-63.92326560000001,57.3088008,-14.491716000000002,0.0,0.0,0.0,0.0
5.04,0.39624000000000004,-90.7072608,41.8024056,-100.2926112,0.0,0.0,0.0,0.0
5.0600000000000005,0.45689520000000006,-114.4548384,67.17639600000001,25.6864104,0.0,0.0,0.0,0.0
5.08,0.5245608,-80.9478696,75.74310480000001,26.223163200000002,0.0,0.0,0.0,0.0
5.1000000000000005,17.4278544,-94.2313584,62.242598400000006,6.594043200000001,0.0,0.0,0.0,0.0
5.12,21.713342400000002,-115.10558639999999,36.3806232,65.5582128,0.0,0.0,0.0,0.0
5.140000000000001,33.8760816,-97.91821920000001,46.51918560000001,-3.0672024,0.0,0.0,0.0,0.0
5.16,42.35531280000001,-103.99074960000002,6.9399912,-0.3834384,0.0,0.0,0.0,0.0
5.180000000000001,50.470612800000005,-101.06284080000002,69.94154160000001,10.121188800000002,0.0,0.0,0.0,0.0
5.2,59.306155200000006,-122.64176640000001,78.61645440000001,23.539704000000004,0.0,0.0,0.0,0.0
5.220000000000001,68.86194,-117.1657296,64.79072640000001,14.951964,0.0,0.0,0.0,0.0
5.24,79.13796719999999,-109.6834992,69.345048,16.8688512,0.0,0.0,0.0,0.0
5.260000000000001,76.1149608,-115.8645384,60.1282008,14.491716000000002,0.0,0.0,0.0,0.0
5.28,72.32202960000001,-109.3582776,69.4535568,11.5781328,0.0,0.0,0.0,0.0
5.300000000000001,71.077836,-113.2079016,62.8933464,12.5748288,0.0,0.0,0.0,0.0
5.32,69.32919840000001,-106.593132,71.4597504,11.4248184,0.0,0.0,0.0,0.0
5.340000000000001,67.01210880000001,-110.822232,64.51975920000001,10.811256,0.0,0.0,0.0,0.0
5.36,64.6361928,-106.21365600000001,69.56206560000001,10.5814368,0.0,0.0,0.0,0.0
5.380000000000001,62.168532000000006,-108.92454719999999,66.74266560000001,9.4311216,0.0,0.0,0.0,0.0
5.4,59.643264,-104.6411928,70.0500504,9.2013024,0.0,0.0,0.0,0.0
5.42,57.08385840000001,-103.44851040000002,72.43572,7.8976728000000005,0.0,0.0,0.0,0.0
5.44,54.816756000000005,-102.90627120000002,74.4958632,8.050987200000002,0.0,0.0,0.0,0.0
5.460000000000001,52.9733256,-99.436428,80.02615440000001,7.6675488,0.0,0.0,0.0,0.0
5.48,51.08082240000001,-95.42434560000001,78.0742152,8.357616,0.0,0.0,0.0,0.0
5.5,49.053902400000005,-89.3518152,82.8455544,10.5814368,0.0,0.0,0.0,0.0
5.5200000000000005,46.88586000000001,-89.83980000000001,79.6466784,12.2682,0.0,0.0,0.0,0.0
5.54,45.10034160000001,-86.9661456,84.36376320000001,16.7920416,0.0,0.0,0.0,0.0
5.5600000000000005,43.4379624,-84.5262216,77.9117568,15.948660000000002,0.0,0.0,0.0,0.0
5.58,41.433292800000004,-78.3997416,76.8815328,16.178784,0.0,0.0,0.0,0.0
5.6000000000000005,39.551152800000004,-78.3997416,78.3997416,17.482108800000002,0.0,0.0,0.0,0.0
5.62,37.8464064,-72.8694504,76.99004160000001,16.255288800000002,0.0,0.0,0.0,0.0
5.640000000000001,35.8731312,-73.2489264,74.224896,13.49502,0.0,0.0,0.0,0.0
5.66,33.773973600000005,-69.6705744,77.803248,17.3287944,0.0,0.0,0.0,0.0
5.680000000000001,32.1481704,-67.2306504,75.6888504,14.338401600000001,0.0,0.0,0.0,0.0
5.7,30.2096424,-65.92945920000001,83.062572,21.622816800000003,0.0,0.0,0.0,0.0
5.720000000000001,28.338170400000003,-54.4351464,82.411824,23.3863896,0.0,0.0,0.0,0.0
5.74,26.114044800000002,-54.218433600000004,85.231224,30.7473096,0.0,0.0,0.0,0.0
5.760000000000001,23.7914688,-48.90485520000001,87.83360640000001,32.5873872,0.0,0.0,0.0,0.0
5.78,21.415857600000002,-44.8927728,85.5564456,34.6575888,0.0,0.0,0.0,0.0
5.800000000000001,17.9643024,-40.067179200000005,94.61083440000002,35.0410272,0.0,0.0,0.0,0.0
5.82,14.182039200000002,-37.7360688,91.3037544,50.1463056,0.0,0.0,0.0,0.0
5.84,9.7788984,-31.284062400000003,84.5262216,46.389036,0.0,0.0,0.0,0.0
5.86,4.9886616,-34.1031576,83.11652160000001,34.6575888,0.0,0.0,0.0,0.0
5.880000000000001,-0.3663696,-21.253704000000003,84.6889848,83.8837032,0.0,0.0,0.0,0.0
5.9,-6.279489600000001,-22.7173536,92.22546960000001,71.30887440000001,0.0,0.0,0.0,0.0
5.92,-12.9104136,-23.964595199999998,93.14688000000001,33.2774544,0.0,0.0,0.0,0.0
5.94,-20.3021184,-12.2532648,89.8940544,61.724438400000004,0.0,0.0,0.0,0.0
5.960000000000001,-27.7739856,-6.2892432000000005,83.821524,44.0122056,0.0,0.0,0.0,0.0
5.98,-34.57529280000001,-1.8434304000000001,104.09925840000001,25.1496576,0.0,0.0,0.0,0.0
6.0,-40.9535376,-0.650748,101.8220976,48.3059232,0.0,0.0,0.0,0.0
6.0200000000000005,-46.665794399999996,5.964021600000001,118.9549056,22.4661984,0.0,0.0,0.0,0.0
6.04,-51.226821599999994,15.3978864,127.196088,-2.5304496,0.0,0.0,0.0,0.0
6.0600000000000005,-54.436365599999995,2.548128,101.11709520000001,-25.303276800000003,0.0,0.0,0.0,0.0
6.08,-55.9274472,7.427976000000001,92.87591280000001,-11.654637600000001,0.0,0.0,0.0,0.0
6.1000000000000005,-57.462419999999995,16.482364800000003,142.160244,66.93834720000001,0.0,0.0,0.0,0.0
6.12,-60.1266768,46.1397096,141.8892768,110.95055280000001,0.0,0.0,0.0,0.0
6.140000000000001,-64.3393176,-2.1143976,76.6105656,150.8220504,0.0,0.0,0.0,0.0
6.16,-69.0871872,-21.3076536,34.2116664,139.9342896,0.0,0.0,0.0,0.0
6.180000000000001,-70.42221119999999,-53.9471616,26.9464536,145.8382656,0.0,0.0,0.0,0.0
6.2,-68.63394960000001,-72.43572,-22.9886256,86.107524,0.0,0.0,0.0,0.0
6.220000000000001,-71.8096608,-49.447094400000005,7.915960800000001,96.3052176,0.0,0.0,0.0,0.0
6.24,-74.87411999999999,-36.922557600000005,-102.96052560000001,140.854176,0.0,0.0,0.0,0.0
6.260000000000001,-56.1682392,-64.8449808,-51.9412728,42.5552616,0.0,0.0,0.0,0.0
6.28,-37.4937528,-15.8858712,-157.8294024,23.3863896,0.0,0.0,0.0,0.0
6.300000000000001,-33.4292448,-28.8441384,-76.55631120000001,-20.165872800000002,0.0,0.0,0.0,0.0
6.32,-18.389193600000002,-28.247644800000003,-32.8019664,-29.3668704,0.0,0.0,0.0,0.0
6.34,-5.229148800000001,-11.440058400000002,-6.885736800000001,-3.2205168000000004,0.0,0.0,0.0,0.0
6.36,6.5876424,-24.3983256,-19.193256,-14.2618968,0.0,0.0,0.0,0.0
6.380000000000001,17.3016672,-25.1030232,-1.4639544,5.2907184,0.0,0.0,0.0,0.0
6.4,26.975104799999997,-30.416601600000003,-10.5725976,46.0824072,0.0,0.0,0.0,0.0
6.42,35.3936808,-31.825996800000002,-35.187636,35.1943416,0.0,0.0,0.0,0.0
6.44,42.37207680000001,-33.5612232,-46.248218400000006,27.910231200000002,0.0,0.0,0.0,0.0
6.460000000000001,47.92949520000001,-24.560784,-82.7913,-10.888065600000001,0.0,0.0,0.0,0.0
6.48,52.20492480000001,-36.2721144,-53.2967184,5.4440328000000004,0.0,0.0,0.0,0.0
6.5,54.48391440000001,-26.6754864,-55.5196248,-30.593690400000003,0.0,0.0,0.0,0.0
6.5200000000000005,55.28340480000001,-19.572732000000002,-38.332257600000005,-10.9645704,0.0,0.0,0.0,0.0
6.54,55.43153760000001,-18.542508,-26.6754864,-5.597347200000001,0.0,0.0,0.0,0.0
6.5600000000000005,55.839055200000004,-12.416028,-30.199584,2.7602688,0.0,0.0,0.0,0.0
6.58,56.5080912,-17.9463192,-18.488558400000002,22.6195128,0.0,0.0,0.0,0.0
6.6000000000000005,57.694677600000006,-20.440192800000002,-17.2955712,37.417857600000005,0.0,0.0,0.0,0.0
6.62,58.829143200000004,-20.9281776,-16.8075864,36.8046,0.0,0.0,0.0,0.0
6.640000000000001,59.67801120000001,-22.771608,-24.6150384,47.079103200000006,0.0,0.0,0.0,0.0
6.66,60.32967360000001,-23.151084,-11.2230408,43.5519576,0.0,0.0,0.0,0.0
6.680000000000001,60.824364,-19.898258400000003,-16.5366192,45.7757784,0.0,0.0,0.0,0.0
6.7,61.270591200000005,-17.9463192,-8.0784192,37.2645432,0.0,0.0,0.0,0.0
6.720000000000001,61.95151440000001,-14.693188800000001,-4.1748456,33.5840832,0.0,0.0,0.0,0.0
6.74,62.96162160000001,-8.295436800000001,2.0061936,22.772827200000002,0.0,0.0,0.0,0.0
6.760000000000001,63.930276000000006,-15.994380000000001,-4.608576,31.9741296,0.0,0.0,0.0,0.0
6.78,64.77883920000001,-5.096560800000001,1.8434304000000001,8.8943688,0.0,0.0,0.0,0.0
6.800000000000001,65.1369792,-3.957828,2.9818584,1.2268200000000002,0.0,0.0,0.0,0.0
6.82,65.541144,-2.7108912000000003,1.5182088,-0.30662880000000003,0.0,0.0,0.0,0.0
6.84,65.9498808,-4.0663368,3.6326064,-0.996696,0.0,0.0,0.0,0.0
6.86,66.4518864,-4.7170848,6.018276,-8.4344256,0.0,0.0,0.0,0.0
6.880000000000001,67.28825760000001,-6.0725304,-9.867595200000002,-12.7281432,0.0,0.0,0.0,0.0
6.9,68.55317760000001,10.3013256,-0.7589520000000001,-2.0702016,0.0,0.0,0.0,0.0
6.92,69.81504960000001,-4.7170848,11.1148368,-5.4440328000000004,0.0,0.0,0.0,0.0
6.94,71.22901680000001,-12.6327408,14.0424408,27.2966688,0.0,0.0,0.0,0.0
6.960000000000001,72.61555200000001,-2.8194000000000004,1.6264128000000002,9.967874400000001,0.0,0.0,0.0,0.0
6.98,73.8496872,-1.7349216,9.6508824,5.6741568000000004,0.0,0.0,0.0,0.0
7.0,75.06614400000001,-1.8976848000000002,2.8736544000000004,1.2268200000000002,0.0,0.0,0.0,0.0
7.0200000000000005,76.03510320000001,-4.445812800000001,8.8919304,-0.5367528,0.0,0.0,0.0,0.0
7.040000000000001,76.78247280000001,-0.9759696,9.4338648,-7.2841104,0.0,0.0,0.0,0.0
7.0600000000000005,77.40853200000001,-20.602956,22.337877600000002,13.725144,0.0,0.0,0.0,0.0
7.08,77.95046640000001,3.4698432,15.8316168,-27.2966688,0.0,0.0,0.0,0.0
7.1000000000000005,78.4637496,-9.0543888,2.6566368,-31.9741296,0.0,0.0,0.0,0.0
7.120000000000001,78.8011632,-6.2892432000000005,3.578352,-4.984089600000001,0.0,0.0,0.0,0.0
7.140000000000001,79.0090368,-3.9035736000000005,5.638800000000001,-3.9870888,0.0,0.0,0.0,0.0
7.16,79.2943296,-7.970215200000001,1.6806672000000002,-2.683764,0.0,0.0,0.0,0.0
7.18,79.6390584,-6.9942456,3.5240976,-1.7635728,0.0,0.0,0.0,0.0
7.2,79.8993576,-2.8736544000000004,2.1143976,-2.1470112,0.0,0.0,0.0,0.0
7.220000000000001,80.282796,-6.668719200000001,1.789176,-2.6069544000000002,0.0,0.0,0.0,0.0
7.24,80.7848016,-12.5787912,-1.1926824,-5.827471200000001,0.0,0.0,0.0,0.0
7.26,81.2386488,-14.476171200000001,-3.198876,5.060594400000001,0.0,0.0,0.0,0.0
7.28,81.69859199999999,-0.0542544,-4.933797600000001,6.364224,0.0,0.0,0.0,0.0
7.300000000000001,82.4029848,-4.2833544,4.608576,37.3413528,0.0,0.0,0.0,0.0
7.32,82.9592448,4.6628304,3.1446216000000002,10.888065600000001,0.0,0.0,0.0,0.0
7.34,83.5039224,1.8976848000000002,2.548128,4.0638984,0.0,0.0,0.0,0.0
7.36,84.2656176,-0.2170176,3.9035736000000005,-0.15331440000000002,0.0,0.0,0.0,0.0
7.380000000000001,84.86607359999999,0.1085088,1.9519392,-0.4599432,0.0,0.0,0.0,0.0
7.4,85.406484,0.3252216,4.445812800000001,-0.5367528,0.0,0.0,0.0,0.0
7.42,86.2044504,-1.3011912,4.445812800000001,0.7668768,0.0,0.0,0.0,0.0
7.44,86.91097679999999,0.8674608,4.445812800000001,0.6900672,0.0,0.0,0.0,0.0
7.460000000000001,87.46296960000001,2.9818584,5.5845456,-0.7668768,0.0,0.0,0.0,0.0
7.48,88.0942104,-34.5911424,50.531572800000006,-59.884056,0.0,0.0,0.0,0.0
7.5,88.661748,4.554321600000001,8.3496912,-4.370527200000001,0.0,0.0,0.0,0.0
7.5200000000000005,89.1853944,-0.7046976,-2.1143976,-4.370527200000001,0.0,0.0,0.0,0.0
7.540000000000001,89.966292,1.5182088,2.8194000000000004,-5.060594400000001,0.0,0.0,0.0,0.0
7.5600000000000005,90.44178,1.6806672000000002,5.1508152,-2.7602688,0.0,0.0,0.0,0.0
7.58,90.91543920000001,1.5182088,2.9279088,-1.6867632000000001,0.0,0.0,0.0,0.0
7.6000000000000005,91.5308304,1.1387328,2.0061936,-0.5367528,0.0,0.0,0.0,0.0
7.620000000000001,91.9691328,0.0,1.1926824,-0.23012400000000002,0.0,0.0,0.0,0.0
7.640000000000001,92.3745168,0.8674608,1.4097000000000002,0.0768096,0.0,0.0,0.0,0.0
7.66,92.81099040000001,1.6264128000000002,1.0844784,-0.996696,0.0,0.0,0.0,0.0
7.68,93.28739279999999,2.2771608000000003,1.6264128000000002,-0.30662880000000003,0.0,0.0,0.0,0.0
7.7,93.7641,2.2771608000000003,1.6264128000000002,-0.15331440000000002,0.0,0.0,0.0,0.0
7.720000000000001,94.2627528,4.445812800000001,-1.1926824,-0.30662880000000003,0.0,0.0,0.0,0.0
7.74,94.79249519999999,1.4639544,1.2469368,0.0768096,0.0,0.0,0.0,0.0
7.76,95.2417704,2.9818584,2.1143976,0.6900672,0.0,0.0,0.0,0.0
7.78,95.73006,2.4941784,1.7349216,-0.23012400000000002,0.0,0.0,0.0,0.0
7.800000000000001,96.2153016,2.6566368,2.0061936,-0.0768096,0.0,0.0,0.0,0.0
7.82,96.7593696,2.6023824,2.0601432,-0.23012400000000002,0.0,0.0,0.0,0.0
7.84,97.37750399999999,-0.8674608,1.5182088,-1.4569440000000002,0.0,0.0,0.0,0.0
7.86,97.7932512,-1.0844784,1.7349216,-1.6867632000000001,0.0,0.0,0.0,0.0
7.880000000000001,98.2638624,-1.5182088,1.7349216,-2.0702016,0.0,0.0,0.0,0.0
7.9,98.91552479999999,-0.7589520000000001,1.9519392,-1.0735056,0.0,0.0,0.0,0.0
7.92,99.44313360000001,-0.5422392,2.1686520000000002,-1.4569440000000002,0.0,0.0,0.0,0.0
7.94,99.9478824,39.7419576,-126.70810320000001,28.2936696,0.0,0.0,0.0,0.0
7.960000000000001,100.4706144,-0.1085088,1.6264128000000002,0.30662880000000003,0.0,0.0,0.0,0.0
7.98,101.0201688,0.37947600000000004,1.4639544,-0.15331440000000002,0.0,0.0,0.0,0.0
8.0,101.5688088,3.2531304000000003,0.1085088,1.5334488,0.0,0.0,0.0,0.0
8.02,102.1753608,4.2833544,-0.16276320000000002,2.4536400000000005,0.0,0.0,0.0,0.0
8.040000000000001,102.80751599999999,1.030224,2.7651456,0.6135624,0.0,0.0,0.0,0.0
8.06,103.39974240000001,1.8434304000000001,2.1686520000000002,-0.3834384,0.0,0.0,0.0,0.0
8.08,104.00598959999999,1.3011912,1.9519392,-0.5367528,0.0,0.0,0.0,0.0
8.100000000000001,104.6838648,1.4639544,0.37947600000000004,2.5304496,0.0,0.0,0.0,0.0
8.120000000000001,105.3239448,1.3011912,0.4337304,1.3036296,0.0,0.0,0.0,0.0
8.14,106.0271184,1.7349216,-0.2170176,1.6102584000000002,0.0,0.0,0.0,0.0
8.16,106.6988976,0.7589520000000001,0.1085088,0.9201912000000001,0.0,0.0,0.0,0.0
8.18,107.31886080000001,0.2170176,0.8674608,0.5367528,0.0,0.0,0.0,0.0
8.2,107.9778384,0.16276320000000002,0.2709672,0.6900672,0.0,0.0,0.0,0.0
8.22,108.7154544,0.4337304,-0.1085088,0.0,0.0,0.0,0.0,0.0
8.24,109.50976320000001,1.789176,-0.8132064000000001,-0.5367528,0.0,0.0,0.0,0.0
8.26,110.301024,2.6023824,-0.9759696,-0.8433816000000001,0.0,0.0,0.0,0.0
8.280000000000001,111.09960000000001,1.8976848000000002,-0.7046976,-0.23012400000000002,0.0,0.0,0.0,0.0
8.3,111.8899464,0.8132064000000001,-0.2709672,-0.15331440000000002,0.0,0.0,0.0,0.0
8.32,112.63518239999999,0.2709672,0.16276320000000002,-0.23012400000000002,0.0,0.0,0.0,0.0
8.34,113.374932,0.1085088,0.3252216,-0.15331440000000002,0.0,0.0,0.0,0.0
8.36,114.1128528,0.37947600000000004,0.16276320000000002,-0.23012400000000002,0.0,0.0,0.0,0.0
8.38,114.8812536,0.5964936000000001,0.16276320000000002,-0.4599432,0.0,0.0,0.0,0.0
8.4,115.6889736,1.030224,0.2709672,-0.6900672,0.0,0.0,0.0,0.0
8.42,116.4302472,0.4337304,0.2170176,-0.5367528,0.0,0.0,0.0,0.0
8.440000000000001,117.09044399999999,1.3011912,0.2170176,-0.4599432,0.0,0.0,0.0,0.0
8.46,117.7302192,1.030224,0.2709672,-0.23012400000000002,0.0,0.0,0.0,0.0
8.48,118.4736264,2.7108912000000003,-2.7108912000000003,0.996696,0.0,0.0,0.0,0.0
8.5,119.1825912,0.9217152000000001,-0.16276320000000002,0.9201912000000001,0.0,0.0,0.0,0.0
8.52,119.79371520000001,0.16276320000000002,0.7046976,0.5367528,0.0,0.0,0.0,0.0
8.540000000000001,120.5477904,0.0542544,0.5964936000000001,0.7668768,0.0,0.0,0.0,0.0
8.56,121.2451728,0.1085088,0.7589520000000001,0.6135624,0.0,0.0,0.0,0.0
8.58,121.9416408,-0.1085088,0.650748,0.4599432,0.0,0.0,0.0,0.0
8.600000000000001,122.5302096,0.37947600000000004,0.16276320000000002,0.3834384,0.0,0.0,0.0,0.0
8.620000000000001,123.1593168,0.4879848,-0.0542544,-0.23012400000000002,0.0,0.0,0.0,0.0
8.64,123.94265279999999,0.7046976,-0.2709672,-0.30662880000000003,0.0,0.0,0.0,0.0
8.66,124.6552752,0.5422392,-0.3252216,-0.5367528,0.0,0.0,0.0,0.0
8.68,125.27066640000001,0.37947600000000004,-0.16276320000000002,-0.6135624,0.0,0.0,0.0,0.0
8.7,126.0460776,0.2170176,0.0,-0.3834384,0.0,0.0,0.0,0.0
8.72,126.6922536,-0.1085088,-0.2170176,-0.3834384,0.0,0.0,0.0,0.0
8.74,127.334772,-0.7589520000000001,0.0,0.7668768,0.0,0.0,0.0,0.0
8.76,128.0248392,-1.030224,-0.5964936000000001,0.30662880000000003,0.0,0.0,0.0,0.0
8.780000000000001,128.6475456,-0.9759696,0.7589520000000001,0.23012400000000002,0.0,0.0,0.0,0.0
8.8,129.3226776,-2.8194000000000004,0.2170176,0.0,0.0,0.0,0.0,0.0
8.82,130.0151832,-4.3915584,0.5964936000000001,0.7668768,0.0,0.0,0.0,0.0
8.84,130.727196,-3.3073848000000003,0.9217152000000001,-0.7668768,0.0,0.0,0.0,0.0
8.86,131.3453304,-2.3314152,1.1387328,-0.6900672,0.0,0.0,0.0,0.0
8.88,132.0168048,-1.6806672000000002,0.8132064000000001,0.30662880000000003,0.0,0.0,0.0,0.0
8.9,132.6980328,-1.0844784,0.8674608,-0.15331440000000002,0.0,0.0,0.0,0.0
8.92,133.340856,-0.5964936000000001,0.9217152000000001,0.7668768,0.0,0.0,0.0,0.0
8.940000000000001,134.057136,-41.585388,7.210958400000001,0.0,0.0,0.0,0.0,0.0
8.96,134.74293600000001,-1.5724632,1.030224,0.23012400000000002,0.0,0.0,0.0,0.0
8.98,135.40130399999998,-2.2229064000000003,0.9217152000000001,0.0,0.0,0.0,0.0,0.0
9.0,136.2038424,-2.0061936,0.37947600000000004,0.4599432,0.0,0.0,0.0,0.0
9.02,136.9371912,-1.8976848000000002,0.0542544,-0.4599432,0.0,0.0,0.0,0.0
9.04,137.70620159999999,-1.789176,0.0542544,-0.6900672,0.0,0.0,0.0,0.0
9.06,138.3977928,-1.7349216,0.1085088,-0.30662880000000003,0.0,0.0,0.0,0.0
9.08,139.1067576,-1.6806672000000002,0.16276320000000002,-0.30662880000000003,0.0,0.0,0.0,0.0
9.100000000000001,139.75842,-1.4639544,0.16276320000000002,-0.23012400000000002,0.0,0.0,0.0,0.0
9.120000000000001,140.51706719999999,-1.5182088,0.2170176,-0.30662880000000003,0.0,0.0,0.0,0.0
9.14,141.28211520000002,-1.6264128000000002,0.1085088,-0.0768096,0.0,0.0,0.0,0.0
9.16,141.93194880000001,-1.6264128000000002,0.3252216,-0.30662880000000003,0.0,0.0,0.0,0.0
9.18,142.7009592,-1.6806672000000002,0.2709672,-0.23012400000000002,0.0,0.0,0.0,0.0
9.2,143.3059872,-1.5182088,0.2170176,-0.23012400000000002,0.0,0.0,0.0,0.0
9.22,144.011904,-1.6264128000000002,0.3252216,-0.30662880000000003,0.0,0.0,0.0,0.0
9.24,144.7202592,-1.5724632,0.2709672,-0.3834384,0.0,0.0,0.0,0.0
9.260000000000002,145.5249312,-1.5182088,0.2170176,-0.15331440000000002,0.0,0.0,0.0,0.0
9.280000000000001,146.1997584,-1.4097000000000002,0.3252216,-0.15331440000000002,0.0,0.0,0.0,0.0
9.3,146.8306944,-1.3554456000000001,0.37947600000000004,-0.0768096,0.0,0.0,0.0,0.0
9.32,147.4031088,-1.2469368,0.4879848,-0.0768096,0.0,0.0,0.0,0.0
9.34,148.0453224,-1.1387328,0.4879848,-0.0768096,0.0,0.0,0.0,0.0
9.36,148.7506296,-1.1387328,0.5964936000000001,0.0,0.0,0.0,0.0,0.0
9.38,149.3629728,-1.1387328,0.5964936000000001,0.0,0.0,0.0,0.0,0.0
9.4,150.06645120000002,-1.3011912,0.3252216,0.0,0.0,0.0,0.0,0.0
9.42,150.87173280000002,-1.2469368,0.37947600000000004,-0.0768096,0.0,0.0,0.0,0.0
9.440000000000001,151.6184928,-1.2469368,0.4879848,-0.0768096,0.0,0.0,0.0,0.0
9.46,152.35153680000002,-1.4097000000000002,0.3252216,-0.0768096,0.0,0.0,0.0,0.0
9.48,153.0224016,-1.4097000000000002,0.650748,-0.30662880000000003,0.0,0.0,0.0,0.0
9.5,153.6899136,-1.6264128000000002,0.7589520000000001,0.4599432,0.0,0.0,0.0,0.0
9.52,154.294332,-1.8434304000000001,0.7589520000000001,0.0,0.0,0.0,0.0,0.0
9.54,154.9158192,2.3314152,-1.030224,2.8370784000000002,0.0,0.0,0.0,0.0
9.56,155.5918656,-36.1093512,8.4582,10.1979984,0.0,0.0,0.0,0.0
9.58,156.2889432,-1.6806672000000002,1.789176,2.1470112,0.0,0.0,0.0,0.0
9.600000000000001,156.99181200000004,-0.7046976,0.7046976,0.3834384,0.0,0.0,0.0,0.0
9.620000000000001,157.68888960000004,0.5964936000000001,-0.7046976,0.4599432,0.0,0.0,0.0,0.0
9.64,158.4161424,-1.5724632,0.37947600000000004,0.0768096,0.0,0.0,0.0,0.0
9.66,159.0848736,-0.650748,-0.5422392,0.3834384,0.0,0.0,0.0,0.0
9.68,159.77707440000003,-0.650748,-0.4337304,0.996696,0.0,0.0,0.0,0.0
9.7,160.47598080000003,-0.9217152000000001,0.16276320000000002,0.30662880000000003,0.0,0.0,0.0,0.0
9.72,161.1437976,-1.3554456000000001,0.16276320000000002,0.0,0.0,0.0,0.0,0.0
9.74,161.83234080000003,-1.5182088,0.3252216,0.0,0.0,0.0,0.0,0.0
9.760000000000002,162.4931472,-1.4639544,0.2709672,-0.23012400000000002,0.0,0.0,0.0,0.0
9.780000000000001,163.10518560000003,-1.1926824,0.2170176,-0.3834384,0.0,0.0,0.0,0.0
9.8,163.8327432,-1.2469368,0.16276320000000002,-0.23012400000000002,0.0,0.0,0.0,0.0
9.82,164.41674000000003,-1.1926824,0.1085088,-0.3834384,0.0,0.0,0.0,0.0
9.84,165.04950480000002,-1.1926824,0.0,-0.23012400000000002,0.0,0.0,0.0,0.0
9.86,165.65209440000004,-1.2469368,0.16276320000000002,-0.23012400000000002,0.0,0.0,0.0,0.0
9.88,166.32204480000001,-1.1926824,0.2170176,-0.30662880000000003,0.0,0.0,0.0,0.0
9.9,166.87556160000003,-1.1387328,0.37947600000000004,-0.30662880000000003,0.0,0.0,0.0,0.0
9.92,167.53301520000002,-1.0844784,0.4337304,-0.15331440000000002,0.0,0.0,0.0,0.0
9.940000000000001,168.1822392,-1.1926824,0.3252216,-0.23012400000000002,0.0,0.0,0.0,0.0
9.96,168.67997760000003,-1.2469368,0.2709672,-0.23012400000000002,0.0,0.0,0.0,0.0
9.98,169.21855920000004,-1.2469368,0.2709672,-0.23012400000000002,0.0,0.0,0.0,0.0
10.0,169.92660960000003,-1.1926824,0.3252216,-0.3834384,0.0,0.0,0.0,0.0
10.02,170.48927040000004,-1.1387328,0.37947600000000004,-0.30662880000000003,0.0,0.0,0.0,0.0
10.04,171.20585520000003,-1.030224,0.37947600000000004,-0.15331440000000002,0.0,0.0,0.0,0.0
10.06,171.8130168,-1.1387328,0.37947600000000004,-0.23012400000000002,0.0,0.0,0.0,0.0
10.08,172.49454960000003,-1.0844784,0.3252216,-0.23012400000000002,0.0,0.0,0.0,0.0
10.100000000000001,173.03465520000003,-1.030224,0.2709672,-0.15331440000000002,0.0,0.0,0.0,0.0
10.120000000000001,173.5631784,-1.030224,0.37947600000000004,-0.23012400000000002,0.0,0.0,0.0,0.0
10.14,174.1447368,-1.1926824,0.3252216,-0.0768096,0.0,0.0,0.0,0.0
10.16,174.7458024,-0.9759696,0.650748,0.6135624,0.0,0.0,0.0,0.0
10.18,175.281336,-1.0844784,0.4337304,1.2268200000000002,0.0,0.0,0.0,0.0
10.2,175.8458256,-0.8674608,0.650748,0.0768096,0.0,0.0,0.0,0.0
10.22,176.3865408,-0.8674608,0.4337304,-0.5367528,0.0,0.0,0.0,0.0
10.24,176.9680992,-0.9759696,0.2170176,-0.4599432,0.0,0.0,0.0,0.0
10.260000000000002,177.50088960000002,-1.0844784,0.2170176,-0.15331440000000002,0.0,0.0,0.0,0.0
10.280000000000001,178.07848560000002,-1.1926824,0.2170176,-0.15331440000000002,0.0,0.0,0.0,0.0
10.3,178.72923360000001,-1.030224,0.37947600000000004,-0.30662880000000003,0.0,0.0,0.0,0.0
10.32,179.28457920000002,-1.1387328,0.4879848,0.15331440000000002,0.0,0.0,0.0,0.0
10.34,179.85577440000003,-1.030224,0.5964936000000001,0.0768096,0.0,0.0,0.0,0.0
10.36,180.41752080000003,-1.2469368,0.7046976,0.30662880000000003,0.0,0.0,0.0,0.0
10.38,180.96006480000003,-1.030224,0.7046976,0.0,0.0,0.0,0.0,0.0
10.4,181.53278400000002,-1.0844784,0.650748,0.15331440000000002,0.0,0.0,0.0,0.0
10.42,182.19298080000004,-1.030224,0.5964936000000001,0.0768096,0.0,0.0,0.0,0.0
10.440000000000001,182.7468024,-1.0844784,0.5422392,0.15331440000000002,0.0,0.0,0.0,0.0
10.46,183.27989760000003,-1.0844784,0.5422392,0.0,0.0,0.0,0.0,0.0
10.48,183.77458800000002,-1.0844784,0.7589520000000001,-0.15331440000000002,0.0,0.0,0.0,0.0
10.5,184.39180800000003,-1.1926824,0.5422392,0.0,0.0,0.0,0.0,0.0
10.52,184.92246480000003,-1.1387328,0.5964936000000001,-0.15331440000000002,0.0,0.0,0.0,0.0
10.54,185.45098800000002,-1.1926824,0.4337304,-0.23012400000000002,0.0,0.0,0.0,0.0
10.56,185.89294800000002,-1.1387328,0.4879848,-0.30662880000000003,0.0,0.0,0.0,0.0
10.58,186.40684080000003,-1.1926824,0.4337304,-0.23012400000000002,0.0,0.0,0.0,0.0
10.600000000000001,186.924696,-1.1926824,0.4337304,-0.23012400000000002,0.0,0.0,0.0,0.0
10.620000000000001,187.4806512,-1.1926824,0.3252216,-0.15331440000000002,0.0,0.0,0.0,0.0
10.64,187.99606800000004,-1.2469368,0.2709672,-0.15331440000000002,0.0,0.0,0.0,0.0
10.66,188.50203600000003,-1.6264128000000002,0.650748,-0.30662880000000003,0.0,0.0,0.0,0.0
10.68,188.9656368,-1.789176,0.5964936000000001,-0.4599432,0.0,0.0,0.0,0.0
10.7,189.4533168,2.2229064000000003,-0.9217152000000001,3.450336,0.0,0.0,0.0,0.0
10.72,189.95044560000002,-0.8132064000000001,0.7046976,-0.0768096,0.0,0.0,0.0,0.0
10.74,190.51554480000001,-0.7046976,0.7046976,-0.15331440000000002,0.0,0.0,0.0,0.0
10.760000000000002,190.98249840000003,-0.7046976,0.7046976,-0.3834384,0.0,0.0,0.0,0.0
10.780000000000001,191.46225360000003,-0.5964936000000001,0.5964936000000001,-0.0768096,0.0,0.0,0.0,0.0
10.8,191.9170152,-0.7046976,0.4879848,0.0,0.0,0.0,0.0,0.0
10.82,192.30350160000003,-0.8132064000000001,0.2709672,-0.15331440000000002,0.0,0.0,0.0,0.0
10.84,192.82623360000002,-0.9217152000000001,0.37947600000000004,-0.30662880000000003,0.0,0.0,0.0,0.0
10.86,193.381884,-1.030224,0.37947600000000004,0.0,0.0,0.0,0.0,0.0
10.88,193.8189672,-1.0844784,0.5422392,-0.30662880000000003,0.0,0.0,0.0,0.0
10.9,194.26519440000004,-1.0844784,0.5422392,-0.0768096,0.0,0.0,0.0,0.0
10.92,194.74342560000002,-1.1926824,0.5422392,-0.23012400000000002,0.0,0.0,0.0,0.0
10.940000000000001,195.21159840000004,-1.030224,0.5964936000000001,-0.15331440000000002,0.0,0.0,0.0,0.0
10.96,195.8178456,-1.0844784,0.5422392,-0.15331440000000002,0.0,0.0,0.0,0.0
10.98,196.250052,-1.030224,0.5964936000000001,-0.0768096,0.0,0.0,0.0,0.0
11.0,196.72858800000003,-0.9759696,0.4337304,-0.15331440000000002,0.0,0.0,0.0,0.0
11.02,197.2610736,-1.030224,0.4879848,-0.0768096,0.0,0.0,0.0,0.0
11.04,197.702424,-1.0844784,0.5422392,-0.0768096,0.0,0.0,0.0,0.0
11.06,198.1050648,-1.1926824,0.650748,-0.23012400000000002,0.0,0.0,0.0,0.0
11.08,198.53544240000002,-1.1926824,0.650748,-0.0768096,0.0,0.0,0.0,0.0
11.100000000000001,199.037448,-1.1387328,0.5964936000000001,-0.23012400000000002,0.0,0.0,0.0,0.0
11.120000000000001,199.46843520000004,-1.030224,0.4879848,-0.15331440000000002,0.0,0.0,0.0,0.0
11.14,199.89972720000003,-13.662964800000001,3.7953696000000003,5.2907184,0.0,0.0,0.0,0.0
11.16,200.23561680000003,-0.8674608,0.7589520000000001,-0.15331440000000002,0.0,0.0,0.0,0.0
11.18,200.6705664,-0.7589520000000001,0.650748,-0.30662880000000003,0.0,0.0,0.0,0.0
11.2,201.05888160000003,-0.8674608,0.4337304,-0.0768096,0.0,0.0,0.0,0.0
11.22,201.5416848,-1.030224,0.4879848,-0.30662880000000003,0.0,0.0,0.0,0.0
11.24,202.0692936,-1.1387328,0.4879848,-0.23012400000000002,0.0,0.0,0.0,0.0
11.260000000000002,202.56185040000003,-1.030224,0.4879848,-0.30662880000000003,0.0,0.0,0.0,0.0
11.280000000000001,202.97454960000002,-1.0844784,0.5422392,-0.23012400000000002,0.0,0.0,0.0,0.0
11.3,203.4774696,-0.9217152000000001,0.4879848,-0.23012400000000002,0.0,0.0,0.0,0.0
11.32,203.9361936,-0.8674608,0.4337304,-0.15331440000000002,0.0,0.0,0.0,0.0
11.34,204.33212880000005,-0.9217152000000001,0.37947600000000004,-0.23012400000000002,0.0,0.0,0.0,0.0
11.36,204.71221440000002,-0.9217152000000001,0.4879848,-0.23012400000000002,0.0,0.0,0.0,0.0
11.38,205.06578240000002,-0.9217152000000001,0.4879848,-0.23012400000000002,0.0,0.0,0.0,0.0
11.4,205.59186720000002,-1.030224,0.5964936000000001,-0.30662880000000003,0.0,0.0,0.0,0.0
11.42,205.93781520000002,-0.9759696,0.4337304,-0.30662880000000003,0.0,0.0,0.0,0.0
11.440000000000001,206.4462216,-0.9759696,0.4337304,-0.23012400000000002,0.0,0.0,0.0,0.0
11.46,206.99608080000004,-0.9759696,0.5422392,-0.23012400000000002,0.0,0.0,0.0,0.0
11.48,207.413352,-0.9217152000000001,0.4879848,-0.15331440000000002,0.0,0.0,0.0,0.0
11.5,207.79770480000005,-0.9759696,0.4337304,-0.0768096,0.0,0.0,0.0,0.0
11.52,208.27654560000002,-0.9759696,0.5422392,-0.23012400000000002,0.0,0.0,0.0,0.0
11.54,208.69168320000003,-1.030224,0.4879848,-0.23012400000000002,0.0,0.0,0.0,0.0
11.56,209.05256640000002,-0.9759696,0.4337304,-0.15331440000000002,0.0,0.0,0.0,0.0
11.58,209.33115360000002,-0.9217152000000001,0.4879848,-0.23012400000000002,0.0,0.0,0.0,0.0
11.600000000000001,209.66216640000002,-0.9759696,0.5422392,-0.30662880000000003,0.0,0.0,0.0,0.0
11.620000000000001,209.9779392,-0.9217152000000001,0.4879848,-0.15331440000000002,0.0,0.0,0.0,0.0
11.64,210.30559920000002,-0.9217152000000001,0.4879848,-0.23012400000000002,0.0,0.0,0.0,0.0
11.66,210.63325920000003,-0.9217152000000001,0.4879848,-0.30662880000000003,0.0,0.0,0.0,0.0
11.68,210.90148320000003,-0.9759696,0.4337304,-0.15331440000000002,0.0,0.0,0.0,0.0
11.7,211.27638720000002,-1.030224,0.5964936000000001,-0.30662880000000003,0.0,0.0,0.0,0.0
11.72,211.6616544,-0.9759696,0.5422392,-0.15331440000000002,0.0,0.0,0.0,0.0
11.74,211.98108480000002,-1.030224,0.37947600000000004,-0.15331440000000002,0.0,0.0,0.0,0.0
11.760000000000002,212.36543760000004,-0.9759696,0.4337304,-0.30662880000000003,0.0,0.0,0.0,0.0
11.780000000000001,212.698584,-0.9217152000000001,0.37947600000000004,-0.30662880000000003,0.0,0.0,0.0,0.0
11.8,212.98722960000003,0.37947600000000004,-0.37947600000000004,-0.996696,0.0,0.0,0.0,0.0
11.82,213.34811280000002,-0.8674608,0.650748,-0.5367528,0.0,0.0,0.0,0.0
11.84,213.63736800000004,-0.5422392,0.650748,-0.3834384,0.0,0.0,0.0,0.0
11.86,213.96319920000002,-0.7589520000000001,0.650748,-0.15331440000000002,0.0,0.0,0.0,0.0
11.88,214.3082328,-0.7589520000000001,0.4337304,-0.30662880000000003,0.0,0.0,0.0,0.0
11.9,214.57371360000005,-0.7046976,0.16276320000000002,-1.0735056,0.0,0.0,0.0,0.0
11.92,214.81938240000002,-0.7046976,0.5964936000000001,-0.30662880000000003,0.0,0.0,0.0,0.0
11.940000000000001,215.1595392,-0.8132064000000001,0.2709672,-0.6135624,0.0,0.0,0.0,0.0
11.96,215.41008480000002,-0.8674608,0.5422392,-0.6900672,0.0,0.0,0.0,0.0
11.98,215.670384,-0.8674608,0.5422392,-0.3834384,0.0,0.0,0.0,0.0
12.0,215.93952240000004,-0.7589520000000001,0.5422392,-0.23012400000000002,0.0,0.0,0.0,0.0
12.02,216.26382960000004,-0.8132064000000001,0.7046976,-0.15331440000000002,0.0,0.0,0.0,0.0
12.04,216.5646672,-0.8132064000000001,0.5964936000000001,-0.30662880000000003,0.0,0.0,0.0,0.0
12.06,216.83441520000002,-0.7589520000000001,0.650748,-0.0768096,0.0,0.0,0.0,0.0
12.08,217.19865120000003,-0.9759696,0.650748,-0.15331440000000002,0.0,0.0,0.0,0.0
12.100000000000001,217.48516320000002,-0.8674608,0.3252216,-0.5367528,0.0,0.0,0.0,0.0
12.120000000000001,217.75369200000003,-0.9759696,0.5422392,-0.3834384,0.0,0.0,0.0,0.0
12.14,217.98290160000002,-0.9217152000000001,0.5964936000000001,0.0,0.0,0.0,0.0,0.0
12.16,218.09598240000003,-0.9759696,0.1085088,-0.6135624,0.0,0.0,0.0,0.0
12.18,218.4977088,-0.9217152000000001,0.5964936000000001,-0.15331440000000002,0.0,0.0,0.0,0.0
12.2,218.83116,-1.030224,0.7046976,-0.5367528,0.0,0.0,0.0,0.0
12.22,219.10487040000004,-0.9759696,0.650748,-0.23012400000000002,0.0,0.0,0.0,0.0
12.24,219.30451440000002,-1.1387328,1.030224,-0.5367528,0.0,0.0,0.0,0.0
12.260000000000002,219.51360720000002,-0.9759696,0.650748,-0.23012400000000002,0.0,0.0,0.0,0.0
12.280000000000001,219.75409440000004,-0.9217152000000001,0.4879848,-0.23012400000000002,0.0,0.0,0.0,0.0
12.3,219.9644064,-1.030224,0.5964936000000001,-0.0768096,0.0,0.0,0.0,0.0
12.32,220.16008800000003,-0.8132064000000001,0.2709672,-0.4599432,0.0,0.0,0.0,0.0
12.34,220.36918080000004,-0.8132064000000001,0.4879848,-0.15331440000000002,0.0,0.0,0.0,0.0
12.36,220.50573120000004,-0.9759696,0.5422392,-0.23012400000000002,0.0,0.0,0.0,0.0
12.38,220.77426000000003,-0.9759696,0.5422392,-0.30662880000000003,0.0,0.0,0.0,0.0
12.4,220.9626264,-0.9759696,0.5422392,-0.23012400000000002,0.0,0.0,0.0,0.0
12.42,221.17964400000002,-0.9759696,0.5422392,-0.30662880000000003,0.0,0.0,0.0,0.0
12.440000000000001,221.36100000000002,-0.9217152000000001,0.4879848,-0.15331440000000002,0.0,0.0,0.0,0.0
12.46,221.45152560000002,-0.9759696,0.650748,-0.23012400000000002,0.0,0.0,0.0,0.0
12.48,221.5984392,-0.8674608,0.5422392,-0.30662880000000003,0.0,0.0,0.0,0.0
12.5,221.81027520000004,-0.8674608,0.650748,-0.30662880000000003,0.0,0.0,0.0,0.0
12.52,222.0029088,-0.9217152000000001,0.5964936000000001,-0.23012400000000002,0.0,0.0,0.0,0.0
12.54,222.1650624,-0.9759696,0.4337304,-0.23012400000000002,0.0,0.0,0.0,0.0
12.56,222.31868160000002,-0.9217152000000001,0.37947600000000004,-0.23012400000000002,0.0,0.0,0.0,0.0
12.58,222.42719040000003,-0.9217152000000001,0.4879848,-0.30662880000000003,0.0,0.0,0.0,0.0
12.600000000000001,222.55764480000002,-0.9217152000000001,0.4879848,-0.23012400000000002,0.0,0.0,0.0,0.0
12.620000000000001,222.6957192,-0.8674608,0.5422392,-0.30662880000000003,0.0,0.0,0.0,0.0
12.64,222.8060568,-0.8674608,0.5422392,-0.23012400000000002,0.0,0.0,0.0,0.0
12.66,222.87920880000001,-0.9217152000000001,0.4879848,-0.30662880000000003,0.0,0.0,0.0,0.0
12.68,222.97186800000003,-0.9217152000000001,0.4879848,-0.23012400000000002,0.0,0.0,0.0,0.0
12.7,223.14377520000002,-0.8132064000000001,0.4879848,-0.15331440000000002,0.0,0.0,0.0,0.0
12.72,223.16297760000003,-0.8674608,0.3252216,-0.30662880000000003,0.0,0.0,0.0,0.0
12.74,223.34768640000001,-0.9217152000000001,0.4879848,-0.23012400000000002,0.0,0.0,0.0,0.0
12.760000000000002,223.5619608,-0.9217152000000001,0.4879848,-0.23012400000000002,0.0,0.0,0.0,0.0
12.780000000000001,223.64303760000004,-1.0844784,0.4337304,-0.15331440000000002,0.0,0.0,0.0,0.0
12.8,223.92741600000002,-0.9217152000000001,0.37947600000000004,-0.23012400000000002,0.0,0.0,0.0,0.0
12.82,224.0923128,-0.9217152000000001,0.37947600000000004,-0.23012400000000002,0.0,0.0,0.0,0.0
12.84,224.2889088,-0.8674608,0.4337304,-0.23012400000000002,0.0,0.0,0.0,0.0
12.86,224.47575120000002,-1.030224,0.37947600000000004,-0.23012400000000002,0.0,0.0,0.0,0.0
12.88,224.58090720000004,-0.8674608,0.4337304,-0.15331440000000002,0.0,0.0,0.0,0.0
12.9,224.68850160000002,-0.9759696,0.4337304,-0.15331440000000002,0.0,0.0,0.0,0.0
12.92,224.9335608,-0.9217152000000001,0.4879848,-0.23012400000000002,0.0,0.0,0.0,0.0
12.94,224.99177760000003,-0.9759696,0.4337304,-0.23012400000000002,0.0,0.0,0.0,0.0
12.96,225.07041600000002,-1.030224,0.37947600000000004,-0.23012400000000002,0.0,0.0,0.0,0.0
12.98,225.20574720000002,1.5724632,-1.8976848000000002,-1.9936968000000002,0.0,0.0,0.0,0.0
13.0,225.23104560000002,-0.9217152000000001,1.2469368,0.0,0.0,0.0,0.0,0.0
13.02,225.321876,-0.650748,0.7589520000000001,0.0768096,0.0,0.0,0.0,0.0
13.040000000000001,225.3718632,-0.7589520000000001,0.7589520000000001,0.0,0.0,0.0,0.0,0.0
13.06,225.41270640000002,-1.030224,0.8132064000000001,-1.6867632000000001,0.0,0.0,0.0,0.0
13.08,225.56754480000004,-0.7046976,0.0542544,-1.0735056,0.0,0.0,0.0,0.0
13.1,225.64953600000004,-0.650748,-1.0844784,-0.7668768,0.0,0.0,0.0,0.0
13.120000000000001,225.71842080000002,-0.2170176,0.8674608,0.30662880000000003,0.0,0.0,0.0,0.0
13.14,225.7040952,-0.7046976,0.9217152000000001,0.0,0.0,0.0,0.0,0.0
13.16,225.78578160000004,-0.8674608,0.650748,-0.30662880000000003,0.0,0.0,0.0,0.0
13.18,225.9458016,-0.7046976,0.4879848,-0.5367528,0.0,0.0,0.0,0.0
13.200000000000001,225.93848640000002,-1.1926824,0.2170176,-0.23012400000000002,0.0,0.0,0.0,0.0
13.22,225.94366800000003,-1.1387328,0.5964936000000001,-0.23012400000000002,0.0,0.0,0.0,0.0
13.24,225.87905040000004,-0.9217152000000001,-0.2709672,0.30662880000000003,0.0,0.0,0.0,0.0
13.26,225.8638104,-0.3252216,-1.4097000000000002,0.4599432,0.0,0.0,0.0,0.0
13.280000000000001,225.8686872,-0.8674608,0.650748,0.0,0.0,0.0,0.0,0.0
13.3,225.87905040000004,-1.030224,0.37947600000000004,-0.30662880000000003,0.0,0.0,0.0,0.0
13.32,225.83424480000002,-0.9759696,0.650748,0.0,0.0,0.0,0.0,0.0
13.34,225.76749360000002,-0.7589520000000001,0.1085088,-0.23012400000000002,0.0,0.0,0.0,0.0
13.360000000000001,225.82814880000004,-0.9217152000000001,0.8132064000000001,-0.0768096,0.0,0.0,0.0,0.0
13.38,225.83089200000003,-0.9759696,0.4337304,-0.23012400000000002,0.0,0.0,0.0,0.0
13.4,225.81930960000003,-1.1926824,0.4337304,-0.15331440000000002,0.0,0.0,0.0,0.0
13.42,225.72207840000002,-1.0844784,0.4337304,-0.23012400000000002,0.0,0.0,0.0,0.0
13.44,225.67635840000003,-1.0844784,0.4337304,-0.30662880000000003,0.0,0.0,0.0,0.0
13.46,225.6748344,-1.030224,0.5964936000000001,-0.23012400000000002,0.0,0.0,0.0,0.0
13.48,225.60259680000001,-0.9217152000000001,0.4879848,-0.23012400000000002,0.0,0.0,0.0,0.0
13.5,225.56693520000005,-0.8674608,0.5422392,-0.23012400000000002,0.0,0.0,0.0,0.0
13.52,225.5873568,-1.0844784,0.5422392,-0.23012400000000002,0.0,0.0,0.0,0.0
13.540000000000001,225.52304400000003,-0.9759696,0.5422392,-0.15331440000000002,0.0,0.0,0.0,0.0
13.56,225.48524880000002,-1.030224,0.5964936000000001,-0.23012400000000002,0.0,0.0,0.0,0.0
13.58,225.4312992,-0.9759696,0.650748,-0.15331440000000002,0.0,0.0,0.0,0.0
13.6,225.4130112,-1.030224,0.5964936000000001,-0.23012400000000002,0.0,0.0,0.0,0.0
13.620000000000001,225.36637680000004,-0.9217152000000001,0.5964936000000001,-0.0768096,0.0,0.0,0.0,0.0
13.64,225.29535840000003,-0.9759696,0.5422392,-0.23012400000000002,0.0,0.0,0.0,0.0
13.66,225.10577280000004,-0.9217152000000001,0.5964936000000001,-0.15331440000000002,0.0,0.0,0.0,0.0
13.68,225.059748,-0.9217152000000001,0.5964936000000001,-0.15331440000000002,0.0,0.0,0.0,0.0
13.700000000000001,225.01463760000004,-0.9759696,0.650748,-0.30662880000000003,0.0,0.0,0.0,0.0
13.72,224.9731848,-1.0844784,0.5422392,-0.15331440000000002,0.0,0.0,0.0,0.0
13.74,224.79975360000003,-0.9759696,0.650748,-0.15331440000000002,0.0,0.0,0.0,0.0
13.76,224.6830152,-1.030224,0.5964936000000001,-0.23012400000000002,0.0,0.0,0.0,0.0
13.780000000000001,224.50897440000003,-1.0844784,0.650748,-0.30662880000000003,0.0,0.0,0.0,0.0
13.8,224.43125040000004,-1.030224,0.5964936000000001,-0.23012400000000002,0.0,0.0,0.0,0.0
13.82,224.3020152,-0.9759696,0.5422392,-0.15331440000000002,0.0,0.0,0.0,0.0
13.84,224.1319368,-1.030224,0.4879848,-0.30662880000000003,0.0,0.0,0.0,0.0
13.860000000000001,224.00849280000003,-1.030224,0.4879848,-0.15331440000000002,0.0,0.0,0.0,0.0
13.88,223.90577520000002,-1.0844784,0.5422392,-0.0768096,0.0,0.0,0.0,0.0
13.9,223.60097520000002,-1.030224,0.4879848,-0.15331440000000002,0.0,0.0,0.0,0.0
13.92,223.416876,-0.9759696,0.4337304,-0.15331440000000002,0.0,0.0,0.0,0.0
13.94,223.16724480000002,-1.0844784,0.5422392,-0.30662880000000003,0.0,0.0,0.0,0.0
13.96,223.02063600000002,-1.3554456000000001,0.9217152000000001,-0.0768096,0.0,0.0,0.0,0.0
13.98,222.78045360000002,-1.2469368,0.8132064000000001,-0.4599432,0.0,0.0,0.0,0.0
14.0,222.63201600000002,-1.2469368,0.8132064000000001,0.0768096,0.0,0.0,0.0,0.0
14.02,222.4893696,-1.1926824,0.5422392,-0.23012400000000002,0.0,0.0,0.0,0.0
14.040000000000001,222.35160000000002,-1.1387328,0.4879848,-0.30662880000000003,0.0,0.0,0.0,0.0
14.06,222.08550960000002,-1.0844784,0.4337304,-0.30662880000000003,0.0,0.0,0.0,0.0
14.08,221.819724,-1.030224,0.4879848,-0.23012400000000002,0.0,0.0,0.0,0.0
14.1,221.65056,-1.030224,0.4879848,-0.0768096,0.0,0.0,0.0,0.0
14.120000000000001,221.43323760000004,-0.3252216,0.1085088,0.23012400000000002,0.0,0.0,0.0,0.0
14.14,221.2467,-0.9759696,0.8674608,-0.5367528,0.0,0.0,0.0,0.0
14.16,221.0266344,-0.9759696,0.8674608,-0.3834384,0.0,0.0,0.0,0.0
14.18,220.8029112,-0.8674608,0.650748,-0.0768096,0.0,0.0,0.0,0.0
14.200000000000001,220.58955120000002,-0.9759696,0.5422392,-0.23012400000000002,0.0,0.0,0.0,0.0
14.22,220.3838112,-1.0844784,0.2170176,0.0768096,0.0,0.0,0.0,0.0
14.24,220.13905680000002,-1.1926824,0.1085088,-0.23012400000000002,0.0,0.0,0.0,0.0
