time,baro_altitude,accl_x,accl_y,accl_z,gps_altitude,gyro_roll,gyro_pitch,gyro_yaw
0.0,0.0,-9.4338648,-0.4337304,-0.9201912000000001,0.0,0.0,0.0,0.0
0.020000000000000462,-0.022555200000000004,-9.4338648,-0.2170176,-0.996696,0.0,0.0,0.0,0.0
0.040000000000000036,-0.06675120000000001,-9.3256608,-0.3252216,-0.9201912000000001,0.0,0.0,0.0,0.0
0.0600000000000005,-0.08930640000000002,-9.488119200000002,-0.37947600000000004,-0.9201912000000001,0.0,0.0,0.0,0.0
0.08000000000000007,-0.10942320000000001,-9.4338648,-0.3252216,-0.996696,0.0,0.0,0.0,0.0
0.10000000000000053,-0.13167360000000003,-9.4338648,-0.3252216,-0.8433816000000001,0.0,0.0,0.0,0.0
0.1200000000000001,-0.1469136,-9.4338648,-0.3252216,-0.996696,0.0,0.0,0.0,0.0
0.14000000000000057,-0.17007840000000002,-9.488119200000002,-0.37947600000000004,-0.8433816000000001,0.0,0.0,0.0,0.0
0.16000000000000014,-0.271272,-9.4338648,-0.2170176,-0.8433816000000001,0.0,0.0,0.0,0.0
0.1800000000000006,-0.31516320000000003,-9.3256608,-0.2170176,-0.9201912000000001,0.0,0.0,0.0,0.0
0.20000000000000018,-0.3041904,-9.379915200000001,-0.37947600000000004,-0.9201912000000001,0.0,0.0,0.0,0.0
0.22000000000000064,-0.27035760000000003,-9.488119200000002,-0.37947600000000004,-0.8433816000000001,0.0,0.0,0.0,0.0
0.2400000000000002,-0.2694432,-9.488119200000002,-0.37947600000000004,-0.996696,0.0,0.0,0.0,0.0
0.2600000000000007,-0.0832104,-9.379915200000001,-0.37947600000000004,-0.8433816000000001,0.0,0.0,0.0,0.0
0.28000000000000025,-0.10911840000000002,-9.3256608,-0.4337304,-0.8433816000000001,0.0,0.0,0.0,0.0
0.2999999999999998,-0.21427440000000003,-9.4338648,-0.4337304,-0.9201912000000001,0.0,0.0,0.0,0.0
0.3200000000000003,-0.14356080000000002,-9.3256608,-0.3252216,-0.996696,0.0,0.0,0.0,0.0
0.33999999999999986,-0.23896320000000001,-9.379915200000001,-0.37947600000000004,-0.9201912000000001,0.0,0.0,0.0,0.0
0.3600000000000003,-0.1880616,-9.379915200000001,-0.2709672,-0.9201912000000001,0.0,0.0,0.0,0.0
0.3799999999999999,-0.03749040000000001,-9.379915200000001,-0.37947600000000004,-0.9201912000000001,0.0,0.0,0.0,0.0
0.40000000000000036,0.02560319999999999,-9.3256608,-0.3252216,-0.9201912000000001,0.0,0.0,0.0,0.0
0.41999999999999993,0.05974079999999999,-9.488119200000002,-0.37947600000000004,-0.9201912000000001,0.0,0.0,0.0,0.0
0.4400000000000004,0.049377599999999994,-9.379915200000001,-0.2709672,-0.9201912000000001,0.0,0.0,0.0,0.0
0.45999999999999996,0.10058399999999999,-9.3256608,-0.3252216,-0.9201912000000001,0.0,0.0,0.0,0.0
0.4800000000000004,0.1475232,-9.2714064,-0.37947600000000004,-0.9201912000000001,0.0,0.0,0.0,0.0
0.5,0.150876,-9.379915200000001,-0.37947600000000004,-0.8433816000000001,0.0,0.0,0.0,0.0
0.5200000000000005,0.05974079999999999,-9.2714064,-0.37947600000000004,-0.9201912000000001,0.0,0.0,0.0,0.0
0.54,-0.022250400000000004,-9.488119200000002,-0.37947600000000004,-0.996696,0.0,0.0,0.0,0.0
0.5600000000000005,-0.11308080000000001,-9.4338648,-0.3252216,-0.9201912000000001,0.0,0.0,0.0,0.0
0.5800000000000001,0.04541519999999999,-9.3256608,-0.3252216,-0.9201912000000001,0.0,0.0,0.0,0.0
0.6000000000000005,-0.01706880000000001,-9.379915200000001,-0.37947600000000004,-0.9201912000000001,0.0,0.0,0.0,0.0
0.6200000000000001,-0.10332720000000001,-9.3256608,-0.4337304,-0.996696,0.0,0.0,0.0,0.0
0.6400000000000006,-0.07040880000000002,-9.379915200000001,-0.4879848,-0.9201912000000001,0.0,0.0,0.0,0.0
0.6600000000000001,-0.04663440000000001,-9.4338648,-0.4337304,-0.9201912000000001,0.0,0.0,0.0,0.0
0.6800000000000006,-0.1941576,-9.3256608,-0.3252216,-0.996696,0.0,0.0,0.0,0.0
0.7000000000000002,-0.1286256,-9.3256608,-0.3252216,-0.996696,0.0,0.0,0.0,0.0
0.7200000000000006,-0.156972,-9.3256608,-0.4337304,-0.8433816000000001,0.0,0.0,0.0,0.0
0.7400000000000002,-0.14478000000000002,-9.379915200000001,-0.2709672,-0.9201912000000001,0.0,0.0,0.0,0.0
0.7600000000000007,0.0371856,-9.2714064,-0.2709672,-0.8433816000000001,0.0,0.0,0.0,0.0
0.7800000000000002,-0.008534400000000008,-9.379915200000001,-0.37947600000000004,-0.9201912000000001,0.0,0.0,0.0,0.0
0.8000000000000003,-0.02773680000000001,-9.379915200000001,-0.37947600000000004,-0.9201912000000001,0.0,0.0,0.0,0.0
0.8200000000000003,-0.043586400000000004,-9.379915200000001,-0.37947600000000004,-0.996696,0.0,0.0,0.0,0.0
0.8400000000000003,-0.05425440000000001,-9.379915200000001,-0.2709672,-0.9201912000000001,0.0,0.0,0.0,0.0
0.8600000000000003,-0.17434560000000002,-9.3256608,-0.3252216,-0.9201912000000001,0.0,0.0,0.0,0.0
0.8800000000000003,-0.1819656,-9.3256608,-0.3252216,-0.996696,0.0,0.0,0.0,0.0
0.9000000000000004,0.030175199999999996,-9.3256608,-0.3252216,-0.996696,0.0,0.0,0.0,0.0
0.9200000000000004,0.1319784,-9.4338648,-0.3252216,-0.996696,0.0,0.0,0.0,0.0
0.9400000000000004,0.12100560000000002,-9.379915200000001,-0.2709672,-0.8433816000000001,0.0,0.0,0.0,0.0
0.9600000000000004,0.2441448,-9.379915200000001,-0.2709672,-0.8433816000000001,0.0,0.0,0.0,0.0
0.9800000000000004,0.04450079999999999,-9.3256608,-0.3252216,-0.9201912000000001,0.0,0.0,0.0,0.0
1.0000000000000004,-0.005486400000000005,-9.4338648,-0.3252216,-0.9201912000000001,0.0,0.0,0.0,0.0
1.0200000000000005,0.006095999999999989,-9.379915200000001,-0.37947600000000004,-0.9201912000000001,0.0,0.0,0.0,0.0
1.04,0.08869679999999998,-9.4338648,-0.3252216,-0.8433816000000001,0.0,0.0,0.0,0.0
1.06,0.05882640000000001,-9.379915200000001,-0.37947600000000004,-0.996696,0.0,0.0,0.0,0.0
1.08,0.0374904,-9.3256608,-0.4337304,-0.9201912000000001,0.0,0.0,0.0,0.0
1.1,-0.02804160000000001,-9.379915200000001,-0.37947600000000004,-0.9201912000000001,0.0,0.0,0.0,0.0
1.12,-0.005181600000000005,-9.379915200000001,-0.2709672,-0.9201912000000001,0.0,0.0,0.0,0.0
1.1400000000000001,0.1450848,-9.3256608,-0.2170176,-0.9201912000000001,0.0,0.0,0.0,0.0
1.1600000000000001,-0.008534400000000008,-9.379915200000001,-0.2709672,-0.9201912000000001,0.0,0.0,0.0,0.0
1.1800000000000002,-0.17068800000000003,-9.3256608,-0.3252216,-0.996696,0.0,0.0,0.0,0.0
1.2000000000000002,-0.12801600000000002,-9.2714064,-0.2709672,-0.9201912000000001,0.0,0.0,0.0,0.0
1.2200000000000002,-0.096012,-9.4338648,-0.4337304,-0.996696,0.0,0.0,0.0,0.0
1.2400000000000002,0.033832799999999996,-9.379915200000001,-0.2709672,-0.996696,0.0,0.0,0.0,0.0
1.2600000000000002,-0.12435840000000002,-9.379915200000001,-0.2709672,-0.8433816000000001,0.0,0.0,0.0,0.0
1.2800000000000002,-0.18166080000000004,-9.4338648,-0.3252216,-0.8433816000000001,0.0,0.0,0.0,0.0
1.3000000000000003,-0.08778240000000001,-9.4338648,-0.4337304,-0.996696,0.0,0.0,0.0,0.0
1.3200000000000003,0.0347472,-9.3256608,-0.4337304,-0.8433816000000001,0.0,0.0,0.0,0.0
1.3400000000000003,0.09570719999999999,-9.379915200000001,-0.37947600000000004,-0.996696,0.0,0.0,0.0,0.0
1.3600000000000003,0.11765280000000002,-9.3256608,-0.4337304,-0.996696,0.0,0.0,0.0,0.0
1.3800000000000003,0.0204216,-9.379915200000001,-0.37947600000000004,-0.996696,0.0,0.0,0.0,0.0
1.4000000000000004,-0.014630400000000005,-9.3256608,-0.2170176,-0.7668768,0.0,0.0,0.0,0.0
1.4200000000000004,-0.0789432,-9.3256608,-0.3252216,-0.8433816000000001,0.0,0.0,0.0,0.0
1.4400000000000004,-0.02926080000000001,-9.4338648,-0.4337304,-0.7668768,0.0,0.0,0.0,0.0
1.4600000000000004,-0.03535680000000001,-9.4338648,-0.4337304,-0.7668768,0.0,0.0,0.0,0.0
1.4800000000000004,-0.06187440000000001,-9.379915200000001,-0.37947600000000004,-0.996696,0.0,0.0,0.0,0.0
1.5000000000000004,-0.16002000000000002,-9.379915200000001,-0.37947600000000004,-0.9201912000000001,0.0,0.0,0.0,0.0
1.5200000000000005,-0.18958560000000002,-9.379915200000001,-0.37947600000000004,-0.8433816000000001,0.0,0.0,0.0,0.0
1.54,-0.1475232,-9.3256608,-0.4337304,-0.7668768,0.0,0.0,0.0,0.0
1.56,-0.039928800000000014,-9.2714064,-0.37947600000000004,-0.9201912000000001,0.0,0.0,0.0,0.0
1.58,-0.01981200000000001,-9.4338648,-0.4337304,-0.7668768,0.0,0.0,0.0,0.0
1.6,0.10759439999999999,-9.379915200000001,-0.4879848,-0.9201912000000001,0.0,0.0,0.0,0.0
1.62,-0.003962400000000004,-9.3256608,-0.4337304,-0.8433816000000001,0.0,0.0,0.0,0.0
1.6400000000000001,-0.05638800000000001,-9.379915200000001,-0.37947600000000004,-0.9201912000000001,0.0,0.0,0.0,0.0
1.6600000000000001,-0.13228320000000002,-9.379915200000001,-0.37947600000000004,-0.9201912000000001,0.0,0.0,0.0,0.0
1.6800000000000002,-0.2109216,-9.379915200000001,-0.37947600000000004,-0.8433816000000001,0.0,0.0,0.0,0.0
1.7000000000000002,-0.2584704,-9.379915200000001,-0.37947600000000004,-0.8433816000000001,0.0,0.0,0.0,0.0
1.7200000000000002,-0.22219920000000004,-9.379915200000001,-0.37947600000000004,-0.9201912000000001,0.0,0.0,0.0,0.0
1.7400000000000002,-0.17190720000000004,-9.379915200000001,-0.37947600000000004,-0.8433816000000001,0.0,0.0,0.0,0.0
1.7600000000000002,-0.08778240000000001,-9.4338648,-0.4337304,-0.9201912000000001,0.0,0.0,0.0,0.0
1.7800000000000002,-0.02834640000000001,-9.4338648,-0.4337304,-0.996696,0.0,0.0,0.0,0.0
1.8000000000000003,-0.05455920000000001,-9.2714064,-0.2709672,-0.9201912000000001,0.0,0.0,0.0,0.0
1.8200000000000003,-0.0765048,-9.379915200000001,-0.37947600000000004,-0.8433816000000001,0.0,0.0,0.0,0.0
1.8400000000000003,-0.11856720000000001,-9.379915200000001,-0.37947600000000004,-0.996696,0.0,0.0,0.0,0.0
1.8600000000000003,-0.20391120000000001,-9.3256608,-0.3252216,-0.9201912000000001,0.0,0.0,0.0,0.0
1.8800000000000003,-0.016764000000000008,-9.379915200000001,-0.37947600000000004,-0.9201912000000001,0.0,0.0,0.0,0.0
1.9000000000000004,0.14478,-9.379915200000001,-0.4879848,-0.9201912000000001,0.0,0.0,0.0,0.0
1.9200000000000004,0.126492,-9.4338648,-0.3252216,-0.8433816000000001,0.0,0.0,0.0,0.0
1.9400000000000004,0.2386584,-9.488119200000002,-0.2709672,-0.996696,0.0,0.0,0.0,0.0
1.9600000000000004,0.1810512,-9.3256608,-0.3252216,-0.9201912000000001,0.0,0.0,0.0,0.0
1.9800000000000004,0.1216152,-9.2714064,-0.2709672,-0.9201912000000001,0.0,0.0,0.0,0.0
2.0000000000000004,0.04389119999999999,-9.379915200000001,-0.37947600000000004,-0.9201912000000001,0.0,0.0,0.0,0.0
2.0200000000000005,0.057912000000000005,-9.4338648,-0.3252216,-0.9201912000000001,0.0,0.0,0.0,0.0
2.04,0.047853599999999996,-9.3256608,-0.3252216,-0.996696,0.0,0.0,0.0,0.0
2.06,0.0646176,-9.379915200000001,-0.37947600000000004,-0.9201912000000001,0.0,0.0,0.0,0.0
2.08,0.08077200000000001,-9.379915200000001,-0.37947600000000004,-0.8433816000000001,0.0,0.0,0.0,0.0
2.1,-0.08686800000000001,-9.379915200000001,-0.37947600000000004,-0.8433816000000001,0.0,0.0,0.0,0.0
2.12,-0.1524,-9.379915200000001,-0.37947600000000004,-0.9201912000000001,0.0,0.0,0.0,0.0
2.14,-0.11033760000000001,-9.379915200000001,-0.37947600000000004,-0.9201912000000001,0.0,0.0,0.0,0.0
2.16,-0.13350240000000002,-9.4338648,-0.3252216,-0.9201912000000001,0.0,0.0,0.0,0.0
2.18,-0.044196000000000006,-9.3256608,-0.3252216,-0.996696,0.0,0.0,0.0,0.0
2.2,-0.08077200000000001,-9.3256608,-0.3252216,-0.9201912000000001,0.0,0.0,0.0,0.0
2.22,-0.02804160000000001,-9.488119200000002,-0.37947600000000004,-0.8433816000000001,0.0,0.0,0.0,0.0
2.24,-0.06309360000000001,-9.4338648,-0.3252216,-0.9201912000000001,0.0,0.0,0.0,0.0
2.2600000000000002,0.1002792,-9.4338648,-0.3252216,-0.8433816000000001,0.0,0.0,0.0,0.0
2.2800000000000002,0.0329184,-9.379915200000001,-0.37947600000000004,-0.9201912000000001,0.0,0.0,0.0,0.0
2.3000000000000003,0.155448,-9.4338648,-0.4337304,-0.9201912000000001,0.0,0.0,0.0,0.0
2.3200000000000003,0.1901952,-9.379915200000001,-0.37947600000000004,-0.996696,0.0,0.0,0.0,0.0
2.3400000000000003,0.22738080000000002,-9.488119200000002,-0.37947600000000004,-0.8433816000000001,0.0,0.0,0.0,0.0
2.3600000000000003,0.0725424,-9.488119200000002,-0.37947600000000004,-0.8433816000000001,0.0,0.0,0.0,0.0
2.3800000000000003,-0.0966216,-9.488119200000002,-0.37947600000000004,-0.9201912000000001,0.0,0.0,0.0,0.0
2.4000000000000004,-0.13929360000000002,-9.3256608,-0.3252216,-0.996696,0.0,0.0,0.0,0.0
2.4200000000000004,-0.03810000000000001,-9.4338648,-0.3252216,-0.9201912000000001,0.0,0.0,0.0,0.0
2.4400000000000004,-0.043586400000000004,-9.379915200000001,-0.2709672,-0.996696,0.0,0.0,0.0,0.0
2.4600000000000004,0.0515112,-9.4338648,-0.3252216,-0.9201912000000001,0.0,0.0,0.0,0.0
2.4800000000000004,-0.04480560000000001,-9.3256608,-0.3252216,-0.996696,0.0,0.0,0.0,0.0
2.5000000000000004,-0.05242560000000002,-9.379915200000001,-0.4879848,-0.8433816000000001,0.0,0.0,0.0,0.0
2.5200000000000005,0.0009144000000000009,-9.379915200000001,-0.4879848,-0.8433816000000001,0.0,0.0,0.0,0.0
2.54,-0.006096000000000006,-9.3256608,-0.3252216,-0.8433816000000001,0.0,0.0,0.0,0.0
2.56,-0.05730240000000001,-9.3256608,-0.4337304,-0.996696,0.0,0.0,0.0,0.0
2.58,-0.10668000000000001,-9.4338648,-0.4337304,-0.8433816000000001,0.0,0.0,0.0,0.0
2.6,-0.13411200000000004,-9.379915200000001,-0.37947600000000004,-0.8433816000000001,0.0,0.0,0.0,0.0
2.62,-0.18470880000000003,-9.379915200000001,-0.2709672,-0.996696,0.0,0.0,0.0,0.0
2.64,-0.237744,-9.4338648,-0.4337304,-0.8433816000000001,0.0,0.0,0.0,0.0
2.66,-0.2054352,-9.379915200000001,-0.37947600000000004,-0.8433816000000001,0.0,0.0,0.0,0.0
2.68,-0.24566880000000002,-9.4338648,-0.4337304,-0.9201912000000001,0.0,0.0,0.0,0.0
2.7,-0.28376880000000004,-9.379915200000001,-0.37947600000000004,-0.9201912000000001,0.0,0.0,0.0,0.0
2.72,-0.2157984,-9.379915200000001,-0.2709672,-0.9201912000000001,0.0,0.0,0.0,0.0
2.74,-0.03688080000000001,-9.379915200000001,-0.37947600000000004,-0.9201912000000001,0.0,0.0,0.0,0.0
2.7600000000000002,0.126492,-9.4338648,-0.3252216,-0.8433816000000001,0.0,0.0,0.0,0.0
2.7800000000000002,-0.0018288000000000017,-9.488119200000002,-0.37947600000000004,-0.8433816000000001,0.0,0.0,0.0,0.0
2.8000000000000003,0.0762,-9.379915200000001,-0.37947600000000004,-0.8433816000000001,0.0,0.0,0.0,0.0
2.8200000000000003,0.026517599999999992,-9.3256608,-0.3252216,-0.9201912000000001,0.0,0.0,0.0,0.0
2.8400000000000003,0.19110960000000002,-9.379915200000001,-0.2709672,-0.9201912000000001,0.0,0.0,0.0,0.0
2.8600000000000003,0.1984248,-9.4338648,-0.3252216,-0.9201912000000001,0.0,0.0,0.0,0.0
2.8800000000000003,0.15575280000000002,-9.3256608,-0.3252216,-0.8433816000000001,0.0,0.0,0.0,0.0
2.9000000000000004,0.20208240000000002,-9.2714064,-0.37947600000000004,-0.8433816000000001,0.0,0.0,0.0,0.0
2.92,0.0362712,-9.4338648,-0.4337304,-0.9201912000000001,0.0,0.0,0.0,0.0
2.9400000000000004,0.103632,-9.4338648,-0.3252216,-0.9201912000000001,0.0,0.0,0.0,0.0
2.96,0.1011936,-9.488119200000002,-0.37947600000000004,-0.9201912000000001,0.0,0.0,0.0,0.0
2.9800000000000004,-0.032613600000000006,-9.4338648,-0.3252216,-0.9201912000000001,0.0,0.0,0.0,0.0
3.0,-0.2855976,-9.379915200000001,-0.2709672,-0.996696,0.0,0.0,0.0,0.0
3.0200000000000005,-0.33345119999999995,-9.4338648,-0.4337304,-0.8433816000000001,0.0,0.0,0.0,0.0
3.04,-0.3849624,-9.2714064,-0.37947600000000004,-0.8433816000000001,0.0,0.0,0.0,0.0
3.0600000000000005,-0.33345119999999995,-9.3256608,-0.3252216,-0.7668768,0.0,0.0,0.0,0.0
3.08,-0.3523488000000001,-9.379915200000001,-0.2709672,-0.9201912000000001,0.0,0.0,0.0,0.0
3.1000000000000005,-0.33588959999999995,-9.4338648,-0.4337304,-0.9201912000000001,0.0,0.0,0.0,0.0
3.12,-0.306324,-9.4338648,-0.3252216,-0.9201912000000001,0.0,0.0,0.0,0.0
3.1400000000000006,-0.2237232,-9.3256608,-0.4337304,-0.6900672,0.0,0.0,0.0,0.0
3.16,-0.14478000000000002,-9.2714064,-0.37947600000000004,-0.9201912000000001,0.0,0.0,0.0,0.0
3.18,-0.2292096,-9.4338648,-0.3252216,-0.9201912000000001,0.0,0.0,0.0,0.0
3.2,-0.11704320000000001,-9.379915200000001,-0.37947600000000004,-0.8433816000000001,0.0,0.0,0.0,0.0
3.22,-0.13655040000000002,-9.379915200000001,-0.37947600000000004,-0.996696,0.0,0.0,0.0,0.0
3.24,-0.131064,-9.4338648,-0.4337304,-0.8433816000000001,0.0,0.0,0.0,0.0
3.2600000000000002,0.057607200000000004,-9.4338648,-0.3252216,-0.7668768,0.0,0.0,0.0,0.0
3.2800000000000002,0.08717280000000001,-9.3256608,-0.3252216,-0.8433816000000001,0.0,0.0,0.0,0.0
3.3000000000000003,0.04267199999999999,-9.379915200000001,-0.37947600000000004,-0.9201912000000001,0.0,0.0,0.0,0.0
3.3200000000000003,0.0057911999999999885,-9.379915200000001,-0.2709672,-0.9201912000000001,0.0,0.0,0.0,0.0
3.3400000000000003,-0.009448800000000009,-9.379915200000001,-0.37947600000000004,-0.8433816000000001,0.0,0.0,0.0,0.0
3.3600000000000003,-0.1563624,-9.488119200000002,-0.37947600000000004,-0.996696,0.0,0.0,0.0,0.0
3.3800000000000003,-0.1578864,-9.379915200000001,-0.37947600000000004,-0.8433816000000001,0.0,0.0,0.0,0.0
3.4000000000000004,-0.17434560000000002,-9.3256608,-0.4337304,-0.9201912000000001,0.0,0.0,0.0,0.0
3.42,-0.178308,-9.379915200000001,-0.37947600000000004,-0.8433816000000001,0.0,0.0,0.0,0.0
3.4400000000000004,-0.1758696,-9.4338648,-0.4337304,-0.9201912000000001,0.0,0.0,0.0,0.0
3.46,-0.138684,-9.379915200000001,-0.37947600000000004,-0.8433816000000001,0.0,0.0,0.0,0.0
3.4800000000000004,-0.04632960000000001,-9.4338648,-0.3252216,-0.996696,0.0,0.0,0.0,0.0
3.5,-0.017983200000000008,-9.4338648,-0.3252216,-0.996696,0.0,0.0,0.0,0.0
3.5200000000000005,-0.037185600000000006,-9.379915200000001,-0.37947600000000004,-0.8433816000000001,0.0,0.0,0.0,0.0
3.54,-0.1578864,-9.3256608,-0.3252216,-0.8433816000000001,0.0,0.0,0.0,0.0
3.5600000000000005,-0.13929360000000002,-9.3256608,-0.3252216,-0.996696,0.0,0.0,0.0,0.0
3.58,-0.12954000000000002,-9.4338648,-0.3252216,-1.0735056,0.0,0.0,0.0,0.0
3.6000000000000005,-0.027127200000000008,-9.4338648,-0.3252216,-0.996696,0.0,0.0,0.0,0.0
3.62,-0.02103120000000001,-9.5423736,-0.3252216,-0.996696,0.0,0.0,0.0,0.0
3.6400000000000006,0.052120799999999995,-9.4338648,-0.3252216,-0.9201912000000001,0.0,0.0,0.0,0.0
3.66,-0.030175200000000013,-9.379915200000001,-0.37947600000000004,-0.8433816000000001,0.0,0.0,0.0,0.0
3.68,-0.21305520000000003,-9.379915200000001,-0.2709672,-0.9201912000000001,0.0,0.0,0.0,0.0
3.7,-0.25267920000000005,-9.3256608,-0.3252216,-0.9201912000000001,0.0,0.0,0.0,0.0
3.72,-0.20086320000000002,-9.4338648,-0.3252216,-0.9201912000000001,0.0,0.0,0.0,0.0
3.74,-0.0789432,-9.3256608,-0.3252216,-0.996696,0.0,0.0,0.0,0.0
3.7600000000000002,-0.04724400000000001,-9.4338648,-0.3252216,-0.8433816000000001,0.0,0.0,0.0,0.0
3.7800000000000002,-0.011277600000000011,-9.379915200000001,-0.37947600000000004,-0.8433816000000001,0.0,0.0,0.0,0.0
3.8000000000000003,0.0536448,-9.596628,-0.37947600000000004,-0.996696,0.0,0.0,0.0,0.0
3.8200000000000003,0.0045719999999999875,-9.596628,-0.4879848,-0.996696,0.0,0.0,0.0,0.0
3.8400000000000003,-0.016764000000000008,-9.488119200000002,-0.37947600000000004,-0.9201912000000001,0.0,0.0,0.0,0.0
3.8600000000000003,0.010363199999999993,-9.488119200000002,-0.37947600000000004,-0.9201912000000001,0.0,0.0,0.0,0.0
3.8800000000000003,-0.065532,-9.1628976,-0.2709672,-0.9201912000000001,0.0,0.0,0.0,0.0
3.9000000000000004,-0.11033760000000001,-9.379915200000001,-0.37947600000000004,-0.996696,0.0,0.0,0.0,0.0
3.9200000000000004,0.16611599999999999,-9.379915200000001,-0.2709672,-0.996696,0.0,0.0,0.0,0.0
3.9400000000000004,0.08077200000000001,-9.5423736,-0.4337304,-0.9201912000000001,0.0,0.0,0.0,0.0
3.9600000000000004,0.04571999999999999,-9.379915200000001,-0.37947600000000004,-0.9201912000000001,0.0,0.0,0.0,0.0
3.9800000000000004,-0.016154400000000006,-9.4338648,-0.3252216,-0.9201912000000001,0.0,0.0,0.0,0.0
4.0,0.09143999999999998,-9.379915200000001,-0.37947600000000004,-1.0735056,0.0,0.0,0.0,0.0
4.0200000000000005,0.019507200000000002,-9.4338648,-0.3252216,-0.8433816000000001,0.0,0.0,0.0,0.0
4.04,-0.2761488,-9.3256608,-0.3252216,-0.996696,0.0,0.0,0.0,0.0
4.0600000000000005,-0.34686239999999996,-9.3256608,-0.5422392,-0.996696,0.0,0.0,0.0,0.0
4.08,-0.3959352,-9.4338648,-0.2170176,-1.0735056,0.0,0.0,0.0,0.0
4.1000000000000005,-0.381,-9.6508824,-0.4337304,-0.9201912000000001,0.0,0.0,0.0,0.0
4.12,-0.33497520000000003,-9.4338648,0.1085088,-0.15331440000000002,0.0,0.0,0.0,0.0
4.140000000000001,-0.352044,-8.6206584,0.2709672,-0.3834384,0.0,0.0,0.0,0.0
4.16,-0.28407360000000004,-9.0001344,-0.4337304,-1.4569440000000002,0.0,0.0,0.0,0.0
4.180000000000001,-0.20970239999999998,-10.0303584,-1.3554456000000001,-0.3834384,0.0,0.0,0.0,0.0
4.2,-0.22463760000000005,-9.4338648,-0.4337304,-0.8433816000000001,0.0,0.0,0.0,0.0
4.220000000000001,-0.2170176,-9.596628,0.5964936000000001,-0.3834384,0.0,0.0,0.0,0.0
4.24,-0.13228320000000002,-9.2714064,-0.2709672,-1.0735056,0.0,0.0,0.0,0.0
4.26,-0.1456944,-9.217152,-0.9759696,-0.9201912000000001,0.0,0.0,0.0,0.0
4.28,-0.21976080000000003,-9.108643200000001,-1.1926824,-1.1500104,0.0,0.0,0.0,0.0
4.300000000000001,-0.02133600000000001,-9.7051368,-0.2709672,-0.9201912000000001,0.0,0.0,0.0,0.0
4.32,0.09509759999999999,-11.440058400000002,-1.2469368,-6.2109096,0.0,0.0,0.0,0.0
4.34,-0.08625840000000001,-9.108643200000001,-3.0361128,-0.7668768,0.0,0.0,0.0,0.0
4.36,-0.17190720000000004,-7.4822304,-1.3011912,-1.6102584000000002,0.0,0.0,0.0,0.0
4.38,-0.03779520000000001,-8.3496912,0.0,-1.6867632000000001,0.0,0.0,0.0,0.0
4.4,0.08229600000000001,-12.0908064,0.5964936000000001,-2.5304496,0.0,0.0,0.0,0.0
4.42,0.014935199999999997,-10.193121600000001,1.3011912,2.223516,0.0,0.0,0.0,0.0
4.44,0.1069848,-8.6206584,-1.030224,1.9168872,0.0,0.0,0.0,0.0
4.46,0.0569976,-10.3013256,0.5422392,2.9135831999999997,0.0,0.0,0.0,0.0
4.48,-0.1524,-10.0303584,0.9217152000000001,-0.996696,0.0,0.0,0.0,0.0
4.5,-0.1731264,-10.3013256,-0.9759696,0.0,0.0,0.0,0.0,0.0
4.5200000000000005,-0.06400800000000001,2.2229064000000003,1.1387328,1.9168872,0.0,0.0,0.0,0.0
4.54,-0.150876,-11.2230408,10.0303584,-9.6612456,0.0,0.0,0.0,0.0
4.5600000000000005,-0.05669280000000001,-8.1326736,-1.8434304000000001,-1.6867632000000001,0.0,0.0,0.0,0.0
4.58,-0.155448,-11.76528,0.4879848,-0.15331440000000002,0.0,0.0,0.0,0.0
4.6000000000000005,-0.10454640000000001,-9.6508824,-1.6264128000000002,-1.3801344,0.0,0.0,0.0,0.0
4.62,-0.15483840000000001,-9.2714064,-0.7046976,-1.3036296,0.0,0.0,0.0,0.0
4.640000000000001,-0.1469136,-8.94588,1.030224,2.6069544000000002,0.0,0.0,0.0,0.0
4.66,-0.45628560000000007,-23.4766104,-2.9818584,-3.9870888,0.0,0.0,0.0,0.0
4.680000000000001,0.13289279999999998,7.048500000000001,0.0,36.9579144,0.0,0.0,0.0,0.0
4.7,0.13014959999999998,24.2898168,7.807452,24.6132096,0.0,0.0,0.0,0.0
4.720000000000001,0.284988,1.030224,1.030224,-1.5334488,0.0,0.0,0.0,0.0
4.74,0.2185416,3.5240976,-4.5000672,3.2205168000000004,0.0,0.0,0.0,0.0
4.760000000000001,0.2609088,-1.030224,1.1387328,1.3801344,0.0,0.0,0.0,0.0
4.78,-0.015849600000000005,-0.5422392,-0.4337304,-0.3834384,0.0,0.0,0.0,0.0
4.8,-0.6845808,-10.789310400000002,-2.9818584,2.6069544000000002,0.0,0.0,0.0,0.0
4.82,-0.41056560000000003,-9.1628976,0.0542544,-0.30662880000000003,0.0,0.0,0.0,0.0
4.84,-0.4142232,-5.3132736,9.3256608,0.0768096,0.0,0.0,0.0,0.0
4.86,-0.4367784,-10.0846128,5.096560800000001,-1.3036296,0.0,0.0,0.0,0.0
4.88,-1.0354056,-124.05146640000001,-7.3737216000000005,-58.810550400000004,0.0,0.0,0.0,0.0
4.9,-1.0558272,-166.5585696,-25.265786400000003,-1.4569440000000002,0.0,0.0,0.0,0.0
4.92,-0.451104,-174.31176720000002,-3.0903671999999998,2.3003256,0.0,0.0,0.0,0.0
4.94,0.3456432,-165.203124,16.4281104,-4.984089600000001,0.0,0.0,0.0,0.0
4.96,1.3088111999999998,-143.73270720000002,-10.681106400000001,15.488716800000002,0.0,0.0,0.0,0.0
4.98,2.4929591999999996,-178.48661280000002,19.844004,1.5334488,0.0,0.0,0.0,0.0
5.0,4.0038528,-168.99849360000002,-4.0663368,-10.1979984,0.0,0.0,0.0,0.0
5.0200000000000005,5.748528,-171.81789360000002,-0.37947600000000004,-10.734751200000002,0.0,0.0,0.0,0.0
5.04,7.679740799999999,-160.3778352,1.3011912,-11.501323200000002,0.0,0.0,0.0,0.0
5.0600000000000005,9.995611199999999,-171.22140000000002,3.1446216000000002,-12.804952800000002,0.0,0.0,0.0,0.0
5.08,12.6269496,-161.13678720000001,6.7229735999999995,-13.571829600000001,0.0,0.0,0.0,0.0
5.1000000000000005,15.461894400000002,-161.57051760000002,8.8919304,-17.3287944,0.0,0.0,0.0,0.0
5.12,18.6915552,-160.1608176,12.4702824,-22.9261416,0.0,0.0,0.0,0.0
5.140000000000001,21.801429600000002,-164.4984264,18.542508,-35.347656,0.0,0.0,0.0,0.0
5.16,24.291645600000003,-162.9259632,20.8739232,-38.261544,0.0,0.0,0.0,0.0
5.180000000000001,25.7818128,-162.8174544,30.091075200000002,-35.807904,0.0,0.0,0.0,0.0
5.2,26.7041376,-165.52834560000002,25.5367536,-36.1913424,0.0,0.0,0.0,0.0
5.220000000000001,28.965144000000002,-171.980352,15.3978864,-32.127444000000004,0.0,0.0,0.0,0.0
5.24,33.5252568,-166.17909360000002,15.343632000000001,-30.440376000000004,0.0,0.0,0.0,0.0
5.26,38.852246400000006,-166.1248392,17.2413168,-22.6195128,0.0,0.0,0.0,0.0
5.28,44.5989456,-168.1310328,15.018410400000002,-15.105278400000001,0.0,0.0,0.0,0.0
5.300000000000001,50.618745600000004,-169.9202088,12.795504,-10.5814368,0.0,0.0,0.0,0.0
5.32,57.14512320000001,-167.643048,13.554456,-11.3480088,0.0,0.0,0.0,0.0
5.34,63.684912000000004,-167.4260304,13.662964800000001,-11.4248184,0.0,0.0,0.0,0.0
5.36,69.831204,-170.0287176,13.1207256,-15.948660000000002,0.0,0.0,0.0,0.0
5.38,75.55260480000001,-164.552376,10.8978192,-17.2522896,0.0,0.0,0.0,0.0
5.4,81.1795176,-161.13678720000001,9.3256608,-17.8655472,0.0,0.0,0.0,0.0
5.42,86.36355600000002,-153.9258288,9.7051368,-15.4119072,0.0,0.0,0.0,0.0
5.44,91.80972240000001,-150.6726984,9.1628976,-12.804952800000002,0.0,0.0,0.0,0.0
5.46,97.36653120000001,-143.841216,9.596628,-11.4248184,0.0,0.0,0.0,0.0
5.48,102.6218928,-129.7445208,6.885736800000001,-10.1979984,0.0,0.0,0.0,0.0
5.5,107.26795919999999,-105.562908,5.9097672,-12.038076,0.0,0.0,0.0,0.0
5.5200000000000005,110.71920960000001,-85.8274128,4.1748456,-9.814560000000002,0.0,0.0,0.0,0.0
5.54,113.1643152,-61.049915999999996,5.7470040000000004,-8.4344256,0.0,0.0,0.0,0.0
5.5600000000000005,115.84289760000001,-32.964729600000005,5.096560800000001,-4.984089600000001,0.0,0.0,0.0,0.0
5.58,117.8018472,-5.5845456,6.1267848,-2.223516,0.0,0.0,0.0,0.0
5.6000000000000005,118.74124080000001,13.771473600000002,4.445812800000001,-1.4569440000000002,0.0,0.0,0.0,0.0
5.62,118.60956720000001,20.1149712,4.0663368,-0.5367528,0.0,0.0,0.0,0.0
5.640000000000001,117.29008800000001,21.470416800000002,4.012082400000001,-0.15331440000000002,0.0,0.0,0.0,0.0
5.66,115.47439440000001,20.6572104,6.018276,-0.996696,0.0,0.0,0.0,0.0
5.680000000000001,113.23167600000001,19.952208,5.421782400000001,-1.0735056,0.0,0.0,0.0,0.0
5.7,111.18890640000001,20.440192800000002,5.6930544,-0.0768096,0.0,0.0,0.0,0.0
5.720000000000001,109.2787248,20.8739232,4.8252888,-0.9201912000000001,0.0,0.0,0.0,0.0
5.74,107.6986416,20.8739232,4.2833544,-0.30662880000000003,0.0,0.0,0.0,0.0
5.76,106.4837088,20.8739232,5.367528,-0.4599432,0.0,0.0,0.0,0.0
5.78,105.6308784,19.518477600000004,4.445812800000001,-0.3834384,0.0,0.0,0.0,0.0
5.800000000000001,105.2142168,21.3076536,4.1748456,-1.6102584000000002,0.0,0.0,0.0,0.0
5.82,105.24347759999999,21.849892800000003,5.6930544,0.0768096,0.0,0.0,0.0,0.0
5.84,105.88111920000001,22.825862400000002,4.3915584,-0.7668768,0.0,0.0,0.0,0.0
5.86,106.73699760000001,21.5246712,5.476036800000001,-0.6135624,0.0,0.0,0.0,0.0
5.880000000000001,107.6928504,21.904147200000004,3.578352,-0.15331440000000002,0.0,0.0,0.0,0.0
5.9,108.89406720000001,20.9281776,6.2892432000000005,0.3834384,0.0,0.0,0.0,0.0
5.92,110.22330000000001,20.0607168,3.6868608000000003,0.3834384,0.0,0.0,0.0,0.0
5.94,111.4723704,20.982432000000003,3.4158936000000004,-1.3801344,0.0,0.0,0.0,0.0
5.96,112.7884968,19.952208,5.638800000000001,-0.8433816000000001,0.0,0.0,0.0,0.0
5.98,114.3112776,19.789749600000004,4.8252888,-0.6900672,0.0,0.0,0.0,0.0
6.0,115.7343888,19.0847472,4.2291,-1.0735056,0.0,0.0,0.0,0.0
6.0200000000000005,117.1782264,18.976543200000002,4.120591200000001,-0.996696,0.0,0.0,0.0,0.0
6.04,118.6485816,20.22348,3.957828,-0.996696,0.0,0.0,0.0,0.0
6.0600000000000005,120.15185520000001,18.9222888,5.5845456,-0.9201912000000001,0.0,0.0,0.0,0.0
6.08,121.4182992,19.0847472,3.7953696000000003,0.15331440000000002,0.0,0.0,0.0,0.0
6.1000000000000005,122.5811112,18.9222888,3.957828,-0.3834384,0.0,0.0,0.0,0.0
6.12,123.8999808,18.217286400000003,3.7953696000000003,0.23012400000000002,0.0,0.0,0.0,0.0
6.140000000000001,125.1966,18.5967624,3.3073848000000003,-0.4599432,0.0,0.0,0.0,0.0
6.16,126.4115328,17.9463192,3.0903671999999998,-0.23012400000000002,0.0,0.0,0.0,0.0
6.18,127.4188968,16.6993824,2.1686520000000002,-0.15331440000000002,0.0,0.0,0.0,0.0
6.2,128.3805408,17.2955712,2.9818584,-0.6135624,0.0,0.0,0.0,0.0
6.220000000000001,129.4214328,17.40408,4.3915584,-0.15331440000000002,0.0,0.0,0.0,0.0
6.24,130.3760664,16.373856,3.578352,-0.5367528,0.0,0.0,0.0,0.0
6.26,131.3468544,16.6993824,3.6868608000000003,-1.2268200000000002,0.0,0.0,0.0,0.0
6.28,132.2411376,16.5366192,2.2229064000000003,-1.2268200000000002,0.0,0.0,0.0,0.0
6.300000000000001,133.1329824,16.373856,3.9035736000000005,-0.0768096,0.0,0.0,0.0,0.0
6.32,133.9666104,16.2653472,2.6023824,-0.996696,0.0,0.0,0.0,0.0
6.34,134.93953199999999,15.3978864,4.8795432000000005,-0.23012400000000002,0.0,0.0,0.0,0.0
6.36,135.8838024,15.9401256,2.2771608000000003,-0.996696,0.0,0.0,0.0,0.0
6.380000000000001,136.8253296,15.7234128,2.7108912000000003,-1.3801344,0.0,0.0,0.0,0.0
6.4,137.55624,15.018410400000002,2.8736544000000004,-1.1500104,0.0,0.0,0.0,0.0
6.42,138.146028,15.0726648,2.2771608000000003,-0.6900672,0.0,0.0,0.0,0.0
6.44,138.651996,14.693188800000001,2.8736544000000004,0.0768096,0.0,0.0,0.0,0.0
6.46,139.3524264,14.855952000000002,2.2771608000000003,0.0,0.0,0.0,0.0,0.0
6.48,140.151612,15.018410400000002,2.8736544000000004,0.0768096,0.0,0.0,0.0,0.0
6.5,141.0154152,14.8016976,4.0663368,-0.7668768,0.0,0.0,0.0,0.0
6.5200000000000005,141.7963128,14.747443200000001,0.9759696,-0.9201912000000001,0.0,0.0,0.0,0.0
6.54,142.3925016,14.0424408,2.9818584,-0.6135624,0.0,0.0,0.0,0.0
6.5600000000000005,142.939008,14.205204,1.5182088,-0.7668768,0.0,0.0,0.0,0.0
6.58,143.50989840000003,13.446252000000001,1.4097000000000002,-0.5367528,0.0,0.0,0.0,0.0
6.6000000000000005,144.1828968,13.7172192,2.0061936,-0.3834384,0.0,0.0,0.0,0.0
6.62,145.0079904,13.283488800000002,2.4399240000000004,-0.6900672,0.0,0.0,0.0,0.0
6.640000000000001,145.7943744,13.229234400000001,1.6264128000000002,-0.996696,0.0,0.0,0.0,0.0
6.66,146.38782,13.174980000000001,4.608576,-0.23012400000000002,0.0,0.0,0.0,0.0
6.68,147.046188,12.6327408,1.5724632,-0.5367528,0.0,0.0,0.0,0.0
6.7,147.7963008,12.6327408,2.7651456,0.0768096,0.0,0.0,0.0,0.0
6.720000000000001,148.44278160000002,12.199010400000002,2.4399240000000004,-0.30662880000000003,0.0,0.0,0.0,0.0
6.74,149.074632,12.7412496,1.3554456000000001,-0.7668768,0.0,0.0,0.0,0.0
6.76,149.7265992,12.361773600000001,1.9519392,-0.6135624,0.0,0.0,0.0,0.0
6.78,150.31852080000002,12.199010400000002,1.789176,-0.7668768,0.0,0.0,0.0,0.0
6.800000000000001,151.0076736,12.2532648,2.4941784,-0.5367528,0.0,0.0,0.0,0.0
6.82,151.79375280000002,11.8195344,2.6023824,0.15331440000000002,0.0,0.0,0.0,0.0
6.84,152.5008888,11.385804,2.8194000000000004,0.30662880000000003,0.0,0.0,0.0,0.0
6.86,153.18120240000002,11.657076,2.3314152,-0.4599432,0.0,0.0,0.0,0.0
6.880000000000001,153.7953744,11.3315496,1.4639544,-0.7668768,0.0,0.0,0.0,0.0
6.9,154.439112,10.952073600000002,1.9519392,-0.6900672,0.0,0.0,0.0,0.0
6.92,155.1075384,10.8978192,2.4399240000000004,-0.15331440000000002,0.0,0.0,0.0,0.0
6.94,155.888436,10.8978192,2.8736544000000004,0.0768096,0.0,0.0,0.0,0.0
6.960000000000001,156.60837360000002,10.3013256,2.3856696,-0.5367528,0.0,0.0,0.0,0.0
6.98,157.42158,10.626852000000001,2.7108912000000003,-0.6900672,0.0,0.0,0.0,0.0
7.0,158.19059040000002,10.4098344,1.4097000000000002,-0.5367528,0.0,0.0,0.0,0.0
7.0200000000000005,158.97514560000002,10.355580000000002,1.6806672000000002,0.0768096,0.0,0.0,0.0,0.0
7.04,159.7459848,10.138867200000002,1.6806672000000002,-0.5367528,0.0,0.0,0.0,0.0
7.0600000000000005,160.48482,10.0303584,1.789176,-0.8433816000000001,0.0,0.0,0.0,0.0
7.08,161.207196,10.3013256,1.8434304000000001,-0.6900672,0.0,0.0,0.0,0.0
7.1,161.929572,10.138867200000002,1.6806672000000002,-0.30662880000000003,0.0,0.0,0.0,0.0
7.12,162.6489,9.596628,2.1143976,-0.30662880000000003,0.0,0.0,0.0,0.0
7.140000000000001,163.3557312,9.7593912,1.1926824,-0.5367528,0.0,0.0,0.0,0.0
7.16,164.03452080000002,9.379915200000001,1.1387328,-0.6135624,0.0,0.0,0.0,0.0
7.18,164.6489976,9.5423736,1.5182088,0.0,0.0,0.0,0.0,0.0
7.2,165.40490160000002,9.4338648,1.3011912,-0.23012400000000002,0.0,0.0,0.0,0.0
7.220000000000001,166.0477248,9.0001344,2.2771608000000003,-0.30662880000000003,0.0,0.0,0.0,0.0
7.24,166.65519120000002,9.1628976,1.6806672000000002,-0.3834384,0.0,0.0,0.0,0.0
7.26,167.38122479999998,9.108643200000001,1.3011912,-0.9201912000000001,0.0,0.0,0.0,0.0
7.28,167.9679648,8.6206584,1.030224,-0.5367528,0.0,0.0,0.0,0.0
7.300000000000001,168.55165680000002,8.837676,1.2469368,-0.3834384,0.0,0.0,0.0,0.0
7.32,169.1222424,8.4582,0.9759696,0.0,0.0,0.0,0.0,0.0
7.34,169.7556168,8.3496912,1.6264128000000002,-0.3834384,0.0,0.0,0.0,0.0
7.36,170.38259040000003,8.1326736,1.0844784,-0.4599432,0.0,0.0,0.0,0.0
7.380000000000001,171.0790584,8.6749128,1.9519392,-0.7668768,0.0,0.0,0.0,0.0
7.4,171.86605200000002,8.1326736,1.5182088,-0.15331440000000002,0.0,0.0,0.0,0.0
7.42,172.5524616,7.807452,2.0601432,0.0,0.0,0.0,0.0,0.0
7.44,173.1449928,7.6989432,0.7589520000000001,-0.6900672,0.0,0.0,0.0,0.0
7.460000000000001,173.78232960000003,7.5904344,1.3011912,-0.6135624,0.0,0.0,0.0,0.0
7.48,174.4394784,7.753197600000001,0.8132064000000001,-0.3834384,0.0,0.0,0.0,0.0
7.5,174.94727520000004,7.807452,1.7349216,-0.15331440000000002,0.0,0.0,0.0,0.0
7.5200000000000005,175.5370632,7.4822304,0.650748,-0.3834384,0.0,0.0,0.0,0.0
7.54,176.0957616,7.3194672,1.789176,-0.23012400000000002,0.0,0.0,0.0,0.0
7.5600000000000005,176.7303552,7.5364848,1.4639544,-0.5367528,0.0,0.0,0.0,0.0
7.58,177.40091520000001,7.3194672,1.2469368,-0.4599432,0.0,0.0,0.0,0.0
7.6,178.001676,7.210958400000001,0.9217152000000001,-0.6135624,0.0,0.0,0.0,0.0
7.62,178.5515352,7.1024496,1.8976848000000002,-0.15331440000000002,0.0,0.0,0.0,0.0
7.640000000000001,179.08950719999999,7.048500000000001,0.8674608,-0.23012400000000002,0.0,0.0,0.0,0.0
7.66,179.62046880000003,6.777228,0.4879848,0.0,0.0,0.0,0.0,0.0
7.68,180.18922560000001,7.048500000000001,0.5422392,-0.4599432,0.0,0.0,0.0,0.0
7.7,180.6994608,6.506260800000001,1.1926824,0.0768096,0.0,0.0,0.0,0.0
7.720000000000001,181.2365184,6.506260800000001,1.7349216,-0.3834384,0.0,0.0,0.0,0.0
7.74,181.825392,6.7229735999999995,0.4337304,-0.5367528,0.0,0.0,0.0,0.0
7.76,182.2972224,6.7229735999999995,1.5182088,-0.4599432,0.0,0.0,0.0,0.0
7.78,182.7187608,6.397752,0.8674608,-0.30662880000000003,0.0,0.0,0.0,0.0
7.800000000000001,183.2375304,6.0725304,1.8434304000000001,0.0768096,0.0,0.0,0.0,0.0
7.82,183.7337448,6.7229735999999995,0.4337304,-0.30662880000000003,0.0,0.0,0.0,0.0
7.84,184.28208,6.4520064,0.9217152000000001,-0.30662880000000003,0.0,0.0,0.0,0.0
7.86,184.86638160000004,6.0725304,1.0844784,-0.3834384,0.0,0.0,0.0,0.0
7.880000000000001,185.44428240000002,6.018276,1.1387328,-0.5367528,0.0,0.0,0.0,0.0
7.9,185.9971896,5.9097672,0.7046976,-0.3834384,0.0,0.0,0.0,0.0
7.92,186.5674704,5.6930544,1.1387328,-0.15331440000000002,0.0,0.0,0.0,0.0
7.94,187.1042232,5.5845456,1.2469368,-0.4599432,0.0,0.0,0.0,0.0
7.960000000000001,187.6251264,5.476036800000001,0.9217152000000001,-0.5367528,0.0,0.0,0.0,0.0
7.98,188.16523200000003,5.9097672,1.1387328,-0.4599432,0.0,0.0,0.0,0.0
8.0,188.5800648,5.476036800000001,1.1387328,-0.4599432,0.0,0.0,0.0,0.0
8.02,188.9659416,5.5302912,0.7589520000000001,-0.6900672,0.0,0.0,0.0,0.0
8.04,189.43716240000003,5.3132736,1.3011912,0.0,0.0,0.0,0.0,0.0
8.06,189.94739760000002,5.259324,0.4879848,-0.15331440000000002,0.0,0.0,0.0,0.0
8.08,190.399416,5.3132736,0.8674608,0.0,0.0,0.0,0.0,0.0
8.1,190.960248,5.1508152,1.030224,-0.0768096,0.0,0.0,0.0,0.0
8.120000000000001,191.5128504,5.421782400000001,0.8674608,-0.4599432,0.0,0.0,0.0,0.0
8.14,192.0465552,5.367528,0.8132064000000001,-0.30662880000000003,0.0,0.0,0.0,0.0
8.16,192.54063600000003,4.933797600000001,1.030224,-0.15331440000000002,0.0,0.0,0.0,0.0
8.18,193.1602944,4.988052,0.9759696,-0.3834384,0.0,0.0,0.0,0.0
8.2,193.68241680000003,4.8252888,0.2709672,-0.3834384,0.0,0.0,0.0,0.0
8.22,194.2472112,4.8252888,0.8132064000000001,-0.5367528,0.0,0.0,0.0,0.0
8.24,194.6151048,4.7713392,0.7589520000000001,-0.15331440000000002,0.0,0.0,0.0,0.0
8.26,195.1997112,4.608576,0.5964936000000001,-0.0768096,0.0,0.0,0.0,0.0
8.280000000000001,195.67672320000003,4.554321600000001,0.650748,-0.23012400000000002,0.0,0.0,0.0,0.0
8.3,196.1333136,4.554321600000001,0.9759696,0.15331440000000002,0.0,0.0,0.0,0.0
8.32,196.720968,4.5000672,1.1387328,-0.0768096,0.0,0.0,0.0,0.0
8.34,197.21565840000002,4.5000672,0.5964936000000001,-0.15331440000000002,0.0,0.0,0.0,0.0
8.36,197.80056960000002,4.5000672,0.7046976,-0.15331440000000002,0.0,0.0,0.0,0.0
8.38,198.33762720000001,4.3915584,0.8132064000000001,-0.23012400000000002,0.0,0.0,0.0,0.0
8.4,198.8310984,4.2833544,0.5964936000000001,-0.3834384,0.0,0.0,0.0,0.0
8.42,199.2761064,4.2833544,0.5964936000000001,-0.23012400000000002,0.0,0.0,0.0,0.0
8.440000000000001,199.83571920000003,4.0663368,0.7046976,-0.15331440000000002,0.0,0.0,0.0,0.0
8.46,200.34564960000003,4.3376088,0.650748,-0.15331440000000002,0.0,0.0,0.0,0.0
8.48,200.7802944,4.120591200000001,0.7589520000000001,-0.15331440000000002,0.0,0.0,0.0,0.0
8.5,201.26462160000003,4.0663368,0.4879848,-0.0768096,0.0,0.0,0.0,0.0
8.52,201.71542080000003,4.0663368,0.4879848,-0.15331440000000002,0.0,0.0,0.0,0.0
8.54,202.24242,3.957828,0.5964936000000001,-0.15331440000000002,0.0,0.0,0.0,0.0
8.56,202.61671440000003,3.8496240000000004,1.2469368,-0.15331440000000002,0.0,0.0,0.0,0.0
8.58,203.2272288,3.6868608000000003,0.9759696,-0.30662880000000003,0.0,0.0,0.0,0.0
8.6,203.67467520000002,4.012082400000001,0.9759696,-0.23012400000000002,0.0,0.0,0.0,0.0
8.620000000000001,204.051408,3.9035736000000005,0.3252216,-0.5367528,0.0,0.0,0.0,0.0
8.64,204.44703840000003,3.9035736000000005,0.4337304,-0.3834384,0.0,0.0,0.0,0.0
8.66,204.897228,3.4698432,0.5422392,-0.4599432,0.0,0.0,0.0,0.0
8.68,205.27670400000002,3.6326064,0.4879848,-0.30662880000000003,0.0,0.0,0.0,0.0
8.7,205.60954560000002,3.5240976,0.5964936000000001,-0.23012400000000002,0.0,0.0,0.0,0.0
8.72,205.9393392,3.4698432,0.650748,-0.3834384,0.0,0.0,0.0,0.0
8.74,206.32552080000002,3.3616392,0.4337304,0.15331440000000002,0.0,0.0,0.0,0.0
8.76,206.68792800000003,3.4698432,0.2170176,0.0768096,0.0,0.0,0.0,0.0
8.780000000000001,207.04972560000002,3.3616392,0.2170176,0.0768096,0.0,0.0,0.0,0.0
8.8,207.3594024,3.198876,0.37947600000000004,0.15331440000000002,0.0,0.0,0.0,0.0
8.82,207.6867576,3.2531304000000003,0.5422392,-0.0768096,0.0,0.0,0.0,0.0
8.84,207.9394368,3.3073848000000003,0.5964936000000001,-0.15331440000000002,0.0,0.0,0.0,0.0
8.86,208.31251200000003,3.1446216000000002,0.5422392,-0.0768096,0.0,0.0,0.0,0.0
8.879999999999999,208.61914080000003,3.0903671999999998,0.5964936000000001,-0.0768096,0.0,0.0,0.0,0.0
8.9,208.9684416,3.2531304000000003,0.5422392,-0.30662880000000003,0.0,0.0,0.0,0.0
8.92,209.3143896,3.198876,0.37947600000000004,-0.15331440000000002,0.0,0.0,0.0,0.0
8.940000000000001,209.70209520000003,2.9818584,0.4879848,-0.23012400000000002,0.0,0.0,0.0,0.0
8.96,210.1172328,2.8736544000000004,0.37947600000000004,-0.3834384,0.0,0.0,0.0,0.0
8.98,210.45799920000002,3.0903671999999998,0.4879848,-0.23012400000000002,0.0,0.0,0.0,0.0
9.0,210.833208,2.9818584,0.4879848,0.0,0.0,0.0,0.0,0.0
9.02,211.21146480000002,3.198876,-0.0542544,-0.30662880000000003,0.0,0.0,0.0,0.0
9.04,211.55436480000003,2.9279088,0.2170176,-0.23012400000000002,0.0,0.0,0.0,0.0
9.06,211.95273840000002,2.8194000000000004,0.3252216,-0.0768096,0.0,0.0,0.0,0.0
9.08,212.3044776,2.7651456,0.2709672,-0.0768096,0.0,0.0,0.0,0.0
9.100000000000001,212.6092776,2.9818584,-0.0542544,-0.0768096,0.0,0.0,0.0,0.0
9.120000000000001,212.9265744,2.7651456,0.2709672,-0.30662880000000003,0.0,0.0,0.0,0.0
9.14,213.3792024,2.7651456,0.16276320000000002,-0.30662880000000003,0.0,0.0,0.0,0.0
9.16,213.74465759999998,2.8194000000000004,0.3252216,-0.23012400000000002,0.0,0.0,0.0,0.0
9.18,214.10371200000003,2.7651456,0.2709672,-0.30662880000000003,0.0,0.0,0.0,0.0
9.2,214.43381040000003,2.7651456,0.16276320000000002,-0.30662880000000003,0.0,0.0,0.0,0.0
9.22,214.8309648,2.7651456,0.37947600000000004,-0.15331440000000002,0.0,0.0,0.0,0.0
9.24,215.1936768,2.6566368,0.16276320000000002,-0.0768096,0.0,0.0,0.0,0.0
9.260000000000002,215.6298456,2.548128,0.0542544,-0.23012400000000002,0.0,0.0,0.0,0.0
9.280000000000001,215.9703072,2.6023824,0.1085088,-0.0768096,0.0,0.0,0.0,0.0
9.3,216.2367024,2.4941784,0.0,-0.0768096,0.0,0.0,0.0,0.0
9.32,216.5652768,2.548128,-0.0542544,0.0768096,0.0,0.0,0.0,0.0
9.34,216.8146032,2.4399240000000004,-0.16276320000000002,0.23012400000000002,0.0,0.0,0.0,0.0
9.36,217.0017504,2.4941784,0.0,0.0768096,0.0,0.0,0.0,0.0
9.379999999999999,217.2724128,2.4941784,-0.1085088,0.0,0.0,0.0,0.0,0.0
9.4,217.52692080000003,2.548128,0.0542544,-0.15331440000000002,0.0,0.0,0.0,0.0
9.42,217.7655792,2.4941784,0.2170176,-0.15331440000000002,0.0,0.0,0.0,0.0
9.440000000000001,217.9399248,2.2229064000000003,0.0542544,-0.15331440000000002,0.0,0.0,0.0,0.0
9.46,218.22308400000003,2.548128,0.16276320000000002,-0.23012400000000002,0.0,0.0,0.0,0.0
9.48,218.5291032,2.548128,0.16276320000000002,-0.0768096,0.0,0.0,0.0,0.0
9.5,218.7997656,2.4941784,0.0,-0.15331440000000002,0.0,0.0,0.0,0.0
9.52,219.084144,2.4941784,0.1085088,0.0,0.0,0.0,0.0,0.0
9.54,219.4547808,2.3314152,0.37947600000000004,0.0,0.0,0.0,0.0,0.0
9.56,219.66356880000004,2.3856696,0.1085088,0.0768096,0.0,0.0,0.0,0.0
9.58,219.99183840000003,2.2229064000000003,0.0542544,-0.0768096,0.0,0.0,0.0,0.0
9.600000000000001,220.30547760000002,2.2771608000000003,-0.1085088,0.0768096,0.0,0.0,0.0,0.0
9.620000000000001,220.5785784,2.2229064000000003,0.0542544,-0.0768096,0.0,0.0,0.0,0.0
9.64,220.801692,2.2771608000000003,0.0,0.0,0.0,0.0,0.0,0.0
9.66,221.034864,2.1686520000000002,-0.3252216,0.0,0.0,0.0,0.0,0.0
9.68,221.29242,2.0601432,-0.1085088,0.15331440000000002,0.0,0.0,0.0,0.0
9.7,221.5579008,1.9519392,-0.1085088,0.23012400000000002,0.0,0.0,0.0,0.0
9.72,221.821248,2.2771608000000003,-0.2170176,0.0,0.0,0.0,0.0,0.0
9.74,222.0105288,2.1686520000000002,-0.1085088,-0.0768096,0.0,0.0,0.0,0.0
9.760000000000002,222.2287656,2.0601432,-0.1085088,-0.15331440000000002,0.0,0.0,0.0,0.0
9.780000000000001,222.4210944,1.8434304000000001,0.0,0.15331440000000002,0.0,0.0,0.0,0.0
9.8,222.6993768,2.1143976,-0.2709672,0.0,0.0,0.0,0.0,0.0
9.82,223.01057760000003,1.9519392,0.0,-0.0768096,0.0,0.0,0.0,0.0
9.84,223.22942400000002,2.0601432,0.0,0.0768096,0.0,0.0,0.0,0.0
9.86,223.38731040000002,2.0061936,-0.16276320000000002,-0.15331440000000002,0.0,0.0,0.0,0.0
9.879999999999999,223.5714096,2.1143976,-0.16276320000000002,-0.0768096,0.0,0.0,0.0,0.0
9.9,223.82408880000003,2.0061936,-0.2709672,-0.0768096,0.0,0.0,0.0,0.0
9.92,224.10663840000004,1.8976848000000002,-0.0542544,-0.0768096,0.0,0.0,0.0,0.0
9.940000000000001,224.2562952,1.9519392,-0.2170176,-0.15331440000000002,0.0,0.0,0.0,0.0
9.96,224.4327744,1.8976848000000002,-0.0542544,0.0768096,0.0,0.0,0.0,0.0
9.98,224.6232744,1.9519392,-0.2170176,-0.15331440000000002,0.0,0.0,0.0,0.0
10.0,224.7622632,2.0061936,-0.0542544,-0.0768096,0.0,0.0,0.0,0.0
10.02,225.0265248,1.8976848000000002,-0.16276320000000002,0.0,0.0,0.0,0.0,0.0
10.04,225.1539312,1.789176,-0.16276320000000002,-0.0768096,0.0,0.0,0.0,0.0
10.06,225.3166944,1.8434304000000001,-0.1085088,0.0,0.0,0.0,0.0,0.0
10.08,225.4511112,1.7349216,0.1085088,0.0768096,0.0,0.0,0.0,0.0
10.100000000000001,225.5431608,1.2469368,-0.0542544,-0.23012400000000002,0.0,0.0,0.0,0.0
10.120000000000001,225.7373184,-5.7470040000000004,0.7589520000000001,-1.3801344,0.0,0.0,0.0,0.0
10.14,225.88423200000003,221.9696856,0.0,156.9561504,0.0,0.0,0.0,0.0
10.16,226.02626880000003,26.2960104,1.1387328,49.456238400000004,0.0,0.0,0.0,0.0
10.18,226.1634288,221.9696856,0.0,-49.0728,0.0,0.0,0.0,0.0
10.2,226.29571200000004,24.7778016,-0.8132064000000001,-74.83602,0.0,0.0,0.0,0.0
10.22,226.4231184,53.404922400000004,-10.138867200000002,-157.03296000000003,0.0,0.0,0.0,0.0
10.24,226.545648,-14.693188800000001,57.0917832,71.99894160000001,0.0,0.0,0.0,0.0
10.260000000000002,226.8141768,100.62911040000002,103.55701920000001,-11.1181896,0.0,0.0,0.0,0.0
10.280000000000001,227.02266000000003,38.4407664,-2.7651456,62.1078768,0.0,0.0,0.0,0.0
10.3,227.1942624,23.6933232,-7.753197600000001,-23.079456,0.0,0.0,0.0,0.0
10.32,227.31496320000002,60.832898400000005,31.3383168,63.564516,0.0,0.0,0.0,0.0
10.34,227.3707416,25.1030232,29.115105600000003,-27.986736,0.0,0.0,0.0,0.0
10.36,227.3756184,56.7665616,17.40408,-26.913230400000003,0.0,0.0,0.0,0.0
10.379999999999999,226.72974720000002,2.2229064000000003,55.8991008,-21.086064000000004,0.0,0.0,0.0,0.0
10.4,226.859592,-15.6691584,16.5366192,-41.4052512,0.0,0.0,0.0,0.0
10.42,226.9446312,-41.476879200000006,-38.765988,-85.26383760000002,0.0,0.0,0.0,0.0
10.440000000000001,226.934268,-8.295436800000001,3.0903671999999998,17.17548,0.0,0.0,0.0,0.0
10.46,226.9869984,-35.8926384,17.1331128,6.2109096,0.0,0.0,0.0,0.0
10.48,226.989132,-1.4639544,-20.22348,-25.993344,0.0,0.0,0.0,0.0
10.5,226.54320959999998,-7.4822304,-14.421916800000002,15.948660000000002,0.0,0.0,0.0,0.0
10.52,226.3204008,-21.470416800000002,-1.7349216,-16.4086032,0.0,0.0,0.0,0.0
10.54,226.2731568,-5.638800000000001,-4.988052,-11.7314472,0.0,0.0,0.0,0.0
10.56,226.11252720000002,-5.638800000000001,-5.7470040000000004,-4.523841600000001,0.0,0.0,0.0,0.0
10.58,226.1503224,-9.1628976,3.4158936000000004,5.2907184,0.0,0.0,0.0,0.0
10.600000000000001,226.20732,-17.1870624,9.9218496,1.8400776,0.0,0.0,0.0,0.0
10.620000000000001,226.26401280000002,-19.572732000000002,8.6206584,0.30662880000000003,0.0,0.0,0.0,0.0
10.64,226.32436320000002,-0.9759696,-0.7589520000000001,12.498324000000002,0.0,0.0,0.0,0.0
10.66,226.3923336,-11.928043200000001,-4.988052,20.089063200000002,0.0,0.0,0.0,0.0
10.68,226.4462832,-15.8316168,-6.1807343999999995,-20.3959968,0.0,0.0,0.0,0.0
10.7,226.4828592,-10.4640888,2.7651456,-2.3003256,0.0,0.0,0.0,0.0
10.72,226.50480480000002,-0.9217152000000001,5.259324,5.903976000000001,0.0,0.0,0.0,0.0
10.74,226.51973999999998,-8.7834216,5.096560800000001,3.2205168000000004,0.0,0.0,0.0,0.0
10.760000000000002,226.53345600000003,0.37947600000000004,1.4639544,0.3834384,0.0,0.0,0.0,0.0
10.780000000000001,226.5422952,1.6806672000000002,4.7170848,3.68046,0.0,0.0,0.0,0.0
10.8,226.5621072,1.3554456000000001,4.2833544,1.3036296,0.0,0.0,0.0,0.0
10.82,226.59472080000003,1.030224,3.198876,-1.2268200000000002,0.0,0.0,0.0,0.0
10.84,226.6316016,-42.940833600000005,-39.9047208,156.9561504,0.0,0.0,0.0,0.0
10.86,226.659948,-22.6630992,-29.820108,-77.28966,0.0,0.0,0.0,0.0
10.879999999999999,226.67671200000004,36.434572800000005,25.157277600000004,102.36281280000001,0.0,0.0,0.0,0.0
10.9,226.5163872,-11.2230408,19.898258400000003,77.44297440000001,0.0,0.0,0.0,0.0
10.92,226.53619920000003,-33.181747200000004,29.2778688,21.392692800000003,0.0,0.0,0.0,0.0
10.940000000000001,226.42494720000002,-62.51356560000001,-15.994380000000001,-12.114885600000001,0.0,0.0,0.0,0.0
10.96,226.4289096,-8.241182400000001,3.7953696000000003,0.3834384,0.0,0.0,0.0,0.0
10.98,226.43592,10.4640888,2.9818584,-3.0672024,0.0,0.0,0.0,0.0
11.0,226.44567360000002,9.813645600000001,1.8976848000000002,-0.9201912000000001,0.0,0.0,0.0,0.0
11.02,226.41732720000002,-147.7447896,-47.00717040000001,-26.683411200000002,0.0,0.0,0.0,0.0
11.04,226.4401872,9.0543888,5.5845456,-0.8433816000000001,0.0,0.0,0.0,0.0
11.06,226.4566464,-21.3076536,-24.9945144,-6.2874144,0.0,0.0,0.0,0.0
11.08,226.48926000000003,-19.0304928,-8.4039456,13.9549632,0.0,0.0,0.0,0.0
11.100000000000001,226.53619920000003,3.957828,6.777228,-4.1404032,0.0,0.0,0.0,0.0
11.120000000000001,226.5657648,3.4698432,4.120591200000001,-1.5334488,0.0,0.0,0.0,0.0
11.14,226.5834432,1.030224,3.4158936000000004,-3.910584,0.0,0.0,0.0,0.0
11.16,226.59472080000003,-7.5364848,18.488558400000002,-17.8655472,0.0,0.0,0.0,0.0
11.18,226.6145328,16.590873600000002,-11.4943128,65.6347176,0.0,0.0,0.0,0.0
11.2,226.6212384,-6.2892432000000005,-33.0732384,-53.596641600000005,0.0,0.0,0.0,0.0
11.22,226.52309280000003,-21.5246712,28.1394408,8.58774,0.0,0.0,0.0,0.0
11.24,226.5270552,10.138867200000002,-62.94729600000001,36.6512856,0.0,0.0,0.0,0.0
11.260000000000002,226.65354720000002,-20.602956,13.446252000000001,16.3320984,0.0,0.0,0.0,0.0
11.280000000000001,226.5279696,-2.1143976,3.3073848000000003,1.7635728,0.0,0.0,0.0,0.0
11.3,226.4444544,-2.3856696,2.4941784,2.8370784000000002,0.0,0.0,0.0,0.0
11.32,226.35057600000002,-15.8316168,4.3376088,8.58774,0.0,0.0,0.0,0.0
11.34,226.32710640000002,1.7349216,19.518477600000004,-7.2841104,0.0,0.0,0.0,0.0
11.36,226.2524304,1.030224,-2.1143976,-3.910584,0.0,0.0,0.0,0.0
11.379999999999999,226.2076248,-6.506260800000001,3.0361128,45.0089016,0.0,0.0,0.0,0.0
11.4,226.2161592,5.0423064,2.4399240000000004,-3.0672024,0.0,0.0,0.0,0.0
11.42,226.2036624,5.367528,2.2229064000000003,-3.5271456,0.0,0.0,0.0,0.0
11.440000000000001,226.128072,3.957828,4.7170848,-1.8400776,0.0,0.0,0.0,0.0
11.46,226.06650240000002,2.7651456,5.801258400000001,-2.3768304000000002,0.0,0.0,0.0,0.0
11.48,225.94854480000004,1.030224,3.198876,-1.6102584000000002,0.0,0.0,0.0,0.0
11.5,225.92202720000003,-4.2291,26.458468800000002,-8.1277968,0.0,0.0,0.0,0.0
11.52,225.8732592,-30.579060000000002,77.53228080000001,-13.111581600000001,0.0,0.0,0.0,0.0
11.54,225.7062288,21.0366864,-17.2413168,5.903976000000001,0.0,0.0,0.0,0.0
11.56,225.5965008,2.8194000000000004,-0.4337304,-0.30662880000000003,0.0,0.0,0.0,0.0
11.58,225.69190319999998,0.7046976,1.8976848000000002,0.3834384,0.0,0.0,0.0,0.0
11.600000000000001,225.7367088,2.3314152,0.37947600000000004,6.364224,0.0,0.0,0.0,0.0
11.620000000000001,225.73335600000001,6.9942456,-9.488119200000002,10.811256,0.0,0.0,0.0,0.0
11.64,225.713544,-1.7349216,2.6023824,-9.1244928,0.0,0.0,0.0,0.0
11.66,225.66721440000003,-13.012521600000001,11.277295200000001,-48.3059232,0.0,0.0,0.0,0.0
11.68,225.6684336,-4.012082400000001,26.349960000000003,-51.296316,0.0,0.0,0.0,0.0
11.7,225.6519744,-15.7234128,-7.2652128,45.0089016,0.0,0.0,0.0,0.0
11.72,225.51511920000002,-2.2771608000000003,-8.1326736,-50.1463056,0.0,0.0,0.0,0.0
11.74,225.4828104,-26.7836904,35.567112,27.066849600000005,0.0,0.0,0.0,0.0
11.760000000000002,225.3694248,4.7713392,7.915960800000001,-6.594043200000001,0.0,0.0,0.0,0.0
11.780000000000001,225.303588,-89.67703680000001,24.9405648,-2.9903928,0.0,0.0,0.0,0.0
11.8,225.1261944,3.4698432,-20.494447200000003,11.04138,0.0,0.0,0.0,0.0
11.82,224.9497152,-19.4102736,4.2291,-11.8082568,0.0,0.0,0.0,0.0
11.84,224.87930640000002,-28.247644800000003,-20.982432000000003,11.194694400000001,0.0,0.0,0.0,0.0
11.86,224.8028016,21.253704000000003,-77.20675440000001,-10.121188800000002,0.0,0.0,0.0,0.0
11.879999999999999,224.7125808,-9.596628,2.8736544000000004,10.9645704,0.0,0.0,0.0,0.0
11.9,224.6241888,-3.4698432,1.3011912,6.4407288000000005,0.0,0.0,0.0,0.0
11.92,224.5930992,-23.4766104,3.198876,-9.3546168,0.0,0.0,0.0,0.0
11.940000000000001,224.55195120000002,-19.518477600000004,-19.193256,1.2268200000000002,0.0,0.0,0.0,0.0
11.96,224.55103680000002,-26.4042144,-2.7651456,22.312884,0.0,0.0,0.0,0.0
11.98,224.5120224,-24.3983256,4.988052,-1.3801344,0.0,0.0,0.0,0.0
12.0,224.5601808,-6.397752,-4.445812800000001,6.747662400000001,0.0,0.0,0.0,0.0
12.02,224.5364064,7.5904344,3.4698432,9.2013024,0.0,0.0,0.0,0.0
12.04,224.46904560000002,12.6327408,5.6930544,11.8082568,0.0,0.0,0.0,0.0
12.06,224.3843112,19.952208,6.8314824000000005,16.178784,0.0,0.0,0.0,0.0
12.08,224.40991440000002,9.108643200000001,2.9279088,6.9774816,0.0,0.0,0.0,0.0
12.100000000000001,224.39101680000002,16.373856,3.2531304000000003,11.5781328,0.0,0.0,0.0,0.0
12.120000000000001,224.3715096,-2.2229064000000003,-7.1024496,-6.1341,0.0,0.0,0.0,0.0
12.14,224.26970640000002,3.4698432,-10.735360799999999,-13.418210400000001,0.0,0.0,0.0,0.0
12.16,224.16942720000003,-1.9519392,1.3011912,-3.5271456,0.0,0.0,0.0,0.0
12.18,224.07311040000002,-16.4281104,18.054828,-9.737750400000001,0.0,0.0,0.0,0.0
12.2,223.9332072,2.0061936,-11.76528,5.367223200000001,0.0,0.0,0.0,0.0
12.22,223.8439008,-12.8497584,6.4520064,4.1404032,0.0,0.0,0.0,0.0
12.24,223.7204568,-3.8496240000000004,8.6206584,-8.2811112,0.0,0.0,0.0,0.0
12.260000000000002,223.5445872,-29.440632,-9.813645600000001,-6.1341,0.0,0.0,0.0,0.0
12.280000000000001,223.3105008,-35.3503992,-19.193256,5.827471200000001,0.0,0.0,0.0,0.0
12.3,223.22424239999998,-24.072799200000002,16.590873600000002,-2.6069544000000002,0.0,0.0,0.0,0.0
12.32,223.1169528,-17.458334400000002,36.7600992,-10.734751200000002,0.0,0.0,0.0,0.0
12.34,223.1230488,-6.4520064,-2.1143976,-26.376477600000005,0.0,0.0,0.0,0.0
12.36,223.3068432,-3.3616392,3.0361128,-8.8943688,0.0,0.0,0.0,0.0
12.379999999999999,223.45314720000002,0.5964936000000001,2.9818584,-5.367223200000001,0.0,0.0,0.0,0.0
12.4,223.50770640000002,5.096560800000001,2.1686520000000002,-0.6900672,0.0,0.0,0.0,0.0
12.42,223.435164,9.488119200000002,22.0669104,3.7572696000000003,0.0,0.0,0.0,0.0
12.440000000000001,223.3632312,14.5304256,17.5668432,-2.3768304000000002,0.0,0.0,0.0,0.0
12.46,223.31812080000003,-15.181173600000001,48.5796336,9.584436,0.0,0.0,0.0,0.0
12.48,223.2074784,-6.0725304,56.9293248,13.1883912,0.0,0.0,0.0,0.0
12.5,223.26417120000002,37.1938296,-5.205069600000001,-58.503921600000005,0.0,0.0,0.0,0.0
12.52,223.17760800000002,12.4702824,-28.735629600000003,1.0735056,0.0,0.0,0.0,0.0
12.54,222.958152,-30.850332,58.609992,6.8241672,0.0,0.0,0.0,0.0
12.56,222.74113440000002,-36.163605600000004,5.367528,-69.7754256,0.0,0.0,0.0,0.0
12.58,222.5975736,-14.259458400000002,-1.4639544,-21.392692800000003,0.0,0.0,0.0,0.0
12.600000000000001,222.3924432,-2.4399240000000004,-1.4639544,3.450336,0.0,0.0,0.0,0.0
12.620000000000001,222.1845696,-12.144756000000001,-4.988052,-1.4569440000000002,0.0,0.0,0.0,0.0
12.64,221.99589840000002,-7.210958400000001,-6.5605152,2.5304496,0.0,0.0,0.0,0.0
12.66,221.8215528,-15.0726648,-2.6023824,-8.050987200000002,0.0,0.0,0.0,0.0
12.68,221.6926224,-24.832056,-0.3252216,-9.584436,0.0,0.0,0.0,0.0
12.7,221.6115456,-14.909901600000001,-1.8976848000000002,-5.5205376,0.0,0.0,0.0,0.0
12.72,221.53686960000002,-13.5005064,-0.2709672,-7.0542912,0.0,0.0,0.0,0.0
12.74,221.41769280000003,-10.626852000000001,-3.9035736000000005,-2.7602688,0.0,0.0,0.0,0.0
12.760000000000002,221.3088792,-10.4640888,-3.3073848000000003,-5.2907184,0.0,0.0,0.0,0.0
12.780000000000001,221.09277600000001,-7.2652128,-1.8434304000000001,-2.4536400000000005,0.0,0.0,0.0,0.0
12.8,220.9242216,-8.4582,-3.9035736000000005,-4.677156,0.0,0.0,0.0,0.0
12.82,220.69531680000003,-12.4702824,-2.4941784,-0.23012400000000002,0.0,0.0,0.0,0.0
12.84,220.5386496,-18.1087776,-4.8795432000000005,-0.5367528,0.0,0.0,0.0,0.0
12.86,220.448124,-20.494447200000003,-7.807452,-2.3003256,0.0,0.0,0.0,0.0
12.879999999999999,220.4030136,-15.8316168,-18.434304,-5.137404,0.0,0.0,0.0,0.0
12.899999999999999,220.312488,-21.7956384,-0.2170176,-13.878458400000001,0.0,0.0,0.0,0.0
12.920000000000002,220.36582800000002,-13.1207256,10.735360799999999,5.4440328000000004,0.0,0.0,0.0,0.0
12.940000000000001,220.4170344,-16.753332,3.7411152,0.23012400000000002,0.0,0.0,0.0,0.0
12.96,220.38350640000002,-17.6210976,2.4399240000000004,3.2970216000000003,0.0,0.0,0.0,0.0
12.98,220.300296,-15.506395200000002,0.7589520000000001,-0.7668768,0.0,0.0,0.0,0.0
13.0,220.3298616,-17.6210976,2.4399240000000004,3.910584,0.0,0.0,0.0,0.0
13.02,220.33382400000002,-14.0424408,-4.7170848,-3.2205168000000004,0.0,0.0,0.0,0.0
13.04,220.37802,-18.976543200000002,-5.3132736,-0.30662880000000003,0.0,0.0,0.0,0.0
13.059999999999999,220.2948096,-15.0726648,-5.8555128,0.3834384,0.0,0.0,0.0,0.0
13.080000000000002,220.19544480000002,-15.0726648,-4.6628304,-3.0672024,0.0,0.0,0.0,0.0
13.100000000000001,220.10522400000002,-13.662964800000001,-7.156704,-4.6006512,0.0,0.0,0.0,0.0
13.120000000000001,220.03572960000002,-25.5367536,-0.8132064000000001,-12.804952800000002,0.0,0.0,0.0,0.0
13.14,219.94246080000002,-23.6390688,7.915960800000001,-3.7572696000000003,0.0,0.0,0.0,0.0
13.16,219.815664,-12.036552,-5.096560800000001,3.2205168000000004,0.0,0.0,0.0,0.0
13.18,219.80591040000002,-15.8316168,2.0601432,-5.903976000000001,0.0,0.0,0.0,0.0
13.2,219.85833600000004,-11.7110256,3.3616392,3.2205168000000004,0.0,0.0,0.0,0.0
13.219999999999999,219.7757352,-3.0903671999999998,2.4399240000000004,-1.3036296,0.0,0.0,0.0,0.0
13.240000000000002,219.6660072,-2.7108912000000003,3.6868608000000003,-0.23012400000000002,0.0,0.0,0.0,0.0
13.260000000000002,219.542868,1.0844784,5.8555128,-2.8370784000000002,0.0,0.0,0.0,0.0
13.280000000000001,219.57913920000001,-4.3915584,14.693188800000001,-7.0542912,0.0,0.0,0.0,0.0
13.3,219.52427520000003,7.915960800000001,9.4338648,-2.683764,0.0,0.0,0.0,0.0
13.32,219.43070160000002,4.012082400000001,-36.21786,72.6890088,0.0,0.0,0.0,0.0
13.34,219.24142080000001,-28.410408,11.6028216,-14.72184,0.0,0.0,0.0,0.0
13.36,219.16278240000003,-4.0663368,13.608710400000001,32.8175112,0.0,0.0,0.0,0.0
13.379999999999999,218.98660800000002,-8.5121496,-23.259592800000004,-18.939052800000002,0.0,0.0,0.0,0.0
13.399999999999999,218.89455840000002,-1.4639544,-4.8252888,-3.5271456,0.0,0.0,0.0,0.0
13.420000000000002,218.8025088,-9.5423736,-1.4097000000000002,-2.5304496,0.0,0.0,0.0,0.0
13.440000000000001,218.71076399999998,-0.37947600000000004,-0.7046976,-3.2205168000000004,0.0,0.0,0.0,0.0
13.46,218.65864320000003,-0.5422392,-2.7108912000000003,-8.8943688,0.0,0.0,0.0,0.0
13.48,218.6427936,0.1085088,-2.0601432,-8.6645496,0.0,0.0,0.0,0.0
13.5,218.5845768,-11.982297599999999,1.6806672000000002,-8.741054400000001,0.0,0.0,0.0,0.0
13.52,218.45168400000003,-15.777667200000002,-11.76528,-0.30662880000000003,0.0,0.0,0.0,0.0
13.54,218.46479040000003,-23.6390688,0.4337304,-18.3254904,0.0,0.0,0.0,0.0
13.559999999999999,218.40230640000001,-12.361773600000001,0.1085088,-5.5205376,0.0,0.0,0.0,0.0
13.580000000000002,218.35780560000003,-11.873788800000002,6.5605152,-10.657941600000001,0.0,0.0,0.0,0.0
13.600000000000001,218.2374096,-9.7051368,11.76528,-11.8847616,0.0,0.0,0.0,0.0
13.620000000000001,218.1100032,-4.608576,11.5485672,-7.744358400000001,0.0,0.0,0.0,0.0
13.64,218.04416640000002,-5.259324,-1.8976848000000002,16.5622224,0.0,0.0,0.0,0.0
13.66,217.9981416,-0.7589520000000001,-1.1926824,0.3834384,0.0,0.0,0.0,0.0
13.68,218.0511768,-12.5787912,-1.5182088,-6.594043200000001,0.0,0.0,0.0,0.0
13.7,218.06032080000003,-15.506395200000002,-3.6868608000000003,-3.8337744,0.0,0.0,0.0,0.0
13.719999999999999,217.9603464,-15.506395200000002,-3.578352,-3.2970216000000003,0.0,0.0,0.0,0.0
13.740000000000002,217.8387312,-11.006328,-6.2349888,-5.2907184,0.0,0.0,0.0,0.0
13.760000000000002,217.61409360000002,-3.4698432,-4.7713392,-5.597347200000001,0.0,0.0,0.0,0.0
13.780000000000001,217.43487120000003,0.1085088,-3.6868608000000003,-5.367223200000001,0.0,0.0,0.0,0.0
13.8,217.3038072,14.58468,6.2349888,-23.2327704,0.0,0.0,0.0,0.0
13.82,217.12549920000004,-11.440058400000002,2.0061936,-5.750661600000001,0.0,0.0,0.0,0.0
13.84,217.0560048,-12.7412496,5.1508152,4.523841600000001,0.0,0.0,0.0,0.0
13.86,217.0499088,-8.8919304,-3.4698432,-2.7602688,0.0,0.0,0.0,0.0
13.879999999999999,216.9478008,-5.476036800000001,0.8132064000000001,5.137404,0.0,0.0,0.0,0.0
13.899999999999999,216.8121648,-4.608576,2.0061936,-0.30662880000000003,0.0,0.0,0.0,0.0
13.920000000000002,216.6399528,-3.6326064,3.198876,0.23012400000000002,0.0,0.0,0.0,0.0
13.940000000000001,216.5399784,-15.235428,7.210958400000001,2.3768304000000002,0.0,0.0,0.0,0.0
13.96,216.5037072,-7.5904344,-17.1331128,-3.450336,0.0,0.0,0.0,0.0
13.98,216.5564376,-27.9224232,-6.343497600000001,-2.5304496,0.0,0.0,0.0,0.0
14.0,216.569544,-20.602956,-0.650748,-0.5367528,0.0,0.0,0.0,0.0
14.02,216.462864,-12.5787912,-12.144756000000001,-10.428122400000001,0.0,0.0,0.0,0.0
14.04,216.3796536,-11.657076,-6.4520064,-0.9201912000000001,0.0,0.0,0.0,0.0
14.059999999999999,216.40068480000002,-10.0303584,0.7046976,-2.9903928,0.0,0.0,0.0,0.0
14.080000000000002,216.39611280000003,-0.16276320000000002,0.37947600000000004,-3.450336,0.0,0.0,0.0,0.0
14.100000000000001,216.40068480000002,2.4941784,-0.1085088,-2.9903928,0.0,0.0,0.0,0.0
14.120000000000001,216.343992,2.0061936,0.0542544,-3.3738312000000006,0.0,0.0,0.0,0.0
