time,baro_altitude,accl_x,accl_y,accl_z,gps_altitude,gyro_roll,gyro_pitch,gyro_yaw
0.0,0.0,8.241182400000001,-2.9279088,1.6867632000000001,0.0,0.0,0.0,0.0
0.020000000000000462,-0.1453896,8.241182400000001,-2.9279088,1.6867632000000001,0.0,0.0,0.0,0.0
0.040000000000000036,-0.04632959999999999,8.241182400000001,-2.9279088,1.7635728,0.0,0.0,0.0,0.0
0.0600000000000005,0.070104,8.241182400000001,-2.9279088,1.6867632000000001,0.0,0.0,0.0,0.0
0.08000000000000007,-0.08869679999999999,8.1326736,-2.9279088,1.6102584000000002,0.0,0.0,0.0,0.0
0.10000000000000053,-0.0832104,8.186928,-2.9818584,1.6867632000000001,0.0,0.0,0.0,0.0
0.1200000000000001,-0.06126480000000001,8.1326736,-3.0361128,1.7635728,0.0,0.0,0.0,0.0
0.14000000000000057,-0.1088136,8.241182400000001,-3.0361128,1.7635728,0.0,0.0,0.0,0.0
0.16000000000000014,-0.06187439999999999,8.186928,-2.9818584,1.8400776,0.0,0.0,0.0,0.0
0.1800000000000006,-0.071628,8.186928,-2.9818584,1.7635728,0.0,0.0,0.0,0.0
0.20000000000000018,0.0341376,8.186928,-2.9818584,1.6867632000000001,0.0,0.0,0.0,0.0
0.22000000000000064,0.006705600000000006,8.186928,-2.8736544000000004,1.8400776,0.0,0.0,0.0,0.0
0.2400000000000002,0.08260080000000002,8.241182400000001,-2.9279088,1.6102584000000002,0.0,0.0,0.0,0.0
0.2600000000000007,-0.039319200000000006,8.186928,-2.9818584,1.6867632000000001,0.0,0.0,0.0,0.0
0.28000000000000025,-0.004572000000000004,8.186928,-2.9818584,1.6867632000000001,0.0,0.0,0.0,0.0
0.3000000000000007,0.05730240000000002,8.186928,-2.9818584,1.6102584000000002,0.0,0.0,0.0,0.0
0.3200000000000003,-0.04419599999999999,8.1326736,-2.9279088,1.6867632000000001,0.0,0.0,0.0,0.0
0.34000000000000075,0.007010400000000007,8.241182400000001,-2.9279088,1.6867632000000001,0.0,0.0,0.0,0.0
0.3600000000000003,-0.2264664,8.186928,-2.9818584,1.6867632000000001,0.0,0.0,0.0,0.0
0.3800000000000008,-0.2298192,8.186928,-2.9818584,1.6102584000000002,0.0,0.0,0.0,0.0
0.40000000000000036,-0.2795016,8.186928,-2.9818584,1.8400776,0.0,0.0,0.0,0.0
0.4200000000000008,-0.33040320000000006,8.1326736,-3.0361128,1.6867632000000001,0.0,0.0,0.0,0.0
0.4400000000000004,-0.20177759999999997,8.1326736,-2.9279088,1.6867632000000001,0.0,0.0,0.0,0.0
0.46000000000000085,-0.06187439999999999,8.0784192,-2.9818584,1.7635728,0.0,0.0,0.0,0.0
0.4800000000000004,-0.1956816,8.241182400000001,-2.9279088,1.6867632000000001,0.0,0.0,0.0,0.0
0.5000000000000004,0.010058400000000009,8.295436800000001,-2.9818584,1.6867632000000001,0.0,0.0,0.0,0.0
0.5200000000000005,0.12527280000000002,8.186928,-2.8736544000000004,1.6867632000000001,0.0,0.0,0.0,0.0
0.5400000000000005,0.09509760000000002,8.241182400000001,-2.9279088,1.6867632000000001,0.0,0.0,0.0,0.0
0.5600000000000005,-0.1459992,8.186928,-2.9818584,1.6102584000000002,0.0,0.0,0.0,0.0
0.5800000000000005,-0.23804879999999998,8.186928,-2.8736544000000004,1.6867632000000001,0.0,0.0,0.0,0.0
0.6000000000000005,-0.27584400000000003,8.186928,-2.9818584,1.6867632000000001,0.0,0.0,0.0,0.0
0.6200000000000006,-0.3861816,8.241182400000001,-2.9279088,1.6867632000000001,0.0,0.0,0.0,0.0
0.6400000000000006,-0.41849040000000004,8.186928,-2.9818584,1.7635728,0.0,0.0,0.0,0.0
0.6600000000000006,-0.2398776,8.186928,-2.9818584,1.6867632000000001,0.0,0.0,0.0,0.0
0.6800000000000006,-0.1947672,8.241182400000001,-2.9279088,1.7635728,0.0,0.0,0.0,0.0
0.7000000000000006,-0.1240536,8.1326736,-2.9279088,1.7635728,0.0,0.0,0.0,0.0
0.7200000000000006,-0.11795760000000001,8.1326736,-2.9279088,1.6867632000000001,0.0,0.0,0.0,0.0
0.7400000000000002,-0.1786128,8.186928,-2.8736544000000004,1.7635728,0.0,0.0,0.0,0.0
0.7600000000000002,-0.0804672,8.186928,-2.9818584,1.6867632000000001,0.0,0.0,0.0,0.0
0.7800000000000002,0.028346399999999994,8.241182400000001,-2.9279088,1.6867632000000001,0.0,0.0,0.0,0.0
0.8000000000000003,0.09387840000000001,8.241182400000001,-2.9279088,1.6102584000000002,0.0,0.0,0.0,0.0
0.8200000000000003,-0.0566928,8.241182400000001,-2.9279088,1.6102584000000002,0.0,0.0,0.0,0.0
0.8400000000000003,-0.16154400000000002,8.241182400000001,-3.0361128,1.6867632000000001,0.0,0.0,0.0,0.0
0.8600000000000003,-0.0347472,8.186928,-2.9818584,1.6102584000000002,0.0,0.0,0.0,0.0
0.8800000000000003,-0.08382,8.186928,-2.9818584,1.7635728,0.0,0.0,0.0,0.0
0.9000000000000004,0.023774400000000022,8.1326736,-2.9279088,1.7635728,0.0,0.0,0.0,0.0
0.9200000000000004,-0.07528560000000001,8.186928,-2.9818584,1.7635728,0.0,0.0,0.0,0.0
0.9400000000000004,-0.0707136,8.241182400000001,-3.0361128,1.8400776,0.0,0.0,0.0,0.0
0.9600000000000004,-0.2325624,8.241182400000001,-3.0361128,1.7635728,0.0,0.0,0.0,0.0
0.9800000000000004,-0.2770632,8.186928,-2.9818584,1.7635728,0.0,0.0,0.0,0.0
1.0000000000000004,-0.22860000000000003,8.186928,-2.9818584,1.8400776,0.0,0.0,0.0,0.0
1.0200000000000005,-0.2840736,8.186928,-2.8736544000000004,1.7635728,0.0,0.0,0.0,0.0
1.0400000000000005,-0.27432,8.186928,-2.9818584,1.6867632000000001,0.0,0.0,0.0,0.0
1.0600000000000005,-0.2478024,8.295436800000001,-2.9818584,1.6867632000000001,0.0,0.0,0.0,0.0
1.0800000000000005,-0.20695920000000004,8.1326736,-2.9279088,1.6867632000000001,0.0,0.0,0.0,0.0
1.1000000000000005,-0.12192,8.241182400000001,-3.0361128,1.6867632000000001,0.0,0.0,0.0,0.0
1.1200000000000006,-0.13716,8.241182400000001,-2.9279088,1.7635728,0.0,0.0,0.0,0.0
1.1400000000000006,0.015849600000000016,8.186928,-2.9818584,1.6867632000000001,0.0,0.0,0.0,0.0
1.1600000000000006,-0.0652272,8.186928,-2.9818584,1.6867632000000001,0.0,0.0,0.0,0.0
1.1800000000000006,0.0323088,8.241182400000001,-2.9279088,1.7635728,0.0,0.0,0.0,0.0
1.2000000000000006,0.07528560000000001,8.186928,-2.9818584,1.8400776,0.0,0.0,0.0,0.0
1.2200000000000006,0.071628,8.186928,-2.9818584,1.6867632000000001,0.0,0.0,0.0,0.0
1.2400000000000002,-0.0018288000000000017,8.241182400000001,-3.0361128,1.8400776,0.0,0.0,0.0,0.0
1.2600000000000002,0.146304,8.186928,-2.9818584,1.7635728,0.0,0.0,0.0,0.0
1.2800000000000002,0.1959864,8.186928,-2.9818584,1.6867632000000001,0.0,0.0,0.0,0.0
1.3000000000000003,0.24566880000000002,8.241182400000001,-2.9279088,1.6867632000000001,0.0,0.0,0.0,0.0
1.3200000000000003,0.19659600000000002,8.241182400000001,-3.0361128,1.6867632000000001,0.0,0.0,0.0,0.0
1.3400000000000003,0.25054560000000003,8.241182400000001,-3.0361128,1.6867632000000001,0.0,0.0,0.0,0.0
1.3600000000000003,0.0734568,8.186928,-2.8736544000000004,1.6867632000000001,0.0,0.0,0.0,0.0
1.3800000000000003,-0.0024384000000000025,8.1326736,-2.9279088,1.7635728,0.0,0.0,0.0,0.0
1.4000000000000004,0.05242560000000002,8.295436800000001,-2.8736544000000004,1.7635728,0.0,0.0,0.0,0.0
1.4200000000000004,-0.149352,8.241182400000001,-2.9279088,1.6867632000000001,0.0,0.0,0.0,0.0
1.4400000000000004,-0.1411224,8.1326736,-2.9279088,1.6102584000000002,0.0,0.0,0.0,0.0
1.4600000000000004,-0.09784079999999999,8.241182400000001,-3.0361128,1.6867632000000001,0.0,0.0,0.0,0.0
1.4800000000000004,-0.1591056,8.186928,-2.9818584,1.6867632000000001,0.0,0.0,0.0,0.0
1.5000000000000004,-0.27005280000000004,8.186928,-2.9818584,1.7635728,0.0,0.0,0.0,0.0
1.5200000000000005,-0.4148328,8.186928,-2.9818584,1.7635728,0.0,0.0,0.0,0.0
1.5400000000000005,-0.1929384,8.186928,-2.9818584,1.9168872,0.0,0.0,0.0,0.0
1.5600000000000005,-0.1758696,8.186928,-2.9818584,1.7635728,0.0,0.0,0.0,0.0
1.5800000000000005,-0.22341840000000002,8.1326736,-2.8194000000000004,1.6867632000000001,0.0,0.0,0.0,0.0
1.6000000000000005,-0.2913888,8.186928,-2.9818584,1.6867632000000001,0.0,0.0,0.0,0.0
1.6200000000000006,-0.28986480000000003,8.1326736,-2.9279088,1.6867632000000001,0.0,0.0,0.0,0.0
1.6400000000000006,-0.2365248,8.186928,-2.9818584,1.6867632000000001,0.0,0.0,0.0,0.0
1.6600000000000006,-0.28864560000000006,8.3496912,-2.9279088,1.6102584000000002,0.0,0.0,0.0,0.0
1.6800000000000006,-0.3919728,8.295436800000001,-2.9818584,1.6867632000000001,0.0,0.0,0.0,0.0
1.7000000000000006,-0.1761744,8.241182400000001,-2.9279088,1.7635728,0.0,0.0,0.0,0.0
1.7200000000000006,-0.051816,8.295436800000001,-2.9818584,1.6867632000000001,0.0,0.0,0.0,0.0
1.7400000000000002,0.15941039999999998,8.241182400000001,-2.9279088,1.6867632000000001,0.0,0.0,0.0,0.0
1.7600000000000002,0.039319200000000006,8.186928,-2.9818584,1.7635728,0.0,0.0,0.0,0.0
1.7800000000000002,-0.05882640000000001,8.1326736,-2.9279088,1.7635728,0.0,0.0,0.0,0.0
1.8000000000000003,-0.04297679999999999,8.1326736,-3.0361128,1.6867632000000001,0.0,0.0,0.0,0.0
1.8200000000000003,-0.049377599999999994,8.186928,-2.8736544000000004,1.8400776,0.0,0.0,0.0,0.0
1.8400000000000003,-0.1085088,8.241182400000001,-2.9279088,1.7635728,0.0,0.0,0.0,0.0
1.8600000000000003,-0.1716024,8.1326736,-2.9279088,1.6102584000000002,0.0,0.0,0.0,0.0
1.8800000000000003,-0.22494240000000001,8.1326736,-2.9279088,1.6867632000000001,0.0,0.0,0.0,0.0
1.9000000000000004,-0.2627376,8.0784192,-2.9818584,1.8400776,0.0,0.0,0.0,0.0
1.9200000000000004,-0.20634960000000002,8.241182400000001,-2.9279088,1.6867632000000001,0.0,0.0,0.0,0.0
1.9400000000000004,-0.19354800000000003,8.295436800000001,-2.9818584,1.6867632000000001,0.0,0.0,0.0,0.0
1.9600000000000004,-0.34594800000000003,8.241182400000001,-3.0361128,1.6867632000000001,0.0,0.0,0.0,0.0
1.9800000000000004,-0.3157728,8.186928,-2.9818584,1.6867632000000001,0.0,0.0,0.0,0.0
2.0000000000000004,-0.1271016,8.241182400000001,-2.9279088,1.6102584000000002,0.0,0.0,0.0,0.0
2.0200000000000005,-0.3203448,8.241182400000001,-2.9279088,1.7635728,0.0,0.0,0.0,0.0
2.0400000000000005,-0.47365920000000006,8.186928,-2.9818584,1.8400776,0.0,0.0,0.0,0.0
2.0600000000000005,-0.5715,8.241182400000001,-2.9279088,1.6867632000000001,0.0,0.0,0.0,0.0
2.0800000000000005,-0.49408080000000004,8.1326736,-2.9279088,1.7635728,0.0,0.0,0.0,0.0
2.1000000000000005,-0.374904,8.241182400000001,-2.9279088,1.7635728,0.0,0.0,0.0,0.0
2.1200000000000006,-0.3614928,8.0784192,-2.8736544000000004,1.8400776,0.0,0.0,0.0,0.0
2.1400000000000006,-0.2959608,8.186928,-2.9818584,1.6102584000000002,0.0,0.0,0.0,0.0
2.1600000000000006,-0.1304544,8.186928,-2.8736544000000004,1.6867632000000001,0.0,0.0,0.0,0.0
2.1800000000000006,-0.0856488,8.186928,-2.8736544000000004,1.6867632000000001,0.0,0.0,0.0,0.0
2.2000000000000006,-0.003048000000000003,8.186928,-2.9818584,1.6867632000000001,0.0,0.0,0.0,0.0
2.2200000000000006,-0.1274064,8.241182400000001,-2.9279088,1.6102584000000002,0.0,0.0,0.0,0.0
2.24,-0.064008,8.186928,-2.9818584,1.6102584000000002,0.0,0.0,0.0,0.0
2.2600000000000002,-0.0682752,8.1326736,-3.0361128,1.6102584000000002,0.0,0.0,0.0,0.0
2.2800000000000002,0.12009120000000001,8.186928,-2.9818584,1.7635728,0.0,0.0,0.0,0.0
2.3000000000000003,0.13075920000000002,8.1326736,-3.0361128,1.7635728,0.0,0.0,0.0,0.0
2.3200000000000003,0.16398240000000003,8.241182400000001,-2.9279088,1.8400776,0.0,0.0,0.0,0.0
2.3400000000000003,0.0707136,8.186928,-2.9818584,1.7635728,0.0,0.0,0.0,0.0
2.3600000000000003,0.1524,8.241182400000001,-2.9279088,1.7635728,0.0,0.0,0.0,0.0
2.3800000000000003,0.1133856,8.1326736,-3.0361128,1.7635728,0.0,0.0,0.0,0.0
2.4000000000000004,-0.022555200000000004,8.186928,-2.9818584,1.7635728,0.0,0.0,0.0,0.0
2.4200000000000004,-0.1484376,8.241182400000001,-2.9279088,1.6867632000000001,0.0,0.0,0.0,0.0
2.4400000000000004,-0.1469136,8.241182400000001,-2.9279088,1.6102584000000002,0.0,0.0,0.0,0.0
2.4600000000000004,-0.0755904,8.1326736,-2.9279088,1.6102584000000002,0.0,0.0,0.0,0.0
2.4800000000000004,-0.1167384,8.186928,-2.8736544000000004,1.6102584000000002,0.0,0.0,0.0,0.0
2.5000000000000004,-0.3633216,8.241182400000001,-2.9279088,1.6867632000000001,0.0,0.0,0.0,0.0
2.5200000000000005,-0.4864608,8.241182400000001,-2.8194000000000004,1.6102584000000002,0.0,0.0,0.0,0.0
2.5400000000000005,-0.3953256,8.241182400000001,-2.9279088,1.6102584000000002,0.0,0.0,0.0,0.0
2.5600000000000005,-0.3462528,8.1326736,-2.9279088,1.6867632000000001,0.0,0.0,0.0,0.0
2.5800000000000005,-0.301752,8.186928,-2.9818584,1.6867632000000001,0.0,0.0,0.0,0.0
2.6000000000000005,-0.4081272,8.186928,-2.9818584,1.6867632000000001,0.0,0.0,0.0,0.0
2.62,-0.3730752,8.186928,-2.9818584,1.7635728,0.0,0.0,0.0,0.0
2.6400000000000006,-0.22616160000000002,8.1326736,-2.9279088,1.6102584000000002,0.0,0.0,0.0,0.0
2.66,-0.1725168,8.186928,-2.9818584,1.6867632000000001,0.0,0.0,0.0,0.0
2.6800000000000006,-0.030175199999999996,8.186928,-2.8736544000000004,1.6867632000000001,0.0,0.0,0.0,0.0
2.7,0.012496800000000011,8.295436800000001,-2.9818584,1.6867632000000001,0.0,0.0,0.0,0.0
2.7200000000000006,0.04236720000000001,8.241182400000001,-2.9279088,1.6867632000000001,0.0,0.0,0.0,0.0
2.74,-0.056388,8.295436800000001,-2.9818584,1.5334488,0.0,0.0,0.0,0.0
2.7600000000000007,-0.0719328,8.0784192,-2.9818584,1.7635728,0.0,0.0,0.0,0.0
2.7800000000000002,-0.12070080000000001,8.1326736,-2.9279088,1.6867632000000001,0.0,0.0,0.0,0.0
2.8000000000000007,-0.1780032,8.1326736,-3.0361128,1.6867632000000001,0.0,0.0,0.0,0.0
2.8200000000000003,-0.074676,8.1326736,-2.9279088,1.7635728,0.0,0.0,0.0,0.0
2.8400000000000007,-0.109728,8.241182400000001,-2.9279088,1.7635728,0.0,0.0,0.0,0.0
2.8600000000000003,-0.1063752,8.186928,-2.8736544000000004,1.7635728,0.0,0.0,0.0,0.0
2.8800000000000003,-0.12161519999999999,8.186928,-2.9818584,1.7635728,0.0,0.0,0.0,0.0
2.9000000000000004,-0.08260080000000002,8.186928,-2.9818584,1.8400776,0.0,0.0,0.0,0.0
2.9200000000000004,-0.0216408,8.1326736,-2.9279088,1.6867632000000001,0.0,0.0,0.0,0.0
2.9400000000000004,-0.0932688,8.241182400000001,-2.9279088,1.6867632000000001,0.0,0.0,0.0,0.0
2.9600000000000004,-0.08138160000000001,8.241182400000001,-3.0361128,1.6102584000000002,0.0,0.0,0.0,0.0
2.9800000000000004,-0.023774399999999987,8.241182400000001,-2.9279088,1.6102584000000002,0.0,0.0,0.0,0.0
3.0000000000000004,-0.11033760000000001,8.241182400000001,-2.9279088,1.6867632000000001,0.0,0.0,0.0,0.0
3.0200000000000005,-0.0329184,8.186928,-2.9818584,1.5334488,0.0,0.0,0.0,0.0
3.0400000000000005,-0.0710184,8.186928,-2.9818584,1.6867632000000001,0.0,0.0,0.0,0.0
3.0600000000000005,-0.035052,8.186928,-2.9818584,1.6867632000000001,0.0,0.0,0.0,0.0
3.0800000000000005,0.02468879999999999,8.241182400000001,-2.9279088,1.7635728,0.0,0.0,0.0,0.0
3.1000000000000005,0.13289280000000003,8.241182400000001,-2.9279088,1.6867632000000001,0.0,0.0,0.0,0.0
3.12,0.2157984,8.186928,-2.9818584,1.6867632000000001,0.0,0.0,0.0,0.0
3.1400000000000006,0.09631680000000002,8.186928,-2.9818584,1.7635728,0.0,0.0,0.0,0.0
3.16,0.04785360000000001,8.1326736,-3.0361128,1.6867632000000001,0.0,0.0,0.0,0.0
3.1800000000000006,0.024079199999999988,8.241182400000001,-2.9279088,1.7635728,0.0,0.0,0.0,0.0
3.2,0.0691896,8.1326736,-2.9279088,1.6867632000000001,0.0,0.0,0.0,0.0
3.2200000000000006,-0.04571999999999999,8.186928,-2.9818584,1.6867632000000001,0.0,0.0,0.0,0.0
3.24,-0.0368808,8.186928,-2.9818584,1.6867632000000001,0.0,0.0,0.0,0.0
3.2600000000000007,0.004572000000000004,8.186928,-2.9818584,1.7635728,0.0,0.0,0.0,0.0
3.2800000000000002,-0.0905256,8.241182400000001,-2.9279088,1.6102584000000002,0.0,0.0,0.0,0.0
3.3000000000000007,-0.2139696,8.241182400000001,-2.9279088,1.6867632000000001,0.0,0.0,0.0,0.0
3.3200000000000003,-0.20970239999999998,8.241182400000001,-2.9279088,1.6102584000000002,0.0,0.0,0.0,0.0
3.3400000000000007,-0.3645408,8.241182400000001,-2.9279088,1.7635728,0.0,0.0,0.0,0.0
3.3600000000000003,-0.23378159999999998,8.186928,-2.9818584,1.7635728,0.0,0.0,0.0,0.0
3.3800000000000003,-0.2252472,8.1326736,-3.0361128,1.7635728,0.0,0.0,0.0,0.0
3.4000000000000004,-0.11430000000000001,8.186928,-2.9818584,1.6102584000000002,0.0,0.0,0.0,0.0
3.4200000000000004,-0.02438399999999999,8.186928,-2.8736544000000004,1.6867632000000001,0.0,0.0,0.0,0.0
3.4400000000000004,-0.1011936,8.186928,-2.9818584,1.6867632000000001,0.0,0.0,0.0,0.0
3.4600000000000004,-0.3441192,8.241182400000001,-2.9279088,1.6867632000000001,0.0,0.0,0.0,0.0
3.4800000000000004,-0.3182112,8.186928,-2.9818584,1.6867632000000001,0.0,0.0,0.0,0.0
3.5000000000000004,-0.1792224,8.241182400000001,-2.9279088,1.6867632000000001,0.0,0.0,0.0,0.0
3.5200000000000005,-0.1807464,8.186928,-2.9818584,1.5334488,0.0,0.0,0.0,0.0
3.5400000000000005,-0.06766559999999999,8.186928,-2.9818584,1.6102584000000002,0.0,0.0,0.0,0.0
3.5600000000000005,-0.17465039999999998,8.186928,-2.9818584,1.6867632000000001,0.0,0.0,0.0,0.0
3.5800000000000005,-0.1283208,8.186928,-2.9818584,1.7635728,0.0,0.0,0.0,0.0
3.6000000000000005,-0.1929384,8.186928,-2.9818584,1.7635728,0.0,0.0,0.0,0.0
3.6200000000000006,-0.22738080000000002,8.241182400000001,-2.9279088,1.6102584000000002,0.0,0.0,0.0,0.0
3.6400000000000006,-0.2197608,8.186928,-2.9818584,1.6102584000000002,0.0,0.0,0.0,0.0
3.6600000000000006,-0.23012400000000002,8.241182400000001,-2.9279088,1.7635728,0.0,0.0,0.0,0.0
3.6800000000000006,-0.3209544,8.186928,-2.9818584,1.6102584000000002,0.0,0.0,0.0,0.0
3.7,-0.3051048,8.186928,-2.9818584,1.6867632000000001,0.0,0.0,0.0,0.0
3.7200000000000006,-0.22494240000000001,8.186928,-3.0903671999999998,1.6867632000000001,0.0,0.0,0.0,0.0
3.74,-0.2602992,8.1326736,-2.9279088,1.6867632000000001,0.0,0.0,0.0,0.0
3.7600000000000007,-0.3194304,8.295436800000001,-2.8736544000000004,1.6867632000000001,0.0,0.0,0.0,0.0
3.7800000000000002,-0.3816096,8.241182400000001,-2.9279088,1.7635728,0.0,0.0,0.0,0.0
3.8000000000000003,-0.16520160000000003,8.186928,-2.9818584,1.6867632000000001,0.0,0.0,0.0,0.0
3.8200000000000003,-0.1886712,8.295436800000001,-2.8736544000000004,1.6867632000000001,0.0,0.0,0.0,0.0
3.8400000000000003,-0.1606296,8.241182400000001,-2.9279088,1.6867632000000001,0.0,0.0,0.0,0.0
3.8600000000000003,0.1063752,8.186928,-2.9818584,1.6102584000000002,0.0,0.0,0.0,0.0
3.8800000000000003,-0.0341376,8.241182400000001,-2.9279088,1.6867632000000001,0.0,0.0,0.0,0.0
3.9000000000000004,0.09540240000000003,8.186928,-2.8736544000000004,1.6102584000000002,0.0,0.0,0.0,0.0
3.9200000000000004,-0.036576,8.241182400000001,-2.9279088,1.6867632000000001,0.0,0.0,0.0,0.0
3.9400000000000004,-0.06431279999999999,8.186928,-2.9818584,1.7635728,0.0,0.0,0.0,0.0
3.9600000000000004,-0.1399032,8.241182400000001,-3.0361128,1.6102584000000002,0.0,0.0,0.0,0.0
3.9800000000000004,-0.16885920000000001,8.186928,-2.8736544000000004,1.7635728,0.0,0.0,0.0,0.0
4.0,-0.20695920000000004,8.241182400000001,-2.9279088,1.7635728,0.0,0.0,0.0,0.0
4.0200000000000005,-0.0560832,8.241182400000001,-3.0361128,1.7635728,0.0,0.0,0.0,0.0
4.04,-0.1499616,8.295436800000001,-2.9818584,1.7635728,0.0,0.0,0.0,0.0
4.0600000000000005,-0.10759439999999999,8.295436800000001,-2.8736544000000004,1.6102584000000002,0.0,0.0,0.0,0.0
4.08,-0.0908304,8.1326736,-3.0361128,1.7635728,0.0,0.0,0.0,0.0
4.1000000000000005,-0.1929384,8.186928,-2.8736544000000004,1.6867632000000001,0.0,0.0,0.0,0.0
4.12,-0.3727704,8.1326736,-2.9279088,1.7635728,0.0,0.0,0.0,0.0
4.140000000000001,-0.3288792,8.186928,-2.9818584,1.6867632000000001,0.0,0.0,0.0,0.0
4.16,-0.2731008,8.295436800000001,-2.9818584,1.6867632000000001,0.0,0.0,0.0,0.0
4.180000000000001,-0.2593848,8.186928,-2.9818584,1.8400776,0.0,0.0,0.0,0.0
4.2,-0.26182320000000003,8.241182400000001,-2.9279088,1.7635728,0.0,0.0,0.0,0.0
4.220000000000001,-0.181356,8.186928,-2.9818584,1.6867632000000001,0.0,0.0,0.0,0.0
4.24,-0.1987296,8.024164800000001,-2.9279088,1.8400776,0.0,0.0,0.0,0.0
4.260000000000001,-0.20878800000000003,8.241182400000001,-2.9279088,1.6867632000000001,0.0,0.0,0.0,0.0
4.28,-0.2176272,8.186928,-3.0903671999999998,1.8400776,0.0,0.0,0.0,0.0
4.300000000000001,-0.3557016,8.241182400000001,-2.9279088,1.7635728,0.0,0.0,0.0,0.0
4.32,-0.1984248,8.241182400000001,-2.9279088,1.6867632000000001,0.0,0.0,0.0,0.0
4.340000000000001,-0.2066544,8.186928,-2.8736544000000004,1.6867632000000001,0.0,0.0,0.0,0.0
4.36,-0.2112264,8.186928,-2.9818584,1.7635728,0.0,0.0,0.0,0.0
4.380000000000001,-0.06644639999999999,8.295436800000001,-2.9818584,1.6102584000000002,0.0,0.0,0.0,0.0
4.4,0.028651199999999995,8.186928,-2.8736544000000004,1.6867632000000001,0.0,0.0,0.0,0.0
4.420000000000001,0.0832104,8.241182400000001,-3.0361128,1.6867632000000001,0.0,0.0,0.0,0.0
4.44,0.039319200000000006,8.186928,-2.9818584,1.7635728,0.0,0.0,0.0,0.0
4.460000000000001,0.028955999999999992,8.186928,-2.9818584,1.6867632000000001,0.0,0.0,0.0,0.0
4.48,0.0,8.241182400000001,-2.9279088,1.6867632000000001,0.0,0.0,0.0,0.0
4.5,-0.04389119999999999,8.1326736,-3.0361128,1.7635728,0.0,0.0,0.0,0.0
4.5200000000000005,0.0816864,8.1326736,-3.0361128,1.9168872,0.0,0.0,0.0,0.0
4.54,-0.0341376,8.1326736,-2.9279088,1.9168872,0.0,0.0,0.0,0.0
4.5600000000000005,-0.013715999999999996,11.277295200000001,-2.4941784,2.683764,0.0,0.0,0.0,0.0
4.58,-0.5526024,80.7311568,-46.6819488,16.715536800000002,0.0,0.0,0.0,0.0
4.6000000000000005,-0.8613648,40.501214399999995,-72.5981784,71.30887440000001,0.0,0.0,0.0,0.0
4.62,-1.1225784,68.965572,-91.7374848,-7.6675488,0.0,0.0,0.0,0.0
4.640000000000001,-1.2768072000000001,88.7553216,-69.01982640000001,46.235721600000005,0.0,0.0,0.0,0.0
4.66,-1.3432536000000002,83.4963024,-68.0981112,50.299620000000004,0.0,0.0,0.0,0.0
4.680000000000001,-0.992124,83.2792848,-69.5078112,49.5327432,0.0,0.0,0.0,0.0
4.7,-0.6656832,89.6227824,-72.48997440000001,48.3827328,0.0,0.0,0.0,0.0
4.720000000000001,-0.23835360000000003,90.4359888,-76.4478024,47.2324176,0.0,0.0,0.0,0.0
4.74,0.31302959999999996,89.08054320000001,-77.6947392,42.938700000000004,0.0,0.0,0.0,0.0
4.760000000000001,0.9156192000000001,90.2735304,-72.7066872,51.296316,0.0,0.0,0.0,0.0
4.78,1.6273272000000003,82.4660784,-69.4535568,48.7661712,0.0,0.0,0.0,0.0
4.800000000000001,2.343912,80.9478696,-73.2489264,44.3188344,0.0,0.0,0.0,0.0
4.82,3.0675072,82.1408568,-71.7307176,44.9323968,0.0,0.0,0.0,0.0
4.840000000000001,3.7197792000000005,82.7913,-68.69460480000001,43.8588912,0.0,0.0,0.0,0.0
4.86,4.3668696,79.1044392,-69.345048,41.942004,0.0,0.0,0.0,0.0
4.880000000000001,5.134965600000001,82.24906080000001,-67.3934136,40.9450032,0.0,0.0,0.0,0.0
4.9,6.0225432,82.411824,-66.14617199999999,39.25824000000001,0.0,0.0,0.0,0.0
4.920000000000001,7.058558400000001,84.09249120000001,-65.8752048,38.3380488,0.0,0.0,0.0,0.0
4.94,8.184794400000001,83.9842872,-66.74266560000001,35.1943416,0.0,0.0,0.0,0.0
4.960000000000001,8.926067999999999,84.47196720000001,-63.001550400000006,35.2711512,0.0,0.0,0.0,0.0
4.98,9.8316288,87.83360640000001,-64.628268,32.9708256,0.0,0.0,0.0,0.0
5.0,11.0599728,85.6649544,-52.808733600000004,31.130443200000002,0.0,0.0,0.0,0.0
5.0200000000000005,12.070994400000002,88.15882800000001,-54.977385600000005,27.986736,0.0,0.0,0.0,0.0
5.040000000000001,13.035686400000001,85.8274128,-58.609992,24.306276000000004,0.0,0.0,0.0,0.0
5.0600000000000005,14.0905992,90.54449760000001,-60.0739464,18.172176,0.0,0.0,0.0,0.0
5.08,14.914778400000001,86.74912800000001,-64.628268,15.718536,0.0,0.0,0.0,0.0
5.1000000000000005,15.673730399999998,87.3456216,-70.97176560000001,3.5271456,0.0,0.0,0.0,0.0
5.12,16.6128192,84.47196720000001,-76.773024,6.364224,0.0,0.0,0.0,0.0
5.140000000000001,17.4824136,63.92326560000001,-71.08027440000001,1.8400776,0.0,0.0,0.0,0.0
5.16,18.60804,94.2313584,-58.339024800000004,-11.7314472,0.0,0.0,0.0,0.0
5.180000000000001,19.6559424,97.1592672,-51.72425520000001,20.0125584,0.0,0.0,0.0,0.0
5.2,20.541691200000002,92.9844216,-49.2843312,23.7695232,0.0,0.0,0.0,0.0
5.220000000000001,21.430792800000003,91.8456888,-50.856794400000005,20.089063200000002,0.0,0.0,0.0,0.0
5.24,22.128784800000002,88.9180848,-51.6157464,22.236074400000003,0.0,0.0,0.0,0.0
5.260000000000001,22.7161344,88.1048784,-49.0676184,17.405604,0.0,0.0,0.0,0.0
5.28,23.3580432,85.44793680000001,-50.856794400000005,16.101974400000003,0.0,0.0,0.0,0.0
5.300000000000001,23.836579200000003,80.56839360000001,-49.447094400000005,12.958267200000002,0.0,0.0,0.0,0.0
5.32,24.323954400000005,81.4901088,-49.2843312,8.2811112,0.0,0.0,0.0,0.0
5.340000000000001,24.715317600000002,79.0501848,-48.7963464,6.5175384,0.0,0.0,0.0,0.0
5.36,25.019508000000005,75.25512,-48.362615999999996,4.2172128,0.0,0.0,0.0,0.0
5.380000000000001,25.197511200000005,73.3031808,-48.7963464,0.6900672,0.0,0.0,0.0,0.0
5.4,25.461772800000002,67.9356528,-46.4649312,6.5175384,0.0,0.0,0.0,0.0
5.42,25.571196000000004,63.2728224,-55.3568616,-5.367223200000001,0.0,0.0,0.0,0.0
5.44,25.779374400000002,65.76669600000001,-50.368809600000006,-7.9744824,0.0,0.0,0.0,0.0
5.460000000000001,26.0920992,65.33296560000001,-47.983140000000006,-10.121188800000002,0.0,0.0,0.0,0.0
5.48,26.378611200000005,65.8209504,-46.844712,-7.591044000000001,0.0,0.0,0.0,0.0
5.5,26.730350400000003,65.38722,-43.4830728,-5.750661600000001,0.0,0.0,0.0,0.0
5.5200000000000005,27.212544,62.188344,-42.5613576,-2.5304496,0.0,0.0,0.0,0.0
5.540000000000001,27.678583200000006,60.670135200000004,-40.284196800000004,-2.4536400000000005,0.0,0.0,0.0,0.0
5.5600000000000005,28.2256992,59.9654376,-39.145464000000004,-2.0702016,0.0,0.0,0.0,0.0
5.58,28.782873600000002,58.609992,-37.7900184,0.6135624,0.0,0.0,0.0,0.0
5.6000000000000005,29.386987200000004,55.302607200000004,-39.037259999999996,2.9903928,0.0,0.0,0.0,0.0
5.62,29.874667200000005,58.0677528,-35.0791272,3.450336,0.0,0.0,0.0,0.0
5.640000000000001,30.5126136,57.2545464,-35.024872800000004,4.984089600000001,0.0,0.0,0.0,0.0
5.66,31.228893600000003,53.350668,-32.639508,4.907280000000001,0.0,0.0,0.0,0.0
5.680000000000001,31.903720800000002,47.4409008,-20.1149712,2.8370784000000002,0.0,0.0,0.0,0.0
5.7,32.600188800000005,42.181881600000004,-8.1326736,3.68046,0.0,0.0,0.0,0.0
5.720000000000001,33.4438752,31.229808,-6.1807343999999995,-6.1341,0.0,0.0,0.0,0.0
5.74,33.712099200000004,25.211532000000002,6.343497600000001,-13.9549632,0.0,0.0,0.0,0.0
5.760000000000001,34.213495200000004,16.8618408,1.8976848000000002,-21.469502400000003,0.0,0.0,0.0,0.0
5.78,37.59006960000001,6.2892432000000005,5.7470040000000004,-26.453287200000002,0.0,0.0,0.0,0.0
5.800000000000001,41.3717232,10.4098344,8.241182400000001,-17.942356800000002,0.0,0.0,0.0,0.0
5.82,44.701053599999995,7.753197600000001,11.006328,-14.491716000000002,0.0,0.0,0.0,0.0
5.840000000000001,47.3762832,1.5182088,4.120591200000001,-13.418210400000001,0.0,0.0,0.0,0.0
5.86,49.5397536,-0.2709672,6.343497600000001,-20.242377600000005,0.0,0.0,0.0,0.0
5.880000000000001,51.3185664,2.8736544000000004,7.3194672,-13.9549632,0.0,0.0,0.0,0.0
5.9,52.901392799999996,-1.030224,-0.7046976,-12.651638400000001,0.0,0.0,0.0,0.0
5.92,54.2355024,-4.8795432000000005,8.566404,-10.428122400000001,0.0,0.0,0.0,0.0
5.94,55.4988984,-8.4039456,7.210958400000001,-32.0506344,0.0,0.0,0.0,0.0
5.960000000000001,57.02808,-22.771608,13.1207256,-38.4913632,0.0,0.0,0.0,0.0
5.98,58.3701144,-2.2771608000000003,6.614769600000001,-15.488716800000002,0.0,0.0,0.0,0.0
6.0,59.408872800000005,-1.7349216,6.8314824000000005,-16.178784,0.0,0.0,0.0,0.0
6.0200000000000005,60.4528128,-0.9759696,6.7229735999999995,-17.3287944,0.0,0.0,0.0,0.0
6.040000000000001,61.4336592,-0.8132064000000001,7.6446888,-16.3320984,0.0,0.0,0.0,0.0
6.0600000000000005,62.38798800000001,-0.16276320000000002,8.295436800000001,-15.2585928,0.0,0.0,0.0,0.0
6.08,63.3014736,-0.650748,9.5423736,-13.0350768,0.0,0.0,0.0,0.0
6.1000000000000005,64.5407904,-1.6264128000000002,9.0001344,-11.9615712,0.0,0.0,0.0,0.0
6.12,66.7353504,2.3856696,22.4463864,-14.798649600000001,0.0,0.0,0.0,0.0
6.140000000000001,70.7827896,-3.4158936000000004,10.5725976,-3.2205168000000004,0.0,0.0,0.0,0.0
6.16,75.4480584,-3.6868608000000003,9.4338648,-4.2172128,0.0,0.0,0.0,0.0
6.180000000000001,80.48213520000002,-1.5182088,9.0001344,-8.58774,0.0,0.0,0.0,0.0
6.2,85.40526480000001,0.3252216,4.988052,-4.4473368,0.0,0.0,0.0,0.0
6.220000000000001,89.86875600000002,-3.4698432,11.0605824,-6.5175384,0.0,0.0,0.0,0.0
6.24,93.8256696,-3.198876,13.283488800000002,-9.891369599999999,0.0,0.0,0.0,0.0
6.260000000000001,96.51949200000001,-2.4941784,11.1690912,-12.8817624,0.0,0.0,0.0,0.0
6.28,98.19619680000001,-3.3073848000000003,10.0303584,-11.654637600000001,0.0,0.0,0.0,0.0
6.300000000000001,99.2066088,-4.012082400000001,8.3496912,-11.501323200000002,0.0,0.0,0.0,0.0
6.32,99.8110272,-3.3616392,6.1807343999999995,-12.7281432,0.0,0.0,0.0,0.0
6.340000000000001,99.9588552,-5.8555128,5.096560800000001,-14.108277600000001,0.0,0.0,0.0,0.0
6.36,99.89149440000001,-4.7713392,3.6868608000000003,-14.645030400000001,0.0,0.0,0.0,0.0
6.380000000000001,99.58486560000001,-3.4698432,4.445812800000001,-15.718536,0.0,0.0,0.0,0.0
6.4,99.1258368,-1.8976848000000002,6.2349888,-15.2585928,0.0,0.0,0.0,0.0
6.42,98.7420936,-2.2771608000000003,5.3132736,-13.725144,0.0,0.0,0.0,0.0
6.44,98.394012,-2.7108912000000003,3.578352,-15.642031200000002,0.0,0.0,0.0,0.0
6.460000000000001,98.24648880000001,-4.8252888,6.885736800000001,-15.718536,0.0,0.0,0.0,0.0
6.48,98.1644976,-4.0663368,6.018276,-14.5685256,0.0,0.0,0.0,0.0
6.5,98.29007520000002,-3.9035736000000005,4.7713392,-13.6483344,0.0,0.0,0.0,0.0
6.5200000000000005,98.62383120000001,-4.5000672,6.1267848,-12.421514400000001,0.0,0.0,0.0,0.0
6.540000000000001,99.19898880000001,-4.6628304,3.7953696000000003,-13.49502,0.0,0.0,0.0,0.0
6.5600000000000005,100.00183200000002,-4.445812800000001,5.3132736,-13.571829600000001,0.0,0.0,0.0,0.0
6.58,100.92476640000001,-5.367528,3.957828,-13.9549632,0.0,0.0,0.0,0.0
6.6000000000000005,102.09733200000001,-5.3132736,5.7470040000000004,-11.8082568,0.0,0.0,0.0,0.0
6.620000000000001,103.41254400000001,-5.3132736,3.4698432,-10.811256,0.0,0.0,0.0,0.0
6.640000000000001,104.91856080000001,-5.476036800000001,3.0903671999999998,-9.737750400000001,0.0,0.0,0.0,0.0
6.66,106.70407920000001,-5.6930544,3.6326064,-9.967874400000001,0.0,0.0,0.0,0.0
6.680000000000001,108.71911200000001,-5.801258400000001,4.8252888,-9.737750400000001,0.0,0.0,0.0,0.0
6.700000000000001,111.0871032,-7.5364848,5.1508152,-9.891369599999999,0.0,0.0,0.0,0.0
6.720000000000001,113.40937440000002,-6.5605152,4.3915584,-9.2013024,0.0,0.0,0.0,0.0
6.74,115.7734032,-5.964021600000001,6.2892432000000005,-8.357616,0.0,0.0,0.0,0.0
6.76,118.02861840000001,-4.120591200000001,4.120591200000001,-9.4311216,0.0,0.0,0.0,0.0
6.78,119.806212,-4.8252888,3.198876,-11.3480088,0.0,0.0,0.0,0.0
6.800000000000001,121.21713120000001,-4.7170848,2.9818584,-11.271504,0.0,0.0,0.0,0.0
6.82,122.41316640000001,-5.638800000000001,2.7108912000000003,-12.038076,0.0,0.0,0.0,0.0
6.84,123.39066000000003,-3.5240976,3.6326064,-10.888065600000001,0.0,0.0,0.0,0.0
6.86,124.41875040000002,-3.3073848000000003,3.6326064,-10.9645704,0.0,0.0,0.0,0.0
6.880000000000001,125.33711280000001,-4.554321600000001,4.988052,-11.3480088,0.0,0.0,0.0,0.0
6.9,126.43774560000001,-4.3376088,5.421782400000001,-9.2013024,0.0,0.0,0.0,0.0
6.92,127.93614240000001,-3.7411152,4.7170848,-9.2013024,0.0,0.0,0.0,0.0
6.94,129.7719528,-4.120591200000001,5.421782400000001,-8.971178400000001,0.0,0.0,0.0,0.0
6.960000000000001,131.6891448,-3.578352,4.8795432000000005,-9.047683200000002,0.0,0.0,0.0,0.0
6.98,133.39724400000003,-4.012082400000001,4.2291,-8.971178400000001,0.0,0.0,0.0,0.0
7.0,134.9925672,-4.0663368,4.3915584,-8.971178400000001,0.0,0.0,0.0,0.0
7.0200000000000005,136.26144960000002,-3.8496240000000004,3.4158936000000004,-9.3546168,0.0,0.0,0.0,0.0
7.040000000000001,137.2874064,-3.7953696000000003,4.120591200000001,-9.2778072,0.0,0.0,0.0,0.0
7.0600000000000005,138.4060224,-3.957828,4.0663368,-10.121188800000002,0.0,0.0,0.0,0.0
7.08,139.439904,-2.9818584,3.8496240000000004,-9.2013024,0.0,0.0,0.0,0.0
7.1000000000000005,140.5009128,-3.578352,3.9035736000000005,-8.971178400000001,0.0,0.0,0.0,0.0
7.120000000000001,141.55216800000002,-3.5240976,3.4158936000000004,-9.047683200000002,0.0,0.0,0.0,0.0
7.140000000000001,142.5409392,-3.4698432,4.445812800000001,-8.971178400000001,0.0,0.0,0.0,0.0
7.16,143.74124160000002,-3.7953696000000003,4.2291,-8.2043016,0.0,0.0,0.0,0.0
7.180000000000001,145.14850320000002,-3.3073848000000003,3.6326064,-8.2043016,0.0,0.0,0.0,0.0
7.200000000000001,146.84075280000002,-5.7470040000000004,7.915960800000001,-9.3546168,0.0,0.0,0.0,0.0
7.220000000000001,148.36962960000002,-4.3915584,3.6326064,-7.8208632,0.0,0.0,0.0,0.0
7.24,149.6238816,-3.5240976,3.4158936000000004,-10.121188800000002,0.0,0.0,0.0,0.0
7.26,150.63368400000002,-4.445812800000001,2.7108912000000003,-8.741054400000001,0.0,0.0,0.0,0.0
7.28,151.61544480000003,-4.2291,1.8434304000000001,-7.5142344,0.0,0.0,0.0,0.0
7.300000000000001,152.78983920000002,-5.801258400000001,2.6566368,-9.047683200000002,0.0,0.0,0.0,0.0
7.32,153.7627608,-4.5000672,2.3314152,-8.050987200000002,0.0,0.0,0.0,0.0
7.34,154.92526800000002,-5.7470040000000004,3.578352,-8.817864,0.0,0.0,0.0,0.0
7.36,156.04998,-4.7170848,1.4639544,-8.2043016,0.0,0.0,0.0,0.0
7.380000000000001,156.83240159999997,-3.3616392,2.0601432,-6.1341,0.0,0.0,0.0,0.0
7.4,157.9461408,-4.3376088,1.8434304000000001,-7.9744824,0.0,0.0,0.0,0.0
7.42,159.30006239999997,-2.4941784,3.4698432,-6.4407288000000005,0.0,0.0,0.0,0.0
7.44,161.2495632,-2.9818584,3.8496240000000004,-8.817864,0.0,0.0,0.0,0.0
7.460000000000001,162.728148,-2.3856696,3.2531304000000003,-8.1277968,0.0,0.0,0.0,0.0
7.48,163.750752,-2.9818584,2.8736544000000004,-7.36092,0.0,0.0,0.0,0.0
7.5,164.5642632,-2.548128,2.2229064000000003,-8.6645496,0.0,0.0,0.0,0.0
7.5200000000000005,165.238176,-2.2771608000000003,3.3616392,-9.047683200000002,0.0,0.0,0.0,0.0
7.540000000000001,165.69049919999998,-2.2229064000000003,3.8496240000000004,-8.2811112,0.0,0.0,0.0,0.0
7.5600000000000005,166.3074144,-2.3314152,3.0903671999999998,-7.6675488,0.0,0.0,0.0,0.0
7.58,166.97553599999998,-2.4399240000000004,3.4158936000000004,-8.2811112,0.0,0.0,0.0,0.0
7.6000000000000005,167.72839199999999,-3.3073848000000003,3.957828,-7.591044000000001,0.0,0.0,0.0,0.0
7.620000000000001,168.761664,-2.7108912000000003,1.7349216,-6.8241672,0.0,0.0,0.0,0.0
7.640000000000001,169.56054479999997,-2.8194000000000004,2.2771608000000003,-5.903976000000001,0.0,0.0,0.0,0.0
7.66,170.42221439999997,-3.7953696000000003,0.8674608,-5.827471200000001,0.0,0.0,0.0,0.0
7.680000000000001,171.3055248,-4.445812800000001,1.0844784,-4.907280000000001,0.0,0.0,0.0,0.0
7.700000000000001,172.39945200000003,-7.970215200000001,1.2469368,-7.36092,0.0,0.0,0.0,0.0
7.720000000000001,173.4107784,-4.3376088,1.9519392,-4.907280000000001,0.0,0.0,0.0,0.0
7.74,174.58944,-3.0903671999999998,0.37947600000000004,-4.0638984,0.0,0.0,0.0,0.0
7.76,176.11313520000002,-5.5845456,1.8976848000000002,-3.2205168000000004,0.0,0.0,0.0,0.0
7.78,177.59354879999998,-4.554321600000001,-0.4337304,-5.597347200000001,0.0,0.0,0.0,0.0
7.800000000000001,178.62560159999998,-4.7713392,1.0844784,-5.367223200000001,0.0,0.0,0.0,0.0
7.82,179.58236879999998,-3.0903671999999998,1.8976848000000002,-6.4407288000000005,0.0,0.0,0.0,0.0
7.84,180.104796,-3.5240976,1.030224,-6.594043200000001,0.0,0.0,0.0,0.0
7.86,180.23586,-3.198876,1.8976848000000002,-6.2874144,0.0,0.0,0.0,0.0
7.880000000000001,180.7427424,-2.8194000000000004,2.2771608000000003,-6.1341,0.0,0.0,0.0,0.0
7.9,181.590696,-2.6566368,2.4399240000000004,-6.9774816,0.0,0.0,0.0,0.0
7.92,182.3149008,-2.2771608000000003,2.6023824,-6.4407288000000005,0.0,0.0,0.0,0.0
7.94,183.1378608,-1.6264128000000002,2.6023824,-6.5175384,0.0,0.0,0.0,0.0
7.960000000000001,184.3210944,-2.0601432,3.2531304000000003,-6.4407288000000005,0.0,0.0,0.0,0.0
7.98,185.05932,-1.4639544,2.6566368,-6.364224,0.0,0.0,0.0,0.0
8.0,186.228228,-0.2170176,5.205069600000001,-4.2937176,0.0,0.0,0.0,0.0
8.02,188.0164896,-0.8674608,4.8795432000000005,-5.827471200000001,0.0,0.0,0.0,0.0
8.040000000000001,189.549024,0.0,3.7953696000000003,-4.8304704,0.0,0.0,0.0,0.0
8.06,190.87917119999997,-2.1143976,4.608576,-3.0672024,0.0,0.0,0.0,0.0
8.08,191.9474952,-1.6806672000000002,4.7170848,-5.367223200000001,0.0,0.0,0.0,0.0
8.100000000000001,193.08836159999998,2.3314152,5.1508152,-9.2778072,0.0,0.0,0.0,0.0
8.120000000000001,194.0740848,-1.1387328,3.6326064,-10.657941600000001,0.0,0.0,0.0,0.0
8.14,194.58035759999999,-1.030224,5.259324,-4.370527200000001,0.0,0.0,0.0,0.0
8.16,195.73128240000003,-1.1926824,5.096560800000001,-5.5205376,0.0,0.0,0.0,0.0
8.18,196.84745999999998,-1.6806672000000002,4.2833544,-5.597347200000001,0.0,0.0,0.0,0.0
8.200000000000001,197.097396,-1.6806672000000002,3.957828,-2.0702016,0.0,0.0,0.0,0.0
8.22,197.99716560000002,-1.7349216,4.988052,-3.0672024,0.0,0.0,0.0,0.0
8.24,198.8341464,-2.2771608000000003,4.3376088,-4.984089600000001,0.0,0.0,0.0,0.0
8.26,199.0932264,-2.1143976,3.0903671999999998,-4.523841600000001,0.0,0.0,0.0,0.0
8.280000000000001,199.7957904,-2.548128,3.0903671999999998,-6.4407288000000005,0.0,0.0,0.0,0.0
8.3,200.2130616,-2.9818584,3.198876,-4.677156,0.0,0.0,0.0,0.0
8.32,200.2112328,-2.2771608000000003,2.3856696,-2.9903928,0.0,0.0,0.0,0.0
8.34,200.6370384,-1.3011912,1.6264128000000002,-3.8337744,0.0,0.0,0.0,0.0
8.36,201.3405168,-2.6023824,1.9519392,-4.984089600000001,0.0,0.0,0.0,0.0
8.38,201.530712,-2.3856696,1.1926824,-3.910584,0.0,0.0,0.0,0.0
8.4,201.8602008,-3.3073848000000003,1.1387328,-5.137404,0.0,0.0,0.0,0.0
8.42,201.6218472,-3.7411152,2.1143976,-4.0638984,0.0,0.0,0.0,0.0
8.440000000000001,201.9949224,-2.8194000000000004,1.0844784,-3.68046,0.0,0.0,0.0,0.0
8.46,202.03637519999998,-3.6868608000000003,1.5182088,-4.1404032,0.0,0.0,0.0,0.0
8.48,202.60086479999998,-3.6326064,1.3554456000000001,-4.907280000000001,0.0,0.0,0.0,0.0
8.5,202.37256960000002,-4.0663368,0.7046976,-4.6006512,0.0,0.0,0.0,0.0
8.52,202.52466479999998,-3.6868608000000003,0.7589520000000001,-4.2937176,0.0,0.0,0.0,0.0
8.54,202.7806968,-3.9035736000000005,0.650748,-1.4569440000000002,0.0,0.0,0.0,0.0
8.56,203.2607568,-3.5240976,1.030224,-4.677156,0.0,0.0,0.0,0.0
8.58,203.45491439999998,-3.7953696000000003,0.5422392,-4.0638984,0.0,0.0,0.0,0.0
8.600000000000001,203.610972,-3.5240976,0.9217152000000001,-4.7539656,0.0,0.0,0.0,0.0
8.620000000000001,204.07122,-2.9818584,0.37947600000000004,-3.9870888,0.0,0.0,0.0,0.0
8.64,204.4101576,-2.7651456,-0.4879848,-4.2172128,0.0,0.0,0.0,0.0
8.66,204.84846,-2.3314152,-0.8132064000000001,-6.4407288000000005,0.0,0.0,0.0,0.0
8.68,204.9889728,-2.7108912000000003,-0.4337304,-4.2937176,0.0,0.0,0.0,0.0
8.7,205.293468,-3.3073848000000003,0.5964936000000001,-4.984089600000001,0.0,0.0,0.0,0.0
8.72,205.5132288,-3.4698432,0.8674608,-3.5271456,0.0,0.0,0.0,0.0
8.74,205.9119072,-2.6566368,0.8132064000000001,-3.5271456,0.0,0.0,0.0,0.0
8.760000000000002,206.474568,-2.2229064000000003,0.37947600000000004,-5.137404,0.0,0.0,0.0,0.0
8.780000000000001,207.3435528,-3.3616392,1.3011912,-6.2874144,0.0,0.0,0.0,0.0
8.8,208.1217072,-3.1446216000000002,0.7589520000000001,-4.1404032,0.0,0.0,0.0,0.0
8.82,208.9004712,-2.548128,1.4639544,-3.3738312000000006,0.0,0.0,0.0,0.0
8.84,210.2614032,-2.7651456,2.2229064000000003,-4.1404032,0.0,0.0,0.0,0.0
8.86,211.57265280000001,-2.3856696,2.3856696,-3.3738312000000006,0.0,0.0,0.0,0.0
8.88,212.7939864,-1.9519392,1.8434304000000001,-3.0672024,0.0,0.0,0.0,0.0
8.9,214.2295944,-0.7589520000000001,0.4337304,-0.3834384,0.0,0.0,0.0,0.0
8.920000000000002,215.777064,-2.548128,1.789176,-2.0702016,0.0,0.0,0.0,0.0
8.940000000000001,217.8521424,-2.3856696,1.1926824,-3.450336,0.0,0.0,0.0,0.0
8.96,219.6090096,-2.2771608000000003,2.0601432,-0.8433816000000001,0.0,0.0,0.0,0.0
8.98,220.7919384,-2.6566368,1.2469368,-3.9870888,0.0,0.0,0.0,0.0
9.0,222.4235328,-2.2229064000000003,1.3554456000000001,-3.3738312000000006,0.0,0.0,0.0,0.0
9.02,224.1419952,-2.6023824,2.2771608000000003,-4.1404032,0.0,0.0,0.0,0.0
9.04,224.9548968,-2.7651456,1.789176,-2.683764,0.0,0.0,0.0,0.0
9.06,225.7449384,-1.8976848000000002,0.37947600000000004,-0.6135624,0.0,0.0,0.0,0.0
9.08,227.4396264,-2.0601432,1.6264128000000002,-0.6135624,0.0,0.0,0.0,0.0
9.100000000000001,227.9254776,-3.7953696000000003,1.7349216,-1.7635728,0.0,0.0,0.0,0.0
9.120000000000001,228.67284719999998,-1.5182088,1.5182088,-1.3801344,0.0,0.0,0.0,0.0
9.14,230.0923008,-2.2229064000000003,2.2229064000000003,-2.3768304000000002,0.0,0.0,0.0,0.0
9.16,230.18953199999999,-2.0061936,0.8132064000000001,-2.3768304000000002,0.0,0.0,0.0,0.0
9.18,230.8058376,-2.4399240000000004,2.3314152,-1.1500104,0.0,0.0,0.0,0.0
9.2,231.64464719999998,-2.4941784,1.4097000000000002,-2.9903928,0.0,0.0,0.0,0.0
9.22,231.2264616,-1.9519392,1.3011912,-3.68046,0.0,0.0,0.0,0.0
9.24,230.95640880000002,-2.2771608000000003,2.2771608000000003,-0.996696,0.0,0.0,0.0,0.0
9.260000000000002,231.055164,-2.1143976,1.5724632,-1.7635728,0.0,0.0,0.0,0.0
9.280000000000001,230.3431512,-2.3856696,1.0844784,-3.2970216000000003,0.0,0.0,0.0,0.0
9.3,230.01975840000003,-1.5182088,1.5182088,-2.4536400000000005,0.0,0.0,0.0,0.0
9.32,230.9548848,-2.2771608000000003,2.1686520000000002,-2.8370784000000002,0.0,0.0,0.0,0.0
9.34,231.1715976,-1.789176,1.4639544,-2.5304496,0.0,0.0,0.0,0.0
9.36,230.75402160000002,-1.4097000000000002,1.0844784,-2.0702016,0.0,0.0,0.0,0.0
9.38,230.9079456,-2.8736544000000004,1.789176,-1.8400776,0.0,0.0,0.0,0.0
9.4,230.875332,-2.4399240000000004,1.8976848000000002,-3.1437072,0.0,0.0,0.0,0.0
9.420000000000002,230.6427696,-1.7349216,1.1926824,-2.4536400000000005,0.0,0.0,0.0,0.0
9.440000000000001,230.9417784,-2.548128,1.6806672000000002,-2.3768304000000002,0.0,0.0,0.0,0.0
9.46,231.26943839999998,-1.7349216,0.9759696,-2.0702016,0.0,0.0,0.0,0.0
9.48,231.38221439999998,-1.7349216,0.650748,-2.1470112,0.0,0.0,0.0,0.0
9.5,232.08325440000002,-1.8434304000000001,1.1926824,-1.7635728,0.0,0.0,0.0,0.0
9.52,232.61391120000002,-1.6806672000000002,0.16276320000000002,-0.996696,0.0,0.0,0.0,0.0
9.54,232.6840152,-2.3314152,0.9217152000000001,-2.4536400000000005,0.0,0.0,0.0,0.0
9.56,233.02234320000002,-1.7349216,1.0844784,-2.683764,0.0,0.0,0.0,0.0
9.58,233.4579024,-2.2771608000000003,0.650748,-2.9135831999999997,0.0,0.0,0.0,0.0
9.600000000000001,233.7956208,-1.9519392,0.8674608,-2.6069544000000002,0.0,0.0,0.0,0.0
9.620000000000001,234.24032400000002,-1.8976848000000002,0.5964936000000001,-2.3768304000000002,0.0,0.0,0.0,0.0
9.64,235.02823199999997,-2.1686520000000002,0.9759696,-1.6867632000000001,0.0,0.0,0.0,0.0
9.66,235.5165216,-2.3314152,0.5964936000000001,-2.4536400000000005,0.0,0.0,0.0,0.0
9.68,236.0084688,-2.0601432,0.5422392,-2.3768304000000002,0.0,0.0,0.0,0.0
9.7,236.8375248,-1.8976848000000002,0.2709672,-1.6867632000000001,0.0,0.0,0.0,0.0
9.72,237.68608799999998,-3.6326064,2.9818584,-3.8337744,0.0,0.0,0.0,0.0
9.74,238.46058480000002,-1.8434304000000001,0.3252216,-1.9168872,0.0,0.0,0.0,0.0
9.760000000000002,239.4548424,-1.8434304000000001,0.8674608,-2.223516,0.0,0.0,0.0,0.0
9.780000000000001,240.3064536,-1.789176,0.9217152000000001,-1.9168872,0.0,0.0,0.0,0.0
9.8,240.9218448,-2.0601432,1.0844784,-2.0702016,0.0,0.0,0.0,0.0
9.82,241.5832608,-1.6806672000000002,0.8132064000000001,-1.4569440000000002,0.0,0.0,0.0,0.0
9.84,242.42572800000002,-1.4639544,0.8132064000000001,-2.0702016,0.0,0.0,0.0,0.0
9.86,243.11853839999998,-2.7651456,0.5964936000000001,-3.2970216000000003,0.0,0.0,0.0,0.0
9.88,243.6092664,-1.8434304000000001,0.9759696,-1.9168872,0.0,0.0,0.0,0.0
9.9,244.105176,-1.6806672000000002,1.1387328,-1.2268200000000002,0.0,0.0,0.0,0.0
9.920000000000002,245.0741352,-1.3554456000000001,1.030224,-1.9936968000000002,0.0,0.0,0.0,0.0
9.940000000000001,245.568216,-1.6264128000000002,0.8674608,-1.7635728,0.0,0.0,0.0,0.0
9.96,245.84680319999998,-1.4097000000000002,0.650748,-1.6867632000000001,0.0,0.0,0.0,0.0
9.98,246.4835304,-1.789176,1.3554456000000001,-2.0702016,0.0,0.0,0.0,0.0
10.0,247.1751216,-2.1143976,0.16276320000000002,-2.3768304000000002,0.0,0.0,0.0,0.0
10.02,247.57593359999998,-1.789176,0.0542544,-1.5334488,0.0,0.0,0.0,0.0
10.04,247.6570104,-1.8434304000000001,0.7589520000000001,-1.5334488,0.0,0.0,0.0,0.0
10.06,248.0102736,-1.9519392,1.5182088,-1.8400776,0.0,0.0,0.0,0.0
10.08,248.4787512,-2.548128,0.7046976,-1.0735056,0.0,0.0,0.0,0.0
10.100000000000001,248.7481944,-2.2229064000000003,0.7046976,-1.4569440000000002,0.0,0.0,0.0,0.0
10.120000000000001,248.8853544,-1.6264128000000002,0.5422392,-1.7635728,0.0,0.0,0.0,0.0
10.14,248.96246879999998,-1.5182088,0.0,-1.1500104,0.0,0.0,0.0,0.0
10.16,249.14900640000002,-2.548128,0.9217152000000001,-1.5334488,0.0,0.0,0.0,0.0
10.18,249.3971136,-1.8434304000000001,0.650748,-1.2268200000000002,0.0,0.0,0.0,0.0
10.2,249.62967600000002,-2.2771608000000003,0.4337304,-1.7635728,0.0,0.0,0.0,0.0
10.22,249.8869272,-1.9519392,0.8674608,-1.1500104,0.0,0.0,0.0,0.0
10.24,250.2648792,-2.4399240000000004,0.37947600000000004,-2.6069544000000002,0.0,0.0,0.0,0.0
10.260000000000002,250.6269816,-2.6566368,1.1387328,-1.2268200000000002,0.0,0.0,0.0,0.0
10.280000000000001,251.03693760000002,-2.1686520000000002,0.5422392,-1.0735056,0.0,0.0,0.0,0.0
10.3,251.2597464,-2.0061936,0.7046976,-1.2268200000000002,0.0,0.0,0.0,0.0
10.32,251.5517448,-2.7108912000000003,0.650748,-0.0768096,0.0,0.0,0.0,0.0
10.34,251.9772456,-2.2229064000000003,0.37947600000000004,-1.9936968000000002,0.0,0.0,0.0,0.0
10.36,252.276864,-2.0061936,0.37947600000000004,-1.4569440000000002,0.0,0.0,0.0,0.0
10.38,252.5292384,-1.6806672000000002,0.16276320000000002,-1.0735056,0.0,0.0,0.0,0.0
10.4,252.7182144,-2.1143976,0.0542544,-2.3003256,0.0,0.0,0.0,0.0
10.420000000000002,252.95108159999998,-2.3314152,0.7046976,-1.7635728,0.0,0.0,0.0,0.0
10.440000000000001,253.5225816,-2.0601432,0.8674608,-0.7668768,0.0,0.0,0.0,0.0
10.46,254.3348736,-0.8674608,0.0,-1.1500104,0.0,0.0,0.0,0.0
10.48,254.9520936,-2.3856696,0.1085088,-2.0702016,0.0,0.0,0.0,0.0
10.5,255.3026136,-1.9519392,0.4337304,-1.3801344,0.0,0.0,0.0,0.0
10.52,255.6168624,-1.789176,0.5964936000000001,-1.0735056,0.0,0.0,0.0,0.0
10.54,255.9472656,-2.1686520000000002,0.9759696,-1.2268200000000002,0.0,0.0,0.0,0.0
10.56,256.7135328,-2.3856696,0.8674608,-0.6900672,0.0,0.0,0.0,0.0
10.58,257.7166296,-1.8976848000000002,0.5964936000000001,-0.8433816000000001,0.0,0.0,0.0,0.0
10.600000000000001,258.4591224,-2.1143976,0.37947600000000004,-1.3036296,0.0,0.0,0.0,0.0
10.620000000000001,258.9019968,-2.1686520000000002,0.4337304,-1.2268200000000002,0.0,0.0,0.0,0.0
10.64,259.3753512,-2.2771608000000003,0.9759696,-0.6135624,0.0,0.0,0.0,0.0
10.66,259.8499248,-1.7349216,0.2170176,-1.1500104,0.0,0.0,0.0,0.0
10.68,260.3497968,-2.6023824,0.7589520000000001,-0.8433816000000001,0.0,0.0,0.0,0.0
10.7,260.6777616,-2.1686520000000002,0.5422392,-1.1500104,0.0,0.0,0.0,0.0
10.72,260.8594224,-2.1143976,0.7046976,-0.996696,0.0,0.0,0.0,0.0
10.74,261.0380352,-1.8976848000000002,0.5964936000000001,-0.7668768,0.0,0.0,0.0,0.0
10.760000000000002,261.2888856,-2.3314152,0.9217152000000001,-0.6135624,0.0,0.0,0.0,0.0
10.780000000000001,261.5086464,-1.6264128000000002,0.2170176,-1.0735056,0.0,0.0,0.0,0.0
10.8,261.8356968,-1.789176,0.4879848,-0.6135624,0.0,0.0,0.0,0.0
10.82,262.20846720000003,-1.6806672000000002,0.37947600000000004,-0.5367528,0.0,0.0,0.0,0.0
10.84,262.6330536,-1.3011912,0.2170176,-1.2268200000000002,0.0,0.0,0.0,0.0
10.86,262.9460832,-2.4941784,0.9759696,-0.6135624,0.0,0.0,0.0,0.0
10.88,263.15182319999997,-2.1143976,0.2709672,-0.5367528,0.0,0.0,0.0,0.0
10.9,263.351772,-1.6806672000000002,0.16276320000000002,-0.6135624,0.0,0.0,0.0,0.0
10.920000000000002,263.6821752,-2.2229064000000003,1.030224,-0.23012400000000002,0.0,0.0,0.0,0.0
10.940000000000001,263.8845624,-1.9519392,0.3252216,-0.8433816000000001,0.0,0.0,0.0,0.0
10.96,264.206736,-1.8434304000000001,0.3252216,-1.5334488,0.0,0.0,0.0,0.0
10.98,264.3448104,-1.9519392,0.5422392,-0.996696,0.0,0.0,0.0,0.0
11.0,264.471912,-1.8434304000000001,0.4337304,-0.8433816000000001,0.0,0.0,0.0,0.0
11.02,264.506964,-1.8434304000000001,0.4337304,-0.8433816000000001,0.0,0.0,0.0,0.0
11.04,264.6115104,-2.0601432,0.7589520000000001,-0.6135624,0.0,0.0,0.0,0.0
11.06,264.753852,-1.789176,0.4879848,-1.0735056,0.0,0.0,0.0,0.0
11.08,264.8583984,-1.789176,0.4879848,-0.6900672,0.0,0.0,0.0,0.0
11.100000000000001,264.96904079999996,-2.2229064000000003,0.8132064000000001,-0.5367528,0.0,0.0,0.0,0.0
11.120000000000001,265.20678480000004,-1.6264128000000002,0.1085088,-0.5367528,0.0,0.0,0.0,0.0
11.14,265.494516,-2.0061936,0.5964936000000001,-0.7668768,0.0,0.0,0.0,0.0
11.16,265.7286024,-1.9519392,0.5422392,-0.4599432,0.0,0.0,0.0,0.0
11.18,265.95263040000003,-2.3314152,0.9217152000000001,-0.23012400000000002,0.0,0.0,0.0,0.0
11.2,266.2766328,-1.6264128000000002,0.0,-0.30662880000000003,0.0,0.0,0.0,0.0
11.22,266.6494032,-1.789176,0.4879848,-0.6135624,0.0,0.0,0.0,0.0
11.24,267.1706112,-2.2229064000000003,0.7046976,-0.15331440000000002,0.0,0.0,0.0,0.0
11.260000000000002,267.7802112,-2.0061936,0.37947600000000004,-0.15331440000000002,0.0,0.0,0.0,0.0
11.280000000000001,268.29379919999997,-2.0601432,0.650748,-0.30662880000000003,0.0,0.0,0.0,0.0
11.3,268.6001232,-3.198876,1.2469368,0.23012400000000002,0.0,0.0,0.0,0.0
11.32,268.7531328,-1.9519392,0.5422392,-0.15331440000000002,0.0,0.0,0.0,0.0
11.34,268.88328240000004,-2.548128,0.5964936000000001,-0.0768096,0.0,0.0,0.0,0.0
11.36,269.007336,-2.0061936,0.5964936000000001,-0.4599432,0.0,0.0,0.0,0.0
11.38,269.1640032,-2.2771608000000003,0.4337304,-0.30662880000000003,0.0,0.0,0.0,0.0
11.4,269.28927600000003,-1.6264128000000002,0.4337304,-0.15331440000000002,0.0,0.0,0.0,0.0
11.420000000000002,269.6903928,-2.1143976,0.9217152000000001,-0.3834384,0.0,0.0,0.0,0.0
11.440000000000001,270.0729168,-2.548128,0.7046976,0.30662880000000003,0.0,0.0,0.0,0.0
11.46,270.378936,-2.0061936,0.0542544,-0.23012400000000002,0.0,0.0,0.0,0.0
11.48,270.5941248,-1.6264128000000002,-0.1085088,-0.6900672,0.0,0.0,0.0,0.0
11.5,270.70812,-2.7651456,0.37947600000000004,-0.5367528,0.0,0.0,0.0,0.0
11.52,270.80870400000003,-2.4941784,0.3252216,-0.6135624,0.0,0.0,0.0,0.0
11.54,270.7794432,-2.1686520000000002,0.2170176,-0.8433816000000001,0.0,0.0,0.0,0.0
11.56,270.7617648,-2.2229064000000003,-0.0542544,-0.4599432,0.0,0.0,0.0,0.0
11.58,270.697452,-2.2771608000000003,-0.1085088,-0.4599432,0.0,0.0,0.0,0.0
11.600000000000001,270.703548,-2.2771608000000003,0.0,-0.6135624,0.0,0.0,0.0,0.0
11.620000000000001,270.7495728,-2.3314152,-0.0542544,-0.30662880000000003,0.0,0.0,0.0,0.0
11.64,270.7221408,-2.3856696,0.0,-0.5367528,0.0,0.0,0.0,0.0
11.66,270.6718488,-2.2771608000000003,-0.1085088,-0.6900672,0.0,0.0,0.0,0.0
11.68,270.6270432,-2.1143976,-0.0542544,-0.6135624,0.0,0.0,0.0,0.0
11.7,270.5545008,-2.1686520000000002,-0.2170176,-0.9201912000000001,0.0,0.0,0.0,0.0
11.72,270.459708,-2.0601432,-0.3252216,-0.996696,0.0,0.0,0.0,0.0
11.74,270.4213032,-2.1686520000000002,0.0,-0.9201912000000001,0.0,0.0,0.0,0.0
11.760000000000002,270.409416,-2.1143976,-0.2709672,-0.996696,0.0,0.0,0.0,0.0
11.780000000000001,270.4450776,-2.2771608000000003,-0.1085088,-0.996696,0.0,0.0,0.0,0.0
11.8,270.47433839999997,-2.2771608000000003,-0.2170176,-0.8433816000000001,0.0,0.0,0.0,0.0
11.82,270.4752528,-2.2771608000000003,-0.4337304,-1.0735056,0.0,0.0,0.0,0.0
11.84,270.60784079999996,-2.2771608000000003,-0.3252216,-0.996696,0.0,0.0,0.0,0.0
11.86,270.6127176,-2.4399240000000004,-0.37947600000000004,-1.1500104,0.0,0.0,0.0,0.0
11.88,270.6404544,-2.3314152,-0.2709672,-0.8433816000000001,0.0,0.0,0.0,0.0
11.9,270.6407592,-2.4399240000000004,-0.2709672,-1.2268200000000002,0.0,0.0,0.0,0.0
11.920000000000002,270.6050976,-2.6023824,-0.4337304,-1.6102584000000002,0.0,0.0,0.0,0.0
11.940000000000001,270.5761416,-2.3856696,-0.3252216,-0.9201912000000001,0.0,0.0,0.0,0.0
11.96,270.5886384,-2.2771608000000003,-0.2170176,-1.2268200000000002,0.0,0.0,0.0,0.0
11.98,270.4569648,-2.2771608000000003,-0.3252216,-1.0735056,0.0,0.0,0.0,0.0
12.0,270.3106608,-2.1686520000000002,0.0,-1.1500104,0.0,0.0,0.0,0.0
12.02,270.118332,-2.1143976,-0.0542544,-0.9201912000000001,0.0,0.0,0.0,0.0
12.04,269.996412,-2.0601432,0.1085088,-0.8433816000000001,0.0,0.0,0.0,0.0
12.06,269.9848296,-2.0601432,0.0,-0.996696,0.0,0.0,0.0,0.0
12.08,269.8747968,-2.0061936,0.0542544,-1.1500104,0.0,0.0,0.0,0.0
12.100000000000001,269.7415992,-1.9519392,0.1085088,-0.9201912000000001,0.0,0.0,0.0,0.0
12.120000000000001,269.5770072,-1.8976848000000002,0.0542544,-0.996696,0.0,0.0,0.0,0.0
12.14,269.447772,-1.9519392,0.2170176,-0.996696,0.0,0.0,0.0,0.0
12.16,269.4700224,-2.0061936,0.16276320000000002,-0.8433816000000001,0.0,0.0,0.0,0.0
12.18,269.46423120000003,-1.9519392,0.3252216,-0.8433816000000001,0.0,0.0,0.0,0.0
12.2,269.411196,-1.8434304000000001,0.4337304,-0.996696,0.0,0.0,0.0,0.0
12.22,269.2682448,-1.9519392,0.3252216,-0.7668768,0.0,0.0,0.0,0.0
12.24,269.3377392,-1.9519392,0.3252216,-0.9201912000000001,0.0,0.0,0.0,0.0
12.260000000000002,269.3596848,-1.8976848000000002,0.37947600000000004,-1.0735056,0.0,0.0,0.0,0.0
12.280000000000001,269.472156,-1.8434304000000001,0.4337304,-1.0735056,0.0,0.0,0.0,0.0
12.3,269.64894,-1.789176,0.2709672,-1.2268200000000002,0.0,0.0,0.0,0.0
12.32,269.87723520000003,-1.5182088,0.3252216,-1.4569440000000002,0.0,0.0,0.0,0.0
12.34,269.9671512,-1.7349216,0.2170176,-1.3036296,0.0,0.0,0.0,0.0
12.36,269.8879032,-1.9519392,0.2170176,-1.0735056,0.0,0.0,0.0,0.0
12.38,269.73641760000004,-1.8976848000000002,0.37947600000000004,-0.8433816000000001,0.0,0.0,0.0,0.0
12.4,269.5956,-2.1686520000000002,0.3252216,-0.996696,0.0,0.0,0.0,0.0
12.420000000000002,269.3566368,-2.0601432,0.1085088,-0.7668768,0.0,0.0,0.0,0.0
12.440000000000001,269.1929592,-2.2771608000000003,0.2170176,-1.0735056,0.0,0.0,0.0,0.0
12.46,268.81744560000004,-2.1686520000000002,0.0,-0.9201912000000001,0.0,0.0,0.0,0.0
12.48,268.51721760000004,-2.2771608000000003,-0.2170176,-1.2268200000000002,0.0,0.0,0.0,0.0
12.5,268.2965424,-2.3856696,-0.1085088,-0.9201912000000001,0.0,0.0,0.0,0.0
12.52,268.1453616,-2.0061936,-0.37947600000000004,-1.3801344,0.0,0.0,0.0,0.0
12.540000000000001,267.95912880000003,-2.0061936,-0.2709672,-1.5334488,0.0,0.0,0.0,0.0
12.56,267.7792968,-2.3314152,-0.5964936000000001,-1.5334488,0.0,0.0,0.0,0.0
12.58,267.6918192,-2.548128,-0.37947600000000004,-2.0702016,0.0,0.0,0.0,0.0
12.6,267.57416639999997,-2.2771608000000003,-1.3011912,-2.1470112,0.0,0.0,0.0,0.0
12.620000000000001,267.5269224,-2.6566368,-1.1387328,-2.4536400000000005,0.0,0.0,0.0,0.0
12.64,267.43152000000003,-2.6566368,-1.2469368,-2.223516,0.0,0.0,0.0,0.0
12.66,267.37939919999997,-2.8194000000000004,-1.1926824,-2.5304496,0.0,0.0,0.0,0.0
12.68,267.2672328,-2.4941784,-1.0844784,-1.7635728,0.0,0.0,0.0,0.0
12.700000000000001,267.2724144,-2.7651456,-0.9217152000000001,-1.9936968000000002,0.0,0.0,0.0,0.0
12.72,267.0752088,-2.2771608000000003,-0.650748,-1.3801344,0.0,0.0,0.0,0.0
12.74,266.8743456,-2.7108912000000003,-0.7589520000000001,-1.7635728,0.0,0.0,0.0,0.0
12.76,266.73078480000004,-2.6566368,-0.8132064000000001,-1.6867632000000001,0.0,0.0,0.0,0.0
12.780000000000001,266.613132,-2.9279088,-0.8674608,-1.8400776,0.0,0.0,0.0,0.0
12.8,266.590272,-2.3314152,-0.9217152000000001,-2.0702016,0.0,0.0,0.0,0.0
12.82,266.3577096,-2.0061936,-0.7046976,-2.223516,0.0,0.0,0.0,0.0
12.84,266.1160032,-2.548128,-0.9217152000000001,-2.1470112,0.0,0.0,0.0,0.0
12.860000000000001,265.9508016,-2.4399240000000004,-0.7046976,-1.7635728,0.0,0.0,0.0,0.0
12.88,265.7197632,-2.4941784,-0.650748,-2.0702016,0.0,0.0,0.0,0.0
12.9,265.4338608,-2.3314152,-0.5964936000000001,-1.4569440000000002,0.0,0.0,0.0,0.0
12.92,265.2342168,-2.4399240000000004,-0.4879848,-1.8400776,0.0,0.0,0.0,0.0
12.940000000000001,264.96507840000004,-1.9519392,-0.9759696,-1.3801344,0.0,0.0,0.0,0.0
12.96,264.6496104,-1.7349216,-0.4337304,-1.5334488,0.0,0.0,0.0,0.0
12.98,264.4072944,4.2833544,-4.608576,6.9009768,0.0,0.0,0.0,0.0
13.0,264.1582728,-6.397752,38.7117336,-34.810903200000006,0.0,0.0,0.0,0.0
13.02,263.901936,32.205777600000005,189.76390800000001,74.2224576,0.0,0.0,0.0,0.0
13.040000000000001,263.6388936,8.1326736,-15.8316168,128.5094712,0.0,0.0,0.0,0.0
13.06,263.3688408,21.687434400000004,24.9405648,24.5364,0.0,0.0,0.0,0.0
13.08,268.129512,-8.8919304,26.7836904,23.1562656,0.0,0.0,0.0,0.0
13.1,268.67510400000003,26.6754864,-12.795504,-22.8496368,0.0,0.0,0.0,0.0
13.120000000000001,269.277084,5.367528,10.5725976,-32.9708256,0.0,0.0,0.0,0.0
13.14,269.9348424,22.6630992,-4.120591200000001,-19.859244,0.0,0.0,0.0,0.0
13.16,270.6492936,133.1601096,-68.5318416,-26.8367256,0.0,0.0,0.0,0.0
13.18,274.97532,42.452848800000005,-17.729301600000003,-84.2671416,0.0,0.0,0.0,0.0
13.200000000000001,277.953216,25.9162296,-6.1807343999999995,-102.056184,0.0,0.0,0.0,0.0
13.22,280.7195808,45.814488000000004,9.0543888,-52.1400024,0.0,0.0,0.0,0.0
13.24,282.8928048,66.20042640000001,105.77992560000001,135.2568288,0.0,0.0,0.0,0.0
13.26,285.1004712,-103.7194776,84.959952,64.4847072,0.0,0.0,0.0,0.0
13.280000000000001,287.4425544,105.34619520000001,30.308092800000004,103.7429472,0.0,0.0,0.0,0.0
13.3,289.9190544,28.0851864,-16.590873600000002,34.120836,0.0,0.0,0.0,0.0
13.32,292.530276,44.404788,-49.0676184,37.2645432,0.0,0.0,0.0,0.0
13.34,295.2756096,44.838518400000005,-26.0789928,-25.916534400000003,0.0,0.0,0.0,0.0
13.360000000000001,292.534848,65.2247616,-34.9709232,-2.5304496,0.0,0.0,0.0,0.0
13.38,294.6236424,33.7236816,18.434304,-62.261191200000006,0.0,0.0,0.0,0.0
13.4,296.77614,2.3856696,-4.120591200000001,-16.945356,0.0,0.0,0.0,0.0
13.42,292.5186936,52.320748800000004,-89.83980000000001,-37.4946672,0.0,0.0,0.0,0.0
13.440000000000001,288.4005408,78.3997416,-75.0381024,-10.657941600000001,0.0,0.0,0.0,0.0
13.46,285.3891168,101.27985840000001,-24.3983256,66.1714704,0.0,0.0,0.0,0.0
13.48,281.7610824,48.5253792,-18.9222888,34.120836,0.0,0.0,0.0,0.0
13.5,277.7401608,76.5020568,-40.7179272,26.8367256,0.0,0.0,0.0,0.0
13.52,273.4729608,99.16515600000001,-102.2015736,6.4407288000000005,0.0,0.0,0.0,0.0
13.540000000000001,270.11985599999997,123.2925144,-96.94224960000001,5.6741568000000004,0.0,0.0,0.0,0.0
13.56,267.2330952,48.688142400000004,-44.2420248,3.2205168000000004,0.0,0.0,0.0,0.0
13.58,266.4665232,30.1453296,-3.9035736000000005,97.3787232,0.0,0.0,0.0,0.0
13.6,263.59286879999996,-13.446252000000001,3.6868608000000003,10.811256,0.0,0.0,0.0,0.0
13.620000000000001,263.6852232,-35.4046536,73.1404176,-7.591044000000001,0.0,0.0,0.0,0.0
13.64,264.35547840000004,15.0726648,21.470416800000002,28.446984,0.0,0.0,0.0,0.0
13.66,265.56949679999997,-4.3376088,13.012521600000001,-3.450336,0.0,0.0,0.0,0.0
13.68,266.6637288,-8.94588,15.994380000000001,-1.6102584000000002,0.0,0.0,0.0,0.0
13.700000000000001,268.092936,-8.3496912,10.5183432,1.0735056,0.0,0.0,0.0,0.0
13.72,266.9709672,8.566404,30.2538384,25.1496576,0.0,0.0,0.0,0.0
13.74,265.8276624,26.566977600000005,23.964595199999998,45.62246400000001,0.0,0.0,0.0,0.0
13.76,264.66302160000004,112.1776776,17.837810400000002,61.8009432,0.0,0.0,0.0,0.0
13.780000000000001,263.4770448,-44.8927728,29.711599200000002,-0.4599432,0.0,0.0,0.0,0.0
13.8,265.291824,-23.584814400000003,-6.885736800000001,-6.8241672,0.0,0.0,0.0,0.0
13.82,267.0316224,-30.2538384,-4.3376088,72.9191328,0.0,0.0,0.0,0.0
13.84,268.42608240000004,16.5366192,-40.3927056,-22.6195128,0.0,0.0,0.0,0.0
13.860000000000001,268.585188,37.248084,-28.6813752,-4.2172128,0.0,0.0,0.0,0.0
13.88,268.8037296,12.958267200000002,-7.970215200000001,-1.9936968000000002,0.0,0.0,0.0,0.0
13.9,269.0036784,35.675620800000004,-21.361908,106.50321600000001,0.0,0.0,0.0,0.0
13.92,269.27586479999997,45.0012816,-17.2413168,31.667196,0.0,0.0,0.0,0.0
13.940000000000001,268.47759360000003,60.1282008,-42.0191184,0.7668768,0.0,0.0,0.0,0.0
13.96,268.705584,99.81590400000002,-61.8631224,-22.6963224,0.0,0.0,0.0,0.0
13.98,268.0557504,95.31583680000001,-43.0493424,156.9561504,0.0,0.0,0.0,0.0
14.0,267.41628,6.1807343999999995,-71.6764632,-6.6708528000000005,0.0,0.0,0.0,0.0
14.02,267.29344560000004,37.573305600000005,-17.0788584,-10.888065600000001,0.0,0.0,0.0,0.0
14.040000000000001,267.4321296,71.94773520000001,-105.6714168,0.3834384,0.0,0.0,0.0,0.0
14.06,268.1032992,-47.712172800000005,-10.4098344,-65.1747744,0.0,0.0,0.0,0.0
14.08,268.4035272,0.9759696,-31.5550296,-3.1437072,0.0,0.0,0.0,0.0
14.1,268.3312896,-6.7229735999999995,-48.14590320000001,12.5748288,0.0,0.0,0.0,0.0
14.120000000000001,268.44345599999997,-26.458468800000002,-3.3616392,41.328441600000005,0.0,0.0,0.0,0.0
14.14,268.5787872,12.3075192,-101.98455600000001,4.6006512,0.0,0.0,0.0,0.0
14.16,268.4178528,11.657076,-106.86440400000001,-8.2043016,0.0,0.0,0.0,0.0
14.18,268.2572232,-58.39297440000001,-50.5855224,-11.4248184,0.0,0.0,0.0,0.0
14.200000000000001,268.5300192,-96.67128240000001,78.3454872,21.9294456,0.0,0.0,0.0,0.0
14.22,268.1859,0.4879848,-58.935213600000004,5.2139088000000005,0.0,0.0,0.0,0.0
14.24,267.00236160000003,0.37947600000000004,60.670135200000004,-29.3668704,0.0,0.0,0.0,0.0
14.26,265.6645944,-32.530999200000004,-25.4824992,-7.0542912,0.0,0.0,0.0,0.0
14.280000000000001,264.532872,-38.765988,11.1148368,-15.565221600000001,0.0,0.0,0.0,0.0
