time,baro_altitude,accl_x,accl_y,accl_z,gps_altitude,gyro_roll,gyro_pitch,gyro_yaw
0.0,0.0,-4.445812800000001,0.5422392,8.971178400000001,0.0,0.0,0.0,0.0
0.019999999999999574,0.030480000000000004,-4.3915584,0.5964936000000001,8.8943688,0.0,0.0,0.0,0.0
0.040000000000000036,-0.013716,-4.3915584,0.5964936000000001,8.8943688,0.0,0.0,0.0,0.0
0.05999999999999961,-0.0027432000000000003,-4.3376088,0.5422392,9.047683200000002,0.0,0.0,0.0,0.0
0.08000000000000007,-0.09540240000000003,-4.3376088,0.5422392,8.971178400000001,0.0,0.0,0.0,0.0
0.09999999999999964,-0.1850136,-4.3915584,0.5964936000000001,9.047683200000002,0.0,0.0,0.0,0.0
0.1200000000000001,-0.070104,-4.3376088,0.5422392,8.971178400000001,0.0,0.0,0.0,0.0
0.13999999999999968,-0.0795528,-4.3915584,0.5964936000000001,8.971178400000001,0.0,0.0,0.0,0.0
0.16000000000000014,-0.08869680000000002,-4.445812800000001,0.5422392,8.8943688,0.0,0.0,0.0,0.0
0.17999999999999972,-0.2109216,-4.5000672,0.5964936000000001,8.971178400000001,0.0,0.0,0.0,0.0
0.20000000000000018,-0.20147279999999998,-4.445812800000001,0.5422392,8.8943688,0.0,0.0,0.0,0.0
0.21999999999999975,-0.176784,-4.445812800000001,0.5422392,8.971178400000001,0.0,0.0,0.0,0.0
0.2400000000000002,-0.10271759999999999,-4.445812800000001,0.650748,8.971178400000001,0.0,0.0,0.0,0.0
0.2599999999999998,-0.0768096,-4.5000672,0.5964936000000001,8.8943688,0.0,0.0,0.0,0.0
0.28000000000000025,-0.14234159999999998,-4.3915584,0.5964936000000001,8.8943688,0.0,0.0,0.0,0.0
0.2999999999999998,-0.25908000000000003,-4.3915584,0.5964936000000001,8.971178400000001,0.0,0.0,0.0,0.0
0.3199999999999994,-0.1475232,-4.3376088,0.5422392,8.8943688,0.0,0.0,0.0,0.0
0.33999999999999986,-0.09113520000000001,-4.445812800000001,0.5422392,9.047683200000002,0.0,0.0,0.0,0.0
0.35999999999999943,0.0033528,-4.3915584,0.5964936000000001,8.971178400000001,0.0,0.0,0.0,0.0
0.3799999999999999,-0.07559040000000002,-4.3915584,0.7046976,8.971178400000001,0.0,0.0,0.0,0.0
0.39999999999999947,-0.0697992,-4.3376088,0.5422392,9.047683200000002,0.0,0.0,0.0,0.0
0.41999999999999993,0.0475488,-4.2833544,0.4879848,8.971178400000001,0.0,0.0,0.0,0.0
0.4399999999999995,0.12374880000000002,-4.3915584,0.5964936000000001,8.971178400000001,0.0,0.0,0.0,0.0
0.45999999999999996,0.17922240000000003,-4.445812800000001,0.5422392,8.971178400000001,0.0,0.0,0.0,0.0
0.47999999999999954,-0.0179832,-4.3915584,0.5964936000000001,8.971178400000001,0.0,0.0,0.0,0.0
0.5,0.056388,-4.445812800000001,0.650748,8.8943688,0.0,0.0,0.0,0.0
0.5199999999999996,0.029260800000000003,-4.3915584,0.5964936000000001,8.971178400000001,0.0,0.0,0.0,0.0
0.54,0.039319200000000006,-4.3376088,0.5422392,8.8943688,0.0,0.0,0.0,0.0
0.5599999999999996,0.0816864,-4.445812800000001,0.650748,8.971178400000001,0.0,0.0,0.0,0.0
0.5800000000000001,0.09326880000000003,-4.445812800000001,0.650748,8.8943688,0.0,0.0,0.0,0.0
0.5999999999999996,0.070104,-4.3376088,0.5422392,9.047683200000002,0.0,0.0,0.0,0.0
0.6200000000000001,-0.0021336,-4.3915584,0.7046976,8.971178400000001,0.0,0.0,0.0,0.0
0.6399999999999997,0.307848,-4.445812800000001,0.7589520000000001,9.047683200000002,0.0,0.0,0.0,0.0
0.6600000000000001,0.3477768,-4.2833544,0.7046976,9.047683200000002,0.0,0.0,0.0,0.0
0.6799999999999997,0.3407664,-4.3915584,0.5964936000000001,8.971178400000001,0.0,0.0,0.0,0.0
0.7000000000000002,0.4447032,-4.2833544,0.7046976,8.817864,0.0,0.0,0.0,0.0
0.7199999999999998,0.4178808,-4.3915584,0.7046976,8.971178400000001,0.0,0.0,0.0,0.0
0.7400000000000002,0.2578608,-4.3376088,0.5422392,8.8943688,0.0,0.0,0.0,0.0
0.7599999999999998,0.0454152,-4.3376088,0.5422392,8.971178400000001,0.0,0.0,0.0,0.0
0.7800000000000002,-0.0399288,-4.3915584,0.5964936000000001,9.047683200000002,0.0,0.0,0.0,0.0
0.7999999999999998,-0.2709672,-4.3376088,0.650748,8.817864,0.0,0.0,0.0,0.0
0.8199999999999998,-0.2100072,-4.445812800000001,0.5422392,8.8943688,0.0,0.0,0.0,0.0
0.8399999999999999,-0.18836640000000002,-4.554321600000001,0.5422392,8.8943688,0.0,0.0,0.0,0.0
0.8599999999999999,-0.111252,-4.445812800000001,0.5422392,8.8943688,0.0,0.0,0.0,0.0
0.8799999999999999,-0.07802880000000001,-4.445812800000001,0.4337304,8.8943688,0.0,0.0,0.0,0.0
0.8999999999999999,-0.1984248,-4.5000672,0.4879848,8.8943688,0.0,0.0,0.0,0.0
0.9199999999999999,-0.1365504,-4.445812800000001,0.5422392,8.971178400000001,0.0,0.0,0.0,0.0
0.94,-0.11643360000000001,-4.3915584,0.5964936000000001,9.047683200000002,0.0,0.0,0.0,0.0
0.96,0.022860000000000002,-4.3915584,0.5964936000000001,8.971178400000001,0.0,0.0,0.0,0.0
0.98,0.0646176,-4.3915584,0.7046976,9.047683200000002,0.0,0.0,0.0,0.0
1.0,-0.15331440000000002,-4.3376088,0.650748,8.971178400000001,0.0,0.0,0.0,0.0
1.02,0.0109728,-4.3915584,0.7046976,8.971178400000001,0.0,0.0,0.0,0.0
1.04,0.12344400000000001,-4.3915584,0.5964936000000001,8.971178400000001,0.0,0.0,0.0,0.0
1.0599999999999996,0.1438656,-4.3376088,0.650748,8.8943688,0.0,0.0,0.0,0.0
1.0799999999999996,0.2737104,-4.3915584,0.5964936000000001,8.971178400000001,0.0,0.0,0.0,0.0
1.0999999999999996,0.201168,-4.3915584,0.5964936000000001,8.8943688,0.0,0.0,0.0,0.0
1.1199999999999997,0.2215896,-4.445812800000001,0.650748,8.971178400000001,0.0,0.0,0.0,0.0
1.1399999999999997,0.20299680000000003,-4.3915584,0.7046976,9.047683200000002,0.0,0.0,0.0,0.0
1.1599999999999997,0.12954000000000002,-4.3915584,0.5964936000000001,8.971178400000001,0.0,0.0,0.0,0.0
1.1799999999999997,-0.0630936,-4.5000672,0.5964936000000001,9.047683200000002,0.0,0.0,0.0,0.0
1.1999999999999997,-0.0493776,-4.445812800000001,0.5422392,8.971178400000001,0.0,0.0,0.0,0.0
1.2199999999999998,0.0496824,-4.5000672,0.5964936000000001,9.047683200000002,0.0,0.0,0.0,0.0
1.2399999999999998,0.0112776,-4.3915584,0.4879848,8.971178400000001,0.0,0.0,0.0,0.0
1.2599999999999998,0.1633728,-4.445812800000001,0.5422392,8.971178400000001,0.0,0.0,0.0,0.0
1.2799999999999998,0.2350008,-4.3915584,0.5964936000000001,8.8943688,0.0,0.0,0.0,0.0
1.2999999999999998,0.16885920000000001,-4.3915584,0.5964936000000001,8.971178400000001,0.0,0.0,0.0,0.0
1.3199999999999998,0.0996696,-4.3915584,0.5964936000000001,8.8943688,0.0,0.0,0.0,0.0
1.3399999999999999,0.0963168,-4.3915584,0.5964936000000001,8.971178400000001,0.0,0.0,0.0,0.0
1.3599999999999999,-0.060350400000000005,-4.3376088,0.4337304,8.971178400000001,0.0,0.0,0.0,0.0
1.38,-0.030480000000000004,-4.3915584,0.5964936000000001,9.047683200000002,0.0,0.0,0.0,0.0
1.4,-0.0036576000000000013,-4.445812800000001,0.5422392,8.817864,0.0,0.0,0.0,0.0
1.42,-0.0996696,-4.3915584,0.5964936000000001,9.047683200000002,0.0,0.0,0.0,0.0
1.44,0.0789432,-4.445812800000001,0.650748,8.8943688,0.0,0.0,0.0,0.0
1.46,0.0384048,-4.3376088,0.650748,8.817864,0.0,0.0,0.0,0.0
1.48,-0.009144,-4.445812800000001,0.650748,9.047683200000002,0.0,0.0,0.0,0.0
1.5,-0.09357360000000002,-4.554321600000001,0.650748,8.8943688,0.0,0.0,0.0,0.0
1.52,-0.09174480000000002,-4.445812800000001,0.7589520000000001,8.8943688,0.0,0.0,0.0,0.0
1.54,-0.0713232,-4.3915584,0.4879848,8.8943688,0.0,0.0,0.0,0.0
1.5599999999999996,-0.0545592,-4.3915584,0.5964936000000001,8.8943688,0.0,0.0,0.0,0.0
1.5799999999999996,-0.1389888,-4.445812800000001,0.5422392,9.047683200000002,0.0,0.0,0.0,0.0
1.5999999999999996,-0.0697992,-4.445812800000001,0.650748,8.971178400000001,0.0,0.0,0.0,0.0
1.6199999999999997,-0.2279904,-4.3915584,0.5964936000000001,8.971178400000001,0.0,0.0,0.0,0.0
1.6399999999999997,-0.352044,-4.2833544,0.5964936000000001,8.971178400000001,0.0,0.0,0.0,0.0
1.6599999999999997,-0.1764792,-4.3376088,0.5422392,8.971178400000001,0.0,0.0,0.0,0.0
1.6799999999999997,0.036576,-4.3376088,0.5422392,8.971178400000001,0.0,0.0,0.0,0.0
1.6999999999999997,0.08473440000000002,-4.2833544,0.4879848,8.8943688,0.0,0.0,0.0,0.0
1.7199999999999998,0.0359664,-4.3376088,0.5422392,8.971178400000001,0.0,0.0,0.0,0.0
1.7399999999999998,-0.0216408,-4.3915584,0.5964936000000001,8.971178400000001,0.0,0.0,0.0,0.0
1.7599999999999998,0.11643360000000001,-4.3915584,0.5964936000000001,8.8943688,0.0,0.0,0.0,0.0
1.7799999999999998,-0.015240000000000002,-4.3376088,0.650748,8.817864,0.0,0.0,0.0,0.0
1.7999999999999998,-0.1697736,-4.5000672,0.5964936000000001,8.971178400000001,0.0,0.0,0.0,0.0
1.8199999999999998,-0.2414016,-4.608576,0.7046976,8.971178400000001,0.0,0.0,0.0,0.0
1.8399999999999999,-0.09540240000000003,-4.554321600000001,0.650748,8.971178400000001,0.0,0.0,0.0,0.0
1.8599999999999999,-0.077724,-4.445812800000001,0.650748,8.8943688,0.0,0.0,0.0,0.0
1.88,-0.1475232,-4.445812800000001,0.650748,8.971178400000001,0.0,0.0,0.0,0.0
1.9,0.0,-4.3915584,0.7046976,8.971178400000001,0.0,0.0,0.0,0.0
1.92,0.09997439999999999,-4.445812800000001,0.650748,9.047683200000002,0.0,0.0,0.0,0.0
1.94,-0.025298400000000002,-4.2291,0.5422392,8.8943688,0.0,0.0,0.0,0.0
1.96,0.0566928,-4.3915584,0.5964936000000001,8.971178400000001,0.0,0.0,0.0,0.0
1.98,0.1892808,-4.3376088,0.650748,8.971178400000001,0.0,0.0,0.0,0.0
2.0,0.20391120000000001,-4.3376088,0.5422392,9.047683200000002,0.0,0.0,0.0,0.0
2.02,0.09418320000000002,-4.3376088,0.650748,8.971178400000001,0.0,0.0,0.0,0.0
2.04,0.0356616,-4.3915584,0.4879848,8.8943688,0.0,0.0,0.0,0.0
2.0599999999999996,-0.1621536,-4.445812800000001,0.5422392,8.971178400000001,0.0,0.0,0.0,0.0
2.0799999999999996,-0.13533119999999998,-4.445812800000001,0.5422392,8.971178400000001,0.0,0.0,0.0,0.0
2.0999999999999996,-0.0088392,-4.445812800000001,0.5422392,8.817864,0.0,0.0,0.0,0.0
2.1199999999999997,-0.0231648,-4.5000672,0.5964936000000001,8.8943688,0.0,0.0,0.0,0.0
2.1399999999999997,-0.1018032,-4.554321600000001,0.5422392,8.8943688,0.0,0.0,0.0,0.0
2.1599999999999997,-0.062484,-4.445812800000001,0.5422392,8.971178400000001,0.0,0.0,0.0,0.0
2.1799999999999997,-0.12954000000000002,-4.5000672,0.5964936000000001,8.8943688,0.0,0.0,0.0,0.0
2.1999999999999997,-0.012496799999999999,-4.445812800000001,0.650748,8.8943688,0.0,0.0,0.0,0.0
2.2199999999999998,0.1487424,-4.3915584,0.5964936000000001,8.971178400000001,0.0,0.0,0.0,0.0
2.2399999999999998,0.0030479999999999995,-4.3915584,0.5964936000000001,8.971178400000001,0.0,0.0,0.0,0.0
2.26,0.1392936,-4.445812800000001,0.650748,8.971178400000001,0.0,0.0,0.0,0.0
2.28,0.043586400000000004,-4.3376088,0.650748,8.971178400000001,0.0,0.0,0.0,0.0
2.3,-0.018288,-4.3376088,0.5422392,9.047683200000002,0.0,0.0,0.0,0.0
2.32,0.08442960000000001,-4.2833544,0.7046976,8.971178400000001,0.0,0.0,0.0,0.0
2.34,-0.13685519999999998,-4.3376088,0.5422392,8.971178400000001,0.0,0.0,0.0,0.0
2.36,-0.1088136,-4.3376088,0.650748,9.047683200000002,0.0,0.0,0.0,0.0
2.38,-0.018288,-4.3376088,0.650748,8.741054400000001,0.0,0.0,0.0,0.0
2.4,0.038709600000000004,-4.3915584,0.5964936000000001,9.047683200000002,0.0,0.0,0.0,0.0
2.42,0.033528,-4.5000672,0.4879848,8.8943688,0.0,0.0,0.0,0.0
2.44,0.16032480000000002,-4.608576,0.4879848,8.8943688,0.0,0.0,0.0,0.0
2.46,0.04267200000000001,-4.608576,0.4879848,8.971178400000001,0.0,0.0,0.0,0.0
2.48,-0.0185928,-4.5000672,0.5964936000000001,8.8943688,0.0,0.0,0.0,0.0
2.5,-0.1865376,-4.445812800000001,0.5422392,8.971178400000001,0.0,0.0,0.0,0.0
2.52,-0.19690080000000001,-4.3915584,0.5964936000000001,8.971178400000001,0.0,0.0,0.0,0.0
2.54,-0.3681984,-4.3915584,0.5964936000000001,8.971178400000001,0.0,0.0,0.0,0.0
2.5599999999999996,-0.2298192,-4.445812800000001,0.5422392,8.8943688,0.0,0.0,0.0,0.0
2.5799999999999996,-0.2161032,-4.2833544,0.5964936000000001,8.971178400000001,0.0,0.0,0.0,0.0
2.5999999999999996,-0.0832104,-4.3376088,0.650748,8.8943688,0.0,0.0,0.0,0.0
2.6199999999999997,0.039319200000000006,-4.2833544,0.7046976,9.1244928,0.0,0.0,0.0,0.0
2.6399999999999997,0.0012192000000000001,-4.3376088,0.5422392,8.971178400000001,0.0,0.0,0.0,0.0
2.6599999999999997,-0.0627888,-4.3376088,0.650748,8.971178400000001,0.0,0.0,0.0,0.0
2.6799999999999997,-0.13075920000000002,-4.445812800000001,0.5422392,8.971178400000001,0.0,0.0,0.0,0.0
2.6999999999999997,-0.1002792,-4.445812800000001,0.650748,8.8943688,0.0,0.0,0.0,0.0
2.7199999999999998,-0.025603200000000003,-4.5000672,0.7046976,8.971178400000001,0.0,0.0,0.0,0.0
2.7399999999999998,0.0323088,-4.445812800000001,0.650748,8.971178400000001,0.0,0.0,0.0,0.0
2.76,0.041757600000000006,-4.445812800000001,0.650748,8.971178400000001,0.0,0.0,0.0,0.0
2.78,0.21214080000000002,-4.554321600000001,0.5422392,8.971178400000001,0.0,0.0,0.0,0.0
2.8,0.24384000000000003,-4.5000672,0.5964936000000001,8.971178400000001,0.0,0.0,0.0,0.0
2.82,0.2264664,-4.5000672,0.4879848,8.971178400000001,0.0,0.0,0.0,0.0
2.84,0.3258312,-4.445812800000001,0.5422392,8.971178400000001,0.0,0.0,0.0,0.0
2.86,0.09601199999999999,-4.3915584,0.4879848,8.971178400000001,0.0,0.0,0.0,0.0
2.88,0.025908,-4.3915584,0.4879848,9.047683200000002,0.0,0.0,0.0,0.0
2.9,-0.030480000000000004,-4.3376088,0.4337304,8.971178400000001,0.0,0.0,0.0,0.0
2.92,-0.057912000000000005,-4.3376088,0.5422392,8.8943688,0.0,0.0,0.0,0.0
2.9399999999999995,0.04206240000000001,-4.2291,0.5422392,8.971178400000001,0.0,0.0,0.0,0.0
2.96,0.0725424,-4.445812800000001,0.4337304,8.971178400000001,0.0,0.0,0.0,0.0
2.9799999999999995,0.06096000000000001,-4.2833544,0.4879848,8.971178400000001,0.0,0.0,0.0,0.0
3.0,-0.0143256,-4.2833544,0.5964936000000001,8.8943688,0.0,0.0,0.0,0.0
3.0199999999999996,-0.0225552,-4.3915584,0.5964936000000001,8.971178400000001,0.0,0.0,0.0,0.0
3.04,-0.0469392,-4.5000672,0.4879848,9.047683200000002,0.0,0.0,0.0,0.0
3.0599999999999996,0.0755904,-4.445812800000001,0.650748,9.047683200000002,0.0,0.0,0.0,0.0
3.08,0.0697992,-4.554321600000001,0.650748,8.8943688,0.0,0.0,0.0,0.0
3.0999999999999996,-0.0012192000000000012,-4.554321600000001,0.650748,8.971178400000001,0.0,0.0,0.0,0.0
3.12,-0.09052560000000001,-4.554321600000001,0.5422392,8.8943688,0.0,0.0,0.0,0.0
3.1399999999999997,-0.1944624,-4.445812800000001,0.650748,8.8943688,0.0,0.0,0.0,0.0
3.16,-0.13685519999999998,-4.445812800000001,0.650748,8.971178400000001,0.0,0.0,0.0,0.0
3.1799999999999997,-0.22067520000000002,-4.3915584,0.7046976,8.971178400000001,0.0,0.0,0.0,0.0
3.1999999999999997,-0.1804416,-4.3915584,0.7046976,8.8943688,0.0,0.0,0.0,0.0
3.2199999999999998,-0.262128,-4.2833544,0.5964936000000001,8.971178400000001,0.0,0.0,0.0,0.0
3.2399999999999998,-0.172212,-4.3915584,0.5964936000000001,9.047683200000002,0.0,0.0,0.0,0.0
3.26,-0.06126480000000001,-4.3376088,0.5422392,9.047683200000002,0.0,0.0,0.0,0.0
3.28,-0.0225552,-4.2833544,0.5964936000000001,8.971178400000001,0.0,0.0,0.0,0.0
3.3,0.1551432,-4.3376088,0.5422392,9.047683200000002,0.0,0.0,0.0,0.0
3.32,0.1420368,-4.3376088,0.650748,8.971178400000001,0.0,0.0,0.0,0.0
3.34,0.1606296,-4.2833544,0.4879848,8.971178400000001,0.0,0.0,0.0,0.0
3.36,0.2337816,-4.445812800000001,0.5422392,8.971178400000001,0.0,0.0,0.0,0.0
3.38,0.0722376,-4.3915584,0.5964936000000001,8.971178400000001,0.0,0.0,0.0,0.0
3.4,-0.012192000000000003,-4.554321600000001,0.5422392,8.971178400000001,0.0,0.0,0.0,0.0
3.42,-0.032004000000000005,-4.5000672,0.5964936000000001,9.047683200000002,0.0,0.0,0.0,0.0
3.4399999999999995,-0.1816608,-4.554321600000001,0.650748,8.971178400000001,0.0,0.0,0.0,0.0
3.46,-0.108204,-4.445812800000001,0.5422392,9.047683200000002,0.0,0.0,0.0,0.0
3.4799999999999995,-0.2167128,-4.5000672,0.5964936000000001,8.971178400000001,0.0,0.0,0.0,0.0
3.5,-0.19933920000000002,-4.5000672,0.5964936000000001,8.971178400000001,0.0,0.0,0.0,0.0
3.5199999999999996,-0.2130552,-4.2833544,0.5964936000000001,8.971178400000001,0.0,0.0,0.0,0.0
3.54,-0.2200656,-4.3376088,0.650748,8.971178400000001,0.0,0.0,0.0,0.0
3.5599999999999996,-0.0719328,-4.3915584,0.5964936000000001,8.8943688,0.0,0.0,0.0,0.0
3.58,-0.08686800000000001,-4.3376088,0.650748,8.971178400000001,0.0,0.0,0.0,0.0
3.5999999999999996,-0.08229600000000001,-4.3376088,0.5422392,8.8943688,0.0,0.0,0.0,0.0
3.62,0.0371856,-4.3376088,0.5422392,8.8943688,0.0,0.0,0.0,0.0
3.6399999999999997,0.1999488,-4.3376088,0.5422392,9.047683200000002,0.0,0.0,0.0,0.0
3.66,0.2538984,-4.3376088,0.5422392,8.971178400000001,0.0,0.0,0.0,0.0
3.6799999999999997,0.140208,-4.3376088,0.5422392,8.817864,0.0,0.0,0.0,0.0
3.6999999999999997,0.0085344,-4.3376088,0.650748,8.8943688,0.0,0.0,0.0,0.0
3.7199999999999998,0.019812000000000003,-4.445812800000001,0.650748,8.971178400000001,0.0,0.0,0.0,0.0
3.7399999999999998,0.0633984,-4.5000672,0.5964936000000001,8.8943688,0.0,0.0,0.0,0.0
3.76,0.062484,-4.445812800000001,0.5422392,8.971178400000001,0.0,0.0,0.0,0.0
3.78,0.057912000000000005,-4.5000672,0.5964936000000001,8.971178400000001,0.0,0.0,0.0,0.0
3.8,-0.0466344,-4.445812800000001,0.5422392,9.047683200000002,0.0,0.0,0.0,0.0
3.82,-0.06126480000000001,-4.445812800000001,0.5422392,8.8943688,0.0,0.0,0.0,0.0
3.84,0.0128016,-4.445812800000001,0.5422392,8.971178400000001,0.0,0.0,0.0,0.0
3.86,0.1399032,-4.5000672,0.4879848,8.8943688,0.0,0.0,0.0,0.0
3.88,0.20513040000000002,-4.3915584,0.5964936000000001,8.971178400000001,0.0,0.0,0.0,0.0
3.9,0.23743920000000002,-4.3376088,0.650748,9.047683200000002,0.0,0.0,0.0,0.0
3.92,0.1908048,-4.3376088,0.650748,9.047683200000002,0.0,0.0,0.0,0.0
3.94,0.10058399999999999,-4.3376088,0.650748,8.971178400000001,0.0,0.0,0.0,0.0
3.96,0.043586400000000004,-4.2833544,0.5964936000000001,8.971178400000001,0.0,0.0,0.0,0.0
3.98,-0.0173736,-4.3915584,0.5964936000000001,9.047683200000002,0.0,0.0,0.0,0.0
4.0,0.0039624,-4.5000672,0.5964936000000001,9.047683200000002,0.0,0.0,0.0,0.0
4.02,-0.14478,-4.445812800000001,0.5422392,8.971178400000001,0.0,0.0,0.0,0.0
4.04,-0.041148000000000004,-4.445812800000001,0.650748,8.971178400000001,0.0,0.0,0.0,0.0
4.06,-0.005181600000000001,-4.5000672,0.4879848,8.971178400000001,0.0,0.0,0.0,0.0
4.08,-0.0249936,-4.3915584,0.5964936000000001,8.8943688,0.0,0.0,0.0,0.0
4.1,-0.1063752,-4.445812800000001,0.5422392,8.8943688,0.0,0.0,0.0,0.0
4.12,0.1011936,-4.445812800000001,0.5422392,8.971178400000001,0.0,0.0,0.0,0.0
4.14,0.014630400000000002,-4.3915584,0.5964936000000001,9.047683200000002,0.0,0.0,0.0,0.0
4.16,-0.08778240000000001,-4.445812800000001,0.650748,8.971178400000001,0.0,0.0,0.0,0.0
4.18,0.09997439999999999,-4.3915584,0.5964936000000001,8.971178400000001,0.0,0.0,0.0,0.0
4.2,-0.0027432000000000003,-4.3915584,0.5964936000000001,8.971178400000001,0.0,0.0,0.0,0.0
4.22,-0.08473440000000002,-4.445812800000001,0.5422392,8.971178400000001,0.0,0.0,0.0,0.0
4.24,0.08564880000000001,-4.3376088,0.650748,8.971178400000001,0.0,0.0,0.0,0.0
4.26,0.10424159999999999,-4.445812800000001,0.5422392,8.971178400000001,0.0,0.0,0.0,0.0
4.279999999999999,0.04907280000000001,-4.3376088,0.5422392,8.971178400000001,0.0,0.0,0.0,0.0
4.3,0.0539496,-4.3376088,0.650748,8.8943688,0.0,0.0,0.0,0.0
4.32,-0.0268224,-4.445812800000001,0.5422392,8.971178400000001,0.0,0.0,0.0,0.0
4.34,0.0268224,-4.3915584,0.4879848,8.8943688,0.0,0.0,0.0,0.0
4.359999999999999,0.11948160000000001,-4.5000672,0.5964936000000001,8.8943688,0.0,0.0,0.0,0.0
4.38,0.24140160000000002,-4.3376088,0.650748,8.971178400000001,0.0,0.0,0.0,0.0
4.3999999999999995,0.16794480000000003,-4.554321600000001,0.650748,9.047683200000002,0.0,0.0,0.0,0.0
4.42,0.10210799999999999,-4.5000672,0.5964936000000001,8.8943688,0.0,0.0,0.0,0.0
4.4399999999999995,-0.1673352,-4.445812800000001,0.650748,9.047683200000002,0.0,0.0,0.0,0.0
4.46,-0.12679680000000002,-4.445812800000001,0.5422392,8.971178400000001,0.0,0.0,0.0,0.0
4.4799999999999995,-0.12405360000000001,-4.3376088,0.5422392,8.971178400000001,0.0,0.0,0.0,0.0
4.5,-0.0664464,-4.445812800000001,0.5422392,8.971178400000001,0.0,0.0,0.0,0.0
4.52,-0.23743920000000002,-4.3915584,0.5964936000000001,8.971178400000001,0.0,0.0,0.0,0.0
4.54,0.0188976,-4.3915584,0.4879848,8.971178400000001,0.0,0.0,0.0,0.0
4.56,-0.06156960000000001,-4.3376088,0.5422392,9.047683200000002,0.0,0.0,0.0,0.0
4.58,-0.0725424,-4.2833544,0.5964936000000001,8.971178400000001,0.0,0.0,0.0,0.0
4.6,-0.1475232,-4.3376088,0.5422392,8.8943688,0.0,0.0,0.0,0.0
4.62,-0.054864,-4.3915584,0.5964936000000001,8.971178400000001,0.0,0.0,0.0,0.0
4.64,-0.1118616,-4.445812800000001,0.650748,8.8943688,0.0,0.0,0.0,0.0
4.66,-0.0222504,-4.445812800000001,0.650748,8.971178400000001,0.0,0.0,0.0,0.0
4.68,-0.0027432000000000003,0.2170176,-0.1085088,0.9201912000000001,0.0,0.0,0.0,0.0
4.7,0.12954000000000002,0.4337304,1.4097000000000002,3.7572696000000003,0.0,0.0,0.0,0.0
4.72,0.21305520000000003,0.4879848,2.4399240000000004,9.2013024,0.0,0.0,0.0,0.0
4.74,0.17251680000000003,-3.6326064,0.7046976,10.811256,0.0,0.0,0.0,0.0
4.76,0.23682960000000003,-1.1926824,2.4941784,10.5814368,0.0,0.0,0.0,0.0
4.78,0.2322576,-3.3616392,-0.650748,9.1244928,0.0,0.0,0.0,0.0
4.8,0.155448,-4.2833544,-0.37947600000000004,7.8976728000000005,0.0,0.0,0.0,0.0
4.819999999999999,0.29230320000000004,-6.5605152,1.6806672000000002,8.357616,0.0,0.0,0.0,0.0
4.84,0.3297936,-6.668719200000001,2.0061936,9.3546168,0.0,0.0,0.0,0.0
4.859999999999999,0.5035296,-10.5183432,11.0605824,23.539704000000004,0.0,0.0,0.0,0.0
4.88,0.8702040000000001,-19.518477600000004,-3.9035736000000005,-7.2076056,0.0,0.0,0.0,0.0
4.8999999999999995,1.8071592,4.7713392,27.325929600000002,92.241624,0.0,0.0,0.0,0.0
4.92,3.3960816,-204.78262320000002,17.2955712,-11.8847616,0.0,0.0,0.0,0.0
4.9399999999999995,5.4888384000000014,-94.61083440000002,-40.3927056,-60.4208088,0.0,0.0,0.0,0.0
4.96,8.8215216,-90.21927600000001,-23.2053384,22.772827200000002,0.0,0.0,0.0,0.0
4.9799999999999995,10.6058208,-112.6656624,-69.0740808,-4.4473368,0.0,0.0,0.0,0.0
5.0,10.3641144,-132.6721248,-81.5986176,-18.0956712,0.0,0.0,0.0,0.0
5.02,10.3632,-141.99778560000001,-79.32145679999999,7.744358400000001,0.0,0.0,0.0,0.0
5.04,10.7082336,-144.7086768,-77.3695176,16.715536800000002,0.0,0.0,0.0,0.0
5.06,11.61288,-145.5761376,-76.5020568,10.5814368,0.0,0.0,0.0,0.0
5.08,13.1938776,-150.6726984,-71.40549600000001,16.8688512,0.0,0.0,0.0,0.0
5.1,15.287853600000002,-156.63672,-65.4414744,20.242377600000005,0.0,0.0,0.0,0.0
5.12,17.845125600000003,-145.4676288,-76.6105656,12.651638400000001,0.0,0.0,0.0,0.0
5.14,20.49018,-93.74337360000001,-52.21224000000001,10.274503200000002,0.0,0.0,0.0,0.0
5.16,22.776484800000002,-73.0319088,-41.91060960000001,8.741054400000001,0.0,0.0,0.0,0.0
5.18,24.4504464,-67.555872,-38.061290400000004,4.907280000000001,0.0,0.0,0.0,0.0
5.2,25.925678400000002,-60.9956616,-38.4407664,6.9774816,0.0,0.0,0.0,0.0
5.22,27.058620000000005,-59.5859616,-34.9709232,7.130796,0.0,0.0,0.0,0.0
5.24,27.9940512,-57.200292,-33.9949536,5.2139088000000005,0.0,0.0,0.0,0.0
5.26,28.832251199999998,-53.8929072,-31.6635384,5.4440328000000004,0.0,0.0,0.0,0.0
5.279999999999999,29.511650400000004,-52.808733600000004,-30.579060000000002,5.597347200000001,0.0,0.0,0.0,0.0
5.3,30.387950400000005,-50.80254000000001,-29.548835999999998,4.6006512,0.0,0.0,0.0,0.0
5.32,31.3252104,-51.0735072,-28.3018992,4.8304704,0.0,0.0,0.0,0.0
5.34,32.1804792,-50.260300799999996,-28.1394408,5.060594400000001,0.0,0.0,0.0,0.0
5.359999999999999,32.935164,-50.151792,-26.9464536,4.2172128,0.0,0.0,0.0,0.0
5.38,33.6477864,-51.453288,-26.2960104,4.1404032,0.0,0.0,0.0,0.0
5.3999999999999995,34.382354400000004,-51.3990336,-25.0487688,4.677156,0.0,0.0,0.0,0.0
5.42,35.155632000000004,-49.772316,-25.8080256,4.677156,0.0,0.0,0.0,0.0
5.4399999999999995,35.9685336,-50.260300799999996,-26.2960104,5.6741568000000004,0.0,0.0,0.0,0.0
5.46,36.9938808,-47.983140000000006,-25.4282448,5.2139088000000005,0.0,0.0,0.0,0.0
5.4799999999999995,38.04513600000001,-46.7904576,-26.1875016,4.907280000000001,0.0,0.0,0.0,0.0
5.5,39.24178080000001,-47.3866464,-26.241756000000002,4.907280000000001,0.0,0.0,0.0,0.0
5.52,40.4308056,-46.085455200000006,-26.458468800000002,4.1404032,0.0,0.0,0.0,0.0
5.54,41.6399472,-44.838518400000005,-25.753771200000003,3.3738312000000006,0.0,0.0,0.0,0.0
5.56,42.911268,-44.0795664,-24.7778016,4.4473368,0.0,0.0,0.0,0.0
5.58,44.261532,-43.862548800000006,-25.5367536,3.450336,0.0,0.0,0.0,0.0
5.6,45.748346399999996,-45.055536000000004,-23.4766104,4.0638984,0.0,0.0,0.0,0.0
5.62,47.287891200000004,-42.669866400000004,-25.3200408,4.4473368,0.0,0.0,0.0,0.0
5.64,48.83414160000001,-45.9772512,-21.904147200000004,4.523841600000001,0.0,0.0,0.0,0.0
5.66,50.4148344,-43.1578512,-24.723547200000002,4.4473368,0.0,0.0,0.0,0.0
5.68,52.1308584,-43.4830728,-23.747577600000003,4.523841600000001,0.0,0.0,0.0,0.0
5.7,53.65302960000001,-42.5071032,-24.072799200000002,5.597347200000001,0.0,0.0,0.0,0.0
5.72,55.282185600000005,-41.422929599999996,-23.422356,5.2907184,0.0,0.0,0.0,0.0
5.74,57.0222888,-42.181881600000004,-23.2053384,4.984089600000001,0.0,0.0,0.0,0.0
5.76,58.575854400000004,-41.7481512,-23.747577600000003,4.0638984,0.0,0.0,0.0,0.0
5.779999999999999,60.1336872,-43.9710576,-22.9343712,4.2937176,0.0,0.0,0.0,0.0
5.8,61.8356904,-43.266055200000004,-22.771608,4.0638984,0.0,0.0,0.0,0.0
5.82,63.333782400000004,-44.350533600000006,-20.711464799999998,3.6036504000000003,0.0,0.0,0.0,0.0
5.84,64.94129760000001,-43.7000904,-21.1451952,3.3738312000000006,0.0,0.0,0.0,0.0
5.859999999999999,66.6271464,-42.1276272,-20.1149712,3.2205168000000004,0.0,0.0,0.0,0.0
5.88,68.1727872,-41.2601664,-21.63318,4.1404032,0.0,0.0,0.0,0.0
5.9,69.800724,-41.0974032,-20.711464799999998,4.523841600000001,0.0,0.0,0.0,0.0
5.92,71.3152752,-40.826436,-22.7173536,3.450336,0.0,0.0,0.0,0.0
5.9399999999999995,72.7798392,-39.145464000000004,-22.2293688,3.0672024,0.0,0.0,0.0,0.0
5.96,74.2626912,-36.976812,-22.5548952,3.2970216000000003,0.0,0.0,0.0,0.0
5.9799999999999995,75.85588080000001,-37.9527816,-21.470416800000002,3.2205168000000004,0.0,0.0,0.0,0.0
6.0,77.27838240000001,-37.573305600000005,-21.741384,2.3768304000000002,0.0,0.0,0.0,0.0
6.02,78.73563119999999,-39.633448800000004,-20.8739232,3.3738312000000006,0.0,0.0,0.0,0.0
6.04,80.328516,-37.62756,-22.1211648,4.1404032,0.0,0.0,0.0,0.0
6.06,81.71687999999999,-37.1938296,-21.470416800000002,3.5271456,0.0,0.0,0.0,0.0
6.08,83.0253864,-37.7360688,-21.687434400000004,4.2937176,0.0,0.0,0.0,0.0
6.1,84.6758784,-38.2237488,-22.0669104,3.2970216000000003,0.0,0.0,0.0,0.0
6.12,86.28796559999999,-36.8683032,-22.880116800000003,2.9135831999999997,0.0,0.0,0.0,0.0
6.14,88.0067328,-37.302338400000004,-22.1211648,3.6036504000000003,0.0,0.0,0.0,0.0
6.16,89.9092944,-36.4888272,-20.8739232,4.523841600000001,0.0,0.0,0.0,0.0
6.18,91.6673808,-36.2721144,-21.4161624,4.677156,0.0,0.0,0.0,0.0
6.199999999999999,93.5528736,-37.085320800000005,-19.844004,4.523841600000001,0.0,0.0,0.0,0.0
6.22,95.614236,-35.2418904,-21.0366864,3.7572696000000003,0.0,0.0,0.0,0.0
6.24,97.29216,-35.567112,-21.1451952,3.0672024,0.0,0.0,0.0,0.0
6.26,99.16027919999999,-34.1031576,-21.090940800000002,3.8337744,0.0,0.0,0.0,0.0
6.279999999999999,101.198172,-35.946588000000006,-20.6572104,4.6006512,0.0,0.0,0.0,0.0
6.3,102.9318744,-33.7236816,-20.1692256,3.3738312000000006,0.0,0.0,0.0,0.0
6.32,104.7061152,-33.8864448,-20.765719200000003,3.3738312000000006,0.0,0.0,0.0,0.0
6.34,106.6559208,-34.5911424,-16.482364800000003,9.2778072,0.0,0.0,0.0,0.0
6.359999999999999,108.5048376,-35.024872800000004,-20.8199736,4.2937176,0.0,0.0,0.0,0.0
6.38,110.3952072,-33.2899512,-19.193256,4.7539656,0.0,0.0,0.0,0.0
6.4,112.26210719999999,-32.1515232,-18.2715408,4.907280000000001,0.0,0.0,0.0,0.0
6.42,114.08023920000001,-33.2899512,-19.0847472,5.2139088000000005,0.0,0.0,0.0,0.0
6.4399999999999995,115.89197039999999,-33.3442056,-20.765719200000003,4.2937176,0.0,0.0,0.0,0.0
6.46,117.6982152,-34.3744296,-20.9281776,3.910584,0.0,0.0,0.0,0.0
6.4799999999999995,119.6343048,-34.2116664,-20.3319888,2.9903928,0.0,0.0,0.0,0.0
6.5,121.5353424,-33.181747200000004,-20.494447200000003,3.9870888,0.0,0.0,0.0,0.0
6.52,123.51349439999998,-32.693762400000004,-20.1149712,4.677156,0.0,0.0,0.0,0.0
6.54,125.40965519999999,-31.8802512,-20.3859384,3.0672024,0.0,0.0,0.0,0.0
6.56,127.26863039999999,-32.8019664,-19.464223200000003,5.367223200000001,0.0,0.0,0.0,0.0
6.58,129.0623784,-32.368235999999996,-19.789749600000004,6.0572904,0.0,0.0,0.0,0.0
6.6,130.9570152,-33.181747200000004,-19.6269864,4.677156,0.0,0.0,0.0,0.0
6.62,132.8281824,-32.3139816,-19.0847472,6.0572904,0.0,0.0,0.0,0.0
6.64,134.7179424,-31.609284000000002,-19.6812408,4.984089600000001,0.0,0.0,0.0,0.0
6.66,136.5470472,-31.609284000000002,-17.40408,6.747662400000001,0.0,0.0,0.0,0.0
6.68,138.4733832,-37.573305600000005,-11.5485672,12.5748288,0.0,0.0,0.0,0.0
6.699999999999999,140.678916,-32.205777600000005,-17.1331128,7.437729600000001,0.0,0.0,0.0,0.0
6.72,142.8280608,-32.4767448,-17.40408,7.0542912,0.0,0.0,0.0,0.0
6.74,145.0351176,-33.2899512,-17.024604,5.137404,0.0,0.0,0.0,0.0
6.76,147.40981440000002,-30.524805600000004,-16.645128,6.594043200000001,0.0,0.0,0.0,0.0
6.779999999999999,149.8354128,-31.229808,-16.8075864,5.4440328000000004,0.0,0.0,0.0,0.0
6.8,152.096724,-33.2356968,-16.970349600000002,4.4473368,0.0,0.0,0.0,0.0
6.82,154.3943064,-31.229808,-16.8075864,5.750661600000001,0.0,0.0,0.0,0.0
6.84,156.64738799999998,-31.121299200000003,-18.542508,5.060594400000001,0.0,0.0,0.0,0.0
6.859999999999999,158.9312544,-31.012790400000004,-17.8920648,5.2907184,0.0,0.0,0.0,0.0
6.88,161.1291672,-30.9042816,-18.7595256,4.8304704,0.0,0.0,0.0,0.0
6.9,163.23929760000001,-30.9042816,-19.952208,4.8304704,0.0,0.0,0.0,0.0
6.92,165.2110488,-31.6635384,-18.3257952,5.137404,0.0,0.0,0.0,0.0
6.9399999999999995,167.2501608,-30.633314400000003,-17.9463192,4.6006512,0.0,0.0,0.0,0.0
6.96,169.115232,-31.012790400000004,-17.6750472,5.4440328000000004,0.0,0.0,0.0,0.0
6.98,171.1013088,-31.825996800000002,-16.970349600000002,5.367223200000001,0.0,0.0,0.0,0.0
7.0,172.9935072,-30.633314400000003,-17.40408,5.597347200000001,0.0,0.0,0.0,0.0
7.02,174.7637856,-30.199584,-18.3800496,5.2139088000000005,0.0,0.0,0.0,0.0
7.04,176.5550952,-29.494886400000002,-18.1087776,5.2139088000000005,0.0,0.0,0.0,0.0
7.06,178.37962800000003,-29.603090400000003,-18.434304,5.2139088000000005,0.0,0.0,0.0,0.0
7.08,180.1858728,-28.1394408,-17.6210976,4.523841600000001,0.0,0.0,0.0,0.0
7.1,182.05612560000003,-30.308092800000004,-16.5366192,4.2172128,0.0,0.0,0.0,0.0
7.119999999999999,183.96905040000001,-30.416601600000003,-16.645128,4.523841600000001,0.0,0.0,0.0,0.0
7.14,185.82192959999998,-31.825996800000002,-17.2955712,4.8304704,0.0,0.0,0.0,0.0
7.16,187.8095304,-29.494886400000002,-17.3498256,5.2139088000000005,0.0,0.0,0.0,0.0
7.18,189.72916080000002,-27.8139144,-16.970349600000002,5.060594400000001,0.0,0.0,0.0,0.0
7.199999999999999,191.90695680000002,-28.0851864,-17.6750472,5.060594400000001,0.0,0.0,0.0,0.0
7.22,193.971672,-29.494886400000002,-17.024604,6.2109096,0.0,0.0,0.0,0.0
7.24,196.0043832,-29.440632,-17.40408,5.9807856,0.0,0.0,0.0,0.0
7.26,198.0724512,-30.958536,-14.909901600000001,5.060594400000001,0.0,0.0,0.0,0.0
7.279999999999999,200.1831912,-29.928616800000004,-15.7234128,5.137404,0.0,0.0,0.0,0.0
7.3,202.3311168,-29.494886400000002,-15.9401256,5.2907184,0.0,0.0,0.0,0.0
7.32,204.45892560000001,-29.874362400000003,-17.0788584,4.523841600000001,0.0,0.0,0.0,0.0
7.34,206.66567759999998,-28.627120800000004,-17.1331128,4.8304704,0.0,0.0,0.0,0.0
7.359999999999999,208.8175656,-28.735629600000003,-18.000573600000003,4.7539656,0.0,0.0,0.0,0.0
7.38,211.075524,-28.5731712,-17.729301600000003,5.6741568000000004,0.0,0.0,0.0,0.0
7.4,213.3557328,-28.4646624,-18.488558400000002,4.2172128,0.0,0.0,0.0,0.0
7.42,215.6981208,-27.2177256,-18.000573600000003,5.2907184,0.0,0.0,0.0,0.0
7.4399999999999995,218.063064,-27.2177256,-17.783556,5.903976000000001,0.0,0.0,0.0,0.0
7.46,220.4469048,-27.054962400000004,-15.1269192,6.4407288000000005,0.0,0.0,0.0,0.0
7.48,222.8563488,-28.193390400000002,-18.542508,5.060594400000001,0.0,0.0,0.0,0.0
7.5,225.40691520000001,-28.8441384,-18.976543200000002,4.907280000000001,0.0,0.0,0.0,0.0
7.52,227.865432,-29.494886400000002,-17.783556,6.9774816,0.0,0.0,0.0,0.0
7.54,230.3757648,-27.542947200000004,-17.1331128,6.5175384,0.0,0.0,0.0,0.0
7.56,232.841292,-27.5972016,-16.8618408,5.750661600000001,0.0,0.0,0.0,0.0
7.58,235.3763136,-27.4344384,-17.024604,5.2907184,0.0,0.0,0.0,0.0
7.6,237.78057600000002,-29.603090400000003,-17.1331128,5.2907184,0.0,0.0,0.0,0.0
7.619999999999999,240.104676,-22.337877600000002,-14.5304256,4.907280000000001,0.0,0.0,0.0,0.0
7.64,242.1745728,2.7651456,3.5240976,1.0735056,0.0,0.0,0.0,0.0
7.66,243.6458424,2.6023824,5.205069600000001,3.68046,0.0,0.0,0.0,0.0
7.68,244.6684464,4.012082400000001,6.506260800000001,6.2874144,0.0,0.0,0.0,0.0
7.699999999999999,245.015004,13.7172192,6.885736800000001,14.338401600000001,0.0,0.0,0.0,0.0
7.72,244.98696239999998,7.2652128,40.3384512,63.48801120000001,0.0,0.0,0.0,0.0
7.74,244.74556080000002,2.9279088,24.3983256,27.756916800000003,0.0,0.0,0.0,0.0
7.76,244.4105856,6.614769600000001,13.662964800000001,31.360567200000002,0.0,0.0,0.0,0.0
7.779999999999999,244.05518880000002,6.1267848,29.548835999999998,29.9036232,0.0,0.0,0.0,0.0
7.8,243.85005840000002,-1.9519392,6.8314824000000005,16.7920416,0.0,0.0,0.0,0.0
7.82,243.86621280000003,4.933797600000001,12.8497584,20.5493112,0.0,0.0,0.0,0.0
7.84,243.8448768,3.578352,11.8195344,19.0158624,0.0,0.0,0.0,0.0
7.859999999999999,243.9576528,5.0423064,11.5485672,19.5523104,0.0,0.0,0.0,0.0
7.88,244.2612336,5.421782400000001,10.193121600000001,18.4023,0.0,0.0,0.0,0.0
7.9,244.61906879999998,4.7170848,10.138867200000002,18.172176,0.0,0.0,0.0,0.0
7.92,245.1061392,4.8252888,10.789310400000002,18.4023,0.0,0.0,0.0,0.0
7.9399999999999995,245.8446696,4.6628304,9.976104,18.632424,0.0,0.0,0.0,0.0
7.96,246.5822856,4.0663368,12.0908064,18.172176,0.0,0.0,0.0,0.0
7.98,247.4832744,7.210958400000001,8.5121496,18.0188616,0.0,0.0,0.0,0.0
8.0,248.3626224,4.6628304,9.6508824,16.715536800000002,0.0,0.0,0.0,0.0
8.02,249.4105248,4.5000672,11.2230408,17.2522896,0.0,0.0,0.0,0.0
8.04,250.39868640000003,4.012082400000001,10.193121600000001,17.7122328,0.0,0.0,0.0,0.0
8.059999999999999,251.508768,6.018276,8.4039456,16.3320984,0.0,0.0,0.0,0.0
8.08,252.6886488,5.8555128,8.7834216,16.945356,0.0,0.0,0.0,0.0
8.1,253.93070880000002,5.801258400000001,8.729167200000001,17.0986704,0.0,0.0,0.0,0.0
8.12,255.2279376,5.8555128,8.241182400000001,16.715536800000002,0.0,0.0,0.0,0.0
8.14,256.52364239999997,4.2833544,9.813645600000001,15.4119072,0.0,0.0,0.0,0.0
8.16,257.86842,3.8496240000000004,10.355580000000002,15.718536,0.0,0.0,0.0,0.0
8.18,259.18210799999997,4.988052,7.6989432,15.642031200000002,0.0,0.0,0.0,0.0
8.2,260.51256,4.2291,9.976104,15.642031200000002,0.0,0.0,0.0,0.0
8.219999999999999,261.7924152,4.3376088,9.0001344,14.8751544,0.0,0.0,0.0,0.0
8.24,263.0198448,5.096560800000001,7.4822304,15.488716800000002,0.0,0.0,0.0,0.0
8.26,264.3917496,3.8496240000000004,8.729167200000001,14.4152112,0.0,0.0,0.0,0.0
8.28,265.7237256,4.120591200000001,9.108643200000001,13.1883912,0.0,0.0,0.0,0.0
8.3,266.9292096,3.8496240000000004,10.4640888,14.2618968,0.0,0.0,0.0,0.0
8.32,268.2075408,4.3915584,8.729167200000001,14.108277600000001,0.0,0.0,0.0,0.0
8.34,269.4575256,3.1446216000000002,9.976104,14.5685256,0.0,0.0,0.0,0.0
8.36,270.7794432,3.2531304000000003,10.5183432,13.6483344,0.0,0.0,0.0,0.0
8.379999999999999,272.06021280000004,2.9818584,10.138867200000002,13.264896000000002,0.0,0.0,0.0,0.0
8.4,273.3269616,3.5240976,8.0784192,12.7281432,0.0,0.0,0.0,0.0
8.42,274.6543656,3.6868608000000003,9.217152,12.651638400000001,0.0,0.0,0.0,0.0
8.44,275.8933776,3.8496240000000004,8.94588,12.958267200000002,0.0,0.0,0.0,0.0
8.46,277.1394,4.3915584,8.4039456,13.1883912,0.0,0.0,0.0,0.0
8.48,278.3592096,3.198876,8.0784192,12.5748288,0.0,0.0,0.0,0.0
8.5,279.5750568,3.7953696000000003,8.241182400000001,12.498324000000002,0.0,0.0,0.0,0.0
8.52,280.81498320000003,2.8194000000000004,10.735360799999999,12.345009600000001,0.0,0.0,0.0,0.0
8.54,282.0357072,4.3376088,7.915960800000001,12.498324000000002,0.0,0.0,0.0,0.0
8.559999999999999,283.1427408,3.8496240000000004,8.5121496,11.9615712,0.0,0.0,0.0,0.0
8.58,284.2979328,3.7953696000000003,7.048500000000001,11.8082568,0.0,0.0,0.0,0.0
8.6,285.2876184,2.0601432,9.867595200000002,12.1913904,0.0,0.0,0.0,0.0
8.62,286.483044,3.4158936000000004,8.4039456,11.501323200000002,0.0,0.0,0.0,0.0
8.64,287.7290664,3.4158936000000004,7.3194672,10.888065600000001,0.0,0.0,0.0,0.0
8.66,288.7656912,3.6326064,8.0784192,11.271504,0.0,0.0,0.0,0.0
8.68,289.8193848,5.0423064,5.5845456,11.271504,0.0,0.0,0.0,0.0
8.7,290.83650240000003,2.0601432,8.6749128,10.657941600000001,0.0,0.0,0.0,0.0
8.719999999999999,291.8274072,2.1143976,9.0543888,10.657941600000001,0.0,0.0,0.0,0.0
8.74,292.972236,4.3376088,4.012082400000001,10.428122400000001,0.0,0.0,0.0,0.0
8.76,294.0881088,2.1686520000000002,7.915960800000001,11.501323200000002,0.0,0.0,0.0,0.0
8.78,295.24421520000004,4.933797600000001,6.5605152,12.038076,0.0,0.0,0.0,0.0
8.8,296.3101008,1.3554456000000001,6.9942456,9.891369599999999,0.0,0.0,0.0,0.0
8.82,297.4607208,4.8795432000000005,4.120591200000001,10.734751200000002,0.0,0.0,0.0,0.0
8.84,298.5732408,4.120591200000001,5.421782400000001,11.194694400000001,0.0,0.0,0.0,0.0
8.86,299.6814936,4.8252888,4.8252888,9.737750400000001,0.0,0.0,0.0,0.0
8.879999999999999,300.76902,2.6023824,7.915960800000001,10.734751200000002,0.0,0.0,0.0,0.0
8.899999999999999,301.8452688,2.7108912000000003,7.2652128,10.9645704,0.0,0.0,0.0,0.0
8.92,302.8846368,2.7651456,5.259324,9.2778072,0.0,0.0,0.0,0.0
8.94,303.8788944,2.1143976,6.777228,9.814560000000002,0.0,0.0,0.0,0.0
8.96,304.940208,2.8736544000000004,7.3194672,10.5046272,0.0,0.0,0.0,0.0
8.98,306.0701016,4.554321600000001,3.4698432,9.967874400000001,0.0,0.0,0.0,0.0
9.0,307.0984968,1.789176,8.4039456,9.047683200000002,0.0,0.0,0.0,0.0
9.02,308.1265872,1.6806672000000002,4.8252888,8.741054400000001,0.0,0.0,0.0,0.0
9.04,309.2186856,2.1686520000000002,5.205069600000001,8.8943688,0.0,0.0,0.0,0.0
9.059999999999999,310.2659784,1.0844784,6.1807343999999995,9.2778072,0.0,0.0,0.0,0.0
9.08,311.3129664,3.6326064,3.6326064,8.5109304,0.0,0.0,0.0,0.0
9.1,312.3995784,2.0061936,6.2349888,8.6645496,0.0,0.0,0.0,0.0
9.120000000000001,313.4910672,0.8674608,7.6989432,9.047683200000002,0.0,0.0,0.0,0.0
9.14,314.6032824,1.0844784,6.9399912,9.1244928,0.0,0.0,0.0,0.0
9.16,315.6822744,0.9759696,5.7470040000000004,8.8943688,0.0,0.0,0.0,0.0
9.18,316.67104559999996,2.2229064000000003,4.2833544,8.58774,0.0,0.0,0.0,0.0
9.2,317.7436368,1.8976848000000002,5.9097672,8.4344256,0.0,0.0,0.0,0.0
9.219999999999999,318.9012672,1.2469368,5.476036800000001,8.4344256,0.0,0.0,0.0,0.0
9.24,320.0192736,2.548128,4.2833544,8.2043016,0.0,0.0,0.0,0.0
9.26,321.02816160000003,1.1926824,5.7470040000000004,8.2811112,0.0,0.0,0.0,0.0
9.280000000000001,322.19524079999997,2.8736544000000004,4.7170848,8.4344256,0.0,0.0,0.0,0.0
9.3,323.3687208,2.6566368,3.8496240000000004,8.2811112,0.0,0.0,0.0,0.0
9.32,324.45929520000004,2.8194000000000004,3.3616392,8.58774,0.0,0.0,0.0,0.0
9.34,325.59376080000004,2.2771608000000003,4.445812800000001,8.4344256,0.0,0.0,0.0,0.0
9.36,326.7017088,2.4399240000000004,3.957828,7.437729600000001,0.0,0.0,0.0,0.0
9.379999999999999,327.7992936,1.789176,3.957828,7.591044000000001,0.0,0.0,0.0,0.0
9.399999999999999,328.8621312,1.3554456000000001,5.0423064,7.5142344,0.0,0.0,0.0,0.0
9.42,329.9335032,1.2469368,3.7411152,7.591044000000001,0.0,0.0,0.0,0.0
9.44,331.021944,0.5964936000000001,5.367528,7.0542912,0.0,0.0,0.0,0.0
9.46,332.0783808,1.7349216,4.445812800000001,7.0542912,0.0,0.0,0.0,0.0
9.48,333.1195776,1.0844784,3.6868608000000003,6.9009768,0.0,0.0,0.0,0.0
9.5,334.20923760000005,1.030224,4.1748456,7.0542912,0.0,0.0,0.0,0.0
9.52,335.3284632,1.5182088,3.6868608000000003,6.8241672,0.0,0.0,0.0,0.0
9.54,336.33735120000006,1.6264128000000002,4.3376088,7.130796,0.0,0.0,0.0,0.0
9.559999999999999,337.36513679999996,2.7651456,2.4399240000000004,7.0542912,0.0,0.0,0.0,0.0
9.58,338.3438496,0.7046976,5.1508152,7.0542912,0.0,0.0,0.0,0.0
9.6,339.1838784,0.0542544,4.7170848,6.9774816,0.0,0.0,0.0,0.0
9.620000000000001,340.130892,0.37947600000000004,4.8252888,6.747662400000001,0.0,0.0,0.0,0.0
9.64,341.1202728,1.030224,4.933797600000001,6.6708528000000005,0.0,0.0,0.0,0.0
9.66,342.0742968,0.3252216,5.205069600000001,6.5175384,0.0,0.0,0.0,0.0
9.68,343.0490472,1.8434304000000001,2.8194000000000004,6.747662400000001,0.0,0.0,0.0,0.0
9.7,343.9917936,-0.3252216,5.964021600000001,5.903976000000001,0.0,0.0,0.0,0.0
9.719999999999999,344.96959200000003,-0.7046976,6.343497600000001,6.6708528000000005,0.0,0.0,0.0,0.0
9.74,345.9925008,1.8976848000000002,3.957828,6.5175384,0.0,0.0,0.0,0.0
9.76,346.8931848,0.4879848,4.608576,6.1341,0.0,0.0,0.0,0.0
9.780000000000001,347.78594400000003,-0.0542544,5.259324,6.0572904,0.0,0.0,0.0,0.0
9.8,348.7631328,1.1926824,4.012082400000001,5.903976000000001,0.0,0.0,0.0,0.0
9.82,349.7622672,1.8434304000000001,3.6868608000000003,6.0572904,0.0,0.0,0.0,0.0
9.84,350.6321664,0.3252216,5.205069600000001,5.750661600000001,0.0,0.0,0.0,0.0
9.86,351.492312,0.2709672,3.957828,5.750661600000001,0.0,0.0,0.0,0.0
9.879999999999999,352.34483760000006,1.4639544,3.5240976,5.367223200000001,0.0,0.0,0.0,0.0
9.899999999999999,353.2680768,1.2469368,3.0903671999999998,5.4440328000000004,0.0,0.0,0.0,0.0
9.92,354.14132880000005,0.5964936000000001,4.3915584,5.2907184,0.0,0.0,0.0,0.0
9.94,355.0700544,0.5964936000000001,4.7170848,5.2139088000000005,0.0,0.0,0.0,0.0
9.96,355.85948640000004,-0.1085088,4.7713392,5.367223200000001,0.0,0.0,0.0,0.0
9.98,356.6857992,0.7589520000000001,4.012082400000001,5.2907184,0.0,0.0,0.0,0.0
10.0,357.627936,-0.4879848,5.0423064,5.367223200000001,0.0,0.0,0.0,0.0
10.02,358.5069792,0.650748,4.554321600000001,5.5205376,0.0,0.0,0.0,0.0
10.04,359.4210744,0.16276320000000002,3.7411152,5.060594400000001,0.0,0.0,0.0,0.0
10.059999999999999,360.3272448,0.1085088,3.4698432,5.2907184,0.0,0.0,0.0,0.0
10.08,361.19074320000004,0.16276320000000002,3.3073848000000003,4.8304704,0.0,0.0,0.0,0.0
10.1,362.12769840000004,-0.0542544,4.2833544,4.984089600000001,0.0,0.0,0.0,0.0
10.120000000000001,362.99394,0.0542544,3.6326064,4.8304704,0.0,0.0,0.0,0.0
10.14,363.9336384,0.8674608,2.7108912000000003,4.677156,0.0,0.0,0.0,0.0
10.16,364.691676,0.8132064000000001,2.8736544000000004,4.6006512,0.0,0.0,0.0,0.0
10.18,365.5774248,0.2170176,2.9279088,4.677156,0.0,0.0,0.0,0.0
10.2,366.48969120000004,0.3252216,3.7953696000000003,4.677156,0.0,0.0,0.0,0.0
10.219999999999999,367.37086800000003,0.0542544,3.6326064,4.8304704,0.0,0.0,0.0,0.0
10.24,368.29105919999995,-0.2170176,4.2291,4.677156,0.0,0.0,0.0,0.0
10.26,369.20576400000004,0.16276320000000002,3.3073848000000003,4.677156,0.0,0.0,0.0,0.0
10.280000000000001,370.21404240000004,0.16276320000000002,3.3073848000000003,4.4473368,0.0,0.0,0.0,0.0
10.3,371.1650184,0.2170176,2.6023824,4.2937176,0.0,0.0,0.0,0.0
10.32,372.0535104,0.0,3.3616392,4.2937176,0.0,0.0,0.0,0.0
10.34,373.01424000000003,0.8132064000000001,2.7651456,4.370527200000001,0.0,0.0,0.0,0.0
10.36,373.9228488,0.5422392,2.7108912000000003,4.370527200000001,0.0,0.0,0.0,0.0
10.379999999999999,374.80006319999995,0.9759696,2.1686520000000002,4.4473368,0.0,0.0,0.0,0.0
10.399999999999999,375.6135744,0.8132064000000001,2.7651456,4.2172128,0.0,0.0,0.0,0.0
10.42,376.3935576,0.4337304,2.9279088,4.1404032,0.0,0.0,0.0,0.0
10.44,377.240292,0.0,2.9279088,4.370527200000001,0.0,0.0,0.0,0.0
10.46,377.987052,-0.1085088,2.7108912000000003,4.1404032,0.0,0.0,0.0,0.0
10.48,378.81580320000006,-0.2170176,3.0361128,4.1404032,0.0,0.0,0.0,0.0
10.5,379.5509808,0.37947600000000004,1.8976848000000002,3.9870888,0.0,0.0,0.0,0.0
10.52,380.2392192,-0.16276320000000002,2.9818584,4.0638984,0.0,0.0,0.0,0.0
10.54,381.0088392,0.0542544,2.3314152,3.450336,0.0,0.0,0.0,0.0
10.559999999999999,381.7662672,0.3252216,3.0361128,3.910584,0.0,0.0,0.0,0.0
10.58,382.4697456,0.4337304,2.3856696,3.7572696000000003,0.0,0.0,0.0,0.0
10.6,383.2207728,-0.16276320000000002,2.8736544000000004,3.5271456,0.0,0.0,0.0,0.0
10.620000000000001,384.00045120000004,0.2709672,2.4399240000000004,3.68046,0.0,0.0,0.0,0.0
10.64,384.755136,0.3252216,2.8194000000000004,3.6036504000000003,0.0,0.0,0.0,0.0
10.66,385.45160400000003,-0.16276320000000002,3.198876,3.3738312000000006,0.0,0.0,0.0,0.0
10.68,386.1383184,-0.2709672,3.198876,2.9903928,0.0,0.0,0.0,0.0
10.7,386.8884312,0.0542544,2.548128,3.2970216000000003,0.0,0.0,0.0,0.0
10.719999999999999,387.54954240000006,0.3252216,2.0601432,3.2205168000000004,0.0,0.0,0.0,0.0
10.74,388.2825864,0.0542544,2.9818584,3.2205168000000004,0.0,0.0,0.0,0.0
10.76,389.0540352,0.16276320000000002,2.9818584,3.2205168000000004,0.0,0.0,0.0,0.0
10.780000000000001,389.78555520000003,-0.0542544,2.8736544000000004,3.2205168000000004,0.0,0.0,0.0,0.0
10.8,390.4801944,0.3252216,2.3856696,2.8370784000000002,0.0,0.0,0.0,0.0
10.82,391.1961696,-0.37947600000000004,2.8736544000000004,2.9135831999999997,0.0,0.0,0.0,0.0
10.84,391.93957680000005,-0.2709672,2.6566368,3.0672024,0.0,0.0,0.0,0.0
10.86,392.6595144,-0.0542544,2.3314152,2.9135831999999997,0.0,0.0,0.0,0.0
10.879999999999999,393.3751848,-0.8132064000000001,3.0903671999999998,2.9135831999999997,0.0,0.0,0.0,0.0
10.899999999999999,394.0725672,-0.650748,2.1686520000000002,2.8370784000000002,0.0,0.0,0.0,0.0
10.92,394.78549440000006,-0.5964936000000001,2.8736544000000004,2.9135831999999997,0.0,0.0,0.0,0.0
10.94,395.484096,-0.5422392,2.1686520000000002,2.683764,0.0,0.0,0.0,0.0
10.96,396.1799544,-0.4337304,2.7108912000000003,2.6069544000000002,0.0,0.0,0.0,0.0
10.98,396.9343344,-0.7589520000000001,3.0361128,2.683764,0.0,0.0,0.0,0.0
11.0,397.63171680000005,-0.2170176,2.4941784,2.7602688,0.0,0.0,0.0,0.0
11.02,398.2891704,-0.3252216,2.4941784,2.7602688,0.0,0.0,0.0,0.0
11.04,398.96399759999997,-0.16276320000000002,2.6566368,2.5304496,0.0,0.0,0.0,0.0
11.059999999999999,399.603468,0.2170176,2.2771608000000003,2.4536400000000005,0.0,0.0,0.0,0.0
11.08,400.3270632,-0.4337304,2.7108912000000003,2.4536400000000005,0.0,0.0,0.0,0.0
11.1,400.9711056,0.3252216,1.8434304000000001,2.3003256,0.0,0.0,0.0,0.0
11.120000000000001,401.5715616,-0.1085088,1.9519392,2.4536400000000005,0.0,0.0,0.0,0.0
11.14,402.1647024,-0.9217152000000001,3.198876,2.3003256,0.0,0.0,0.0,0.0
11.16,402.7861896,-0.2709672,2.3314152,2.4536400000000005,0.0,0.0,0.0,0.0
11.18,403.373844,-0.4337304,2.4941784,2.223516,0.0,0.0,0.0,0.0
11.2,404.07031200000006,-0.3252216,2.2771608000000003,2.3768304000000002,0.0,0.0,0.0,0.0
11.219999999999999,404.70917280000003,0.2170176,1.7349216,2.223516,0.0,0.0,0.0,0.0
11.24,405.3995448,-0.8674608,2.1686520000000002,2.3003256,0.0,0.0,0.0,0.0
11.26,405.9573288,-0.650748,2.4941784,2.3003256,0.0,0.0,0.0,0.0
11.280000000000001,406.5410208,-1.1926824,2.8194000000000004,2.3003256,0.0,0.0,0.0,0.0
11.3,407.17104240000003,-0.8674608,2.0601432,1.9936968000000002,0.0,0.0,0.0,0.0
11.32,407.7327888,-0.7046976,1.789176,1.7635728,0.0,0.0,0.0,0.0
11.34,408.3097752,-0.2709672,1.4639544,1.9168872,0.0,0.0,0.0,0.0
11.36,408.93796800000007,-0.7589520000000001,2.1686520000000002,1.9936968000000002,0.0,0.0,0.0,0.0
11.379999999999999,409.58414400000004,-0.9217152000000001,2.548128,1.8400776,0.0,0.0,0.0,0.0
11.399999999999999,410.1248592,-1.1926824,2.7108912000000003,1.8400776,0.0,0.0,0.0,0.0
11.42,410.67349920000004,-0.2709672,1.5724632,1.8400776,0.0,0.0,0.0,0.0
11.44,411.2517048,-0.650748,1.9519392,2.0702016,0.0,0.0,0.0,0.0
11.46,411.82168079999997,-0.7046976,2.1143976,1.9168872,0.0,0.0,0.0,0.0
11.48,412.36148160000005,-0.9759696,2.0601432,1.9168872,0.0,0.0,0.0,0.0
11.5,412.952184,-0.7589520000000001,2.1686520000000002,2.1470112,0.0,0.0,0.0,0.0
11.52,413.6209152,-0.650748,2.0601432,1.8400776,0.0,0.0,0.0,0.0
11.54,414.343596,-1.030224,2.1143976,1.8400776,0.0,0.0,0.0,0.0
11.559999999999999,414.9367368,-0.7589520000000001,1.9519392,1.7635728,0.0,0.0,0.0,0.0
11.58,415.49391119999996,-0.5964936000000001,1.6806672000000002,1.6867632000000001,0.0,0.0,0.0,0.0
11.6,416.172396,-0.8674608,1.8434304000000001,1.7635728,0.0,0.0,0.0,0.0
11.620000000000001,416.8411272,-0.8132064000000001,1.789176,1.6102584000000002,0.0,0.0,0.0,0.0
11.64,417.3894624,-0.7589520000000001,1.7349216,1.6102584000000002,0.0,0.0,0.0,0.0
11.66,418.0581936,-0.8132064000000001,1.8976848000000002,1.4569440000000002,0.0,0.0,0.0,0.0
11.68,418.6150632,-1.1926824,2.0601432,1.4569440000000002,0.0,0.0,0.0,0.0
11.7,419.26489680000003,-0.5964936000000001,1.4639544,1.5334488,0.0,0.0,0.0,0.0
11.719999999999999,419.83212960000003,-0.37947600000000004,1.4639544,1.4569440000000002,0.0,0.0,0.0,0.0
11.74,420.36827280000006,-0.5964936000000001,1.5724632,1.4569440000000002,0.0,0.0,0.0,0.0
11.76,420.873936,-0.5422392,1.5182088,1.4569440000000002,0.0,0.0,0.0,0.0
11.780000000000001,421.4344632,-0.8674608,1.8434304000000001,1.4569440000000002,0.0,0.0,0.0,0.0
11.8,422.0324808,-0.5964936000000001,1.5724632,1.4569440000000002,0.0,0.0,0.0,0.0
11.82,422.6170872,-0.5964936000000001,1.5724632,1.4569440000000002,0.0,0.0,0.0,0.0
11.84,423.118788,-0.7046976,1.5724632,1.4569440000000002,0.0,0.0,0.0,0.0
11.86,423.690288,-0.5964936000000001,1.5724632,1.4569440000000002,0.0,0.0,0.0,0.0
11.879999999999999,424.10786400000006,-0.8132064000000001,1.6806672000000002,1.4569440000000002,0.0,0.0,0.0,0.0
11.899999999999999,424.619928,-0.8674608,1.7349216,1.5334488,0.0,0.0,0.0,0.0
11.92,425.1752736,-1.1387328,2.0061936,1.4569440000000002,0.0,0.0,0.0,0.0
11.94,425.6666112,-0.5964936000000001,1.4639544,1.3801344,0.0,0.0,0.0,0.0
11.96,426.0817488,-0.650748,1.5182088,1.3801344,0.0,0.0,0.0,0.0
11.98,426.69561600000003,-0.7589520000000001,1.6264128000000002,1.3801344,0.0,0.0,0.0,0.0
12.0,427.166532,-0.8674608,1.7349216,1.4569440000000002,0.0,0.0,0.0,0.0
12.02,427.6030056,-0.5964936000000001,1.4639544,1.4569440000000002,0.0,0.0,0.0,0.0
12.04,428.0980008,-0.8132064000000001,1.6806672000000002,0.9201912000000001,0.0,0.0,0.0,0.0
12.059999999999999,428.5814136,-1.0844784,1.9519392,1.3801344,0.0,0.0,0.0,0.0
12.08,429.1337112,-0.7589520000000001,1.5182088,1.3036296,0.0,0.0,0.0,0.0
12.1,429.6159048,-0.8674608,1.7349216,1.3036296,0.0,0.0,0.0,0.0
12.120000000000001,430.15479120000003,-0.37947600000000004,1.2469368,1.3036296,0.0,0.0,0.0,0.0
12.14,430.63668,-0.7046976,1.5724632,1.3036296,0.0,0.0,0.0,0.0
12.16,431.08595520000006,-0.650748,1.5182088,1.3036296,0.0,0.0,0.0,0.0
12.18,431.5477272,-1.030224,2.0061936,1.0735056,0.0,0.0,0.0,0.0
12.2,432.0549144,-0.2170176,1.1926824,1.0735056,0.0,0.0,0.0,0.0
12.219999999999999,432.53040239999996,-0.4337304,1.3011912,1.2268200000000002,0.0,0.0,0.0,0.0
12.24,432.9982704,-0.7589520000000001,1.7349216,1.1500104,0.0,0.0,0.0,0.0
12.26,433.439316,-0.7046976,1.6806672000000002,1.0735056,0.0,0.0,0.0,0.0
12.280000000000001,433.88188560000003,-0.8674608,1.7349216,1.1500104,0.0,0.0,0.0,0.0
12.3,434.3497536,-0.7589520000000001,1.6264128000000002,1.0735056,0.0,0.0,0.0,0.0
12.32,434.8160976,-0.7589520000000001,1.6264128000000002,0.996696,0.0,0.0,0.0,0.0
12.34,435.16814159999996,-0.37947600000000004,1.4639544,1.4569440000000002,0.0,0.0,0.0,0.0
12.36,435.5631624,-0.7589520000000001,1.3011912,0.8433816000000001,0.0,0.0,0.0,0.0
12.379999999999999,435.9176448,-0.7589520000000001,1.6264128000000002,0.9201912000000001,0.0,0.0,0.0,0.0
12.399999999999999,436.36722480000003,-0.5964936000000001,1.4639544,0.8433816000000001,0.0,0.0,0.0,0.0
12.42,436.7701704,-0.7589520000000001,1.6264128000000002,0.8433816000000001,0.0,0.0,0.0,0.0
12.44,437.2252368,-0.8674608,1.7349216,0.9201912000000001,0.0,0.0,0.0,0.0
12.46,437.6845704,-0.7046976,1.5724632,0.9201912000000001,0.0,0.0,0.0,0.0
12.48,438.136284,-0.8132064000000001,1.6806672000000002,0.8433816000000001,0.0,0.0,0.0,0.0
12.5,438.5194176,-0.9217152000000001,1.789176,0.6900672,0.0,0.0,0.0,0.0
12.52,438.9686928,-0.8674608,1.7349216,0.6900672,0.0,0.0,0.0,0.0
12.54,439.3990704,-0.8674608,1.7349216,0.6900672,0.0,0.0,0.0,0.0
12.559999999999999,439.6898496,-0.8674608,1.6264128000000002,0.5367528,0.0,0.0,0.0,0.0
12.58,440.1004152,-0.7589520000000001,1.6264128000000002,0.7668768,0.0,0.0,0.0,0.0
12.6,440.4753192,-0.4337304,1.3011912,0.7668768,0.0,0.0,0.0,0.0
12.620000000000001,440.93069040000006,-0.8132064000000001,1.6806672000000002,0.6900672,0.0,0.0,0.0,0.0
12.64,441.36960239999996,-0.9217152000000001,1.789176,0.8433816000000001,0.0,0.0,0.0,0.0
12.66,441.74481119999996,-1.3011912,1.6264128000000002,0.0,0.0,0.0,0.0,0.0
12.68,442.10295120000006,-0.650748,1.5182088,0.5367528,0.0,0.0,0.0,0.0
12.7,442.4607864,-1.030224,1.6806672000000002,0.4599432,0.0,0.0,0.0,0.0
12.719999999999999,442.8113064,-1.0844784,1.5182088,0.3834384,0.0,0.0,0.0,0.0
12.74,443.25448560000007,-0.8674608,1.6264128000000002,0.5367528,0.0,0.0,0.0,0.0
12.76,443.5873272,-0.8674608,1.6264128000000002,0.6135624,0.0,0.0,0.0,0.0
12.780000000000001,443.8689624,-0.5964936000000001,1.3554456000000001,0.5367528,0.0,0.0,0.0,0.0
12.8,444.2895864,-1.1387328,1.4639544,0.4599432,0.0,0.0,0.0,0.0
12.82,444.65229840000006,-1.4639544,1.6806672000000002,0.4599432,0.0,0.0,0.0,0.0
12.84,444.918084,-1.1926824,1.6264128000000002,0.3834384,0.0,0.0,0.0,0.0
12.86,445.2469632,-1.0844784,1.6264128000000002,0.23012400000000002,0.0,0.0,0.0,0.0
12.879999999999999,445.5602976,-0.9759696,1.4097000000000002,0.4599432,0.0,0.0,0.0,0.0
12.899999999999999,445.8333984,-1.030224,1.5724632,0.4599432,0.0,0.0,0.0,0.0
12.919999999999998,446.07388560000004,-1.1926824,1.7349216,0.5367528,0.0,0.0,0.0,0.0
12.940000000000001,446.43720720000005,-1.030224,1.3554456000000001,0.5367528,0.0,0.0,0.0,0.0
12.96,446.7947376,-1.030224,1.5724632,0.4599432,0.0,0.0,0.0,0.0
12.98,447.0961848,-0.9217152000000001,1.5724632,0.5367528,0.0,0.0,0.0,0.0
13.0,447.4025088,-1.1926824,1.4097000000000002,0.23012400000000002,0.0,0.0,0.0,0.0
13.02,447.7624776,-1.3554456000000001,1.2469368,0.30662880000000003,0.0,0.0,0.0,0.0
13.04,448.027044,-1.3554456000000001,1.3554456000000001,0.15331440000000002,0.0,0.0,0.0,0.0
13.059999999999999,448.2885624,-1.0844784,1.4097000000000002,0.3834384,0.0,0.0,0.0,0.0
13.079999999999998,448.5988488,-1.4639544,1.4639544,0.15331440000000002,0.0,0.0,0.0,0.0
13.100000000000001,448.92346080000004,-1.1926824,1.4097000000000002,0.30662880000000003,0.0,0.0,0.0,0.0
13.120000000000001,449.1758352,-1.3011912,1.4097000000000002,0.30662880000000003,0.0,0.0,0.0,0.0
13.14,449.41479840000005,-1.2469368,1.3554456000000001,0.23012400000000002,0.0,0.0,0.0,0.0
13.16,449.7107592,-1.1926824,1.3011912,0.30662880000000003,0.0,0.0,0.0,0.0
13.18,450.0408576,-1.3011912,1.3011912,0.30662880000000003,0.0,0.0,0.0,0.0
13.2,450.43557360000005,-1.4097000000000002,1.4097000000000002,0.30662880000000003,0.0,0.0,0.0,0.0
13.219999999999999,450.750432,-1.2469368,1.3554456000000001,0.30662880000000003,0.0,0.0,0.0,0.0
13.239999999999998,451.0174368,-1.6264128000000002,1.3011912,0.0768096,0.0,0.0,0.0,0.0
13.260000000000002,451.2692016,-1.3011912,1.3011912,0.15331440000000002,0.0,0.0,0.0,0.0
13.280000000000001,451.55205600000005,-1.4639544,1.2469368,0.30662880000000003,0.0,0.0,0.0,0.0
13.3,451.83094800000003,-1.4097000000000002,1.1926824,0.23012400000000002,0.0,0.0,0.0,0.0
13.32,452.0180952,-1.3011912,1.1926824,0.15331440000000002,0.0,0.0,0.0,0.0
13.34,452.32167599999997,-1.6264128000000002,1.3011912,0.15331440000000002,0.0,0.0,0.0,0.0
13.36,452.65939440000005,-1.4639544,1.1387328,0.15331440000000002,0.0,0.0,0.0,0.0
13.379999999999999,452.92670400000003,-1.789176,1.3554456000000001,0.0768096,0.0,0.0,0.0,0.0
13.399999999999999,453.14280720000005,-1.4097000000000002,1.0844784,0.15331440000000002,0.0,0.0,0.0,0.0
13.419999999999998,453.40676400000007,-1.1926824,1.1926824,0.0768096,0.0,0.0,0.0,0.0
13.440000000000001,453.57379440000005,-1.4639544,1.030224,0.0768096,0.0,0.0,0.0,0.0
13.46,453.8971872,-1.4097000000000002,1.1926824,0.0768096,0.0,0.0,0.0,0.0
13.48,454.10170800000003,-1.030224,0.9217152000000001,0.23012400000000002,0.0,0.0,0.0,0.0
13.5,454.3934016,-1.3011912,1.0844784,0.15331440000000002,0.0,0.0,0.0,0.0
13.52,454.59670320000004,-1.3011912,1.0844784,0.15331440000000002,0.0,0.0,0.0,0.0
13.54,454.750932,-1.3554456000000001,1.030224,0.23012400000000002,0.0,0.0,0.0,0.0
13.559999999999999,454.93076400000007,-1.3554456000000001,1.030224,0.0768096,0.0,0.0,0.0,0.0
13.579999999999998,455.1374184,-1.4097000000000002,1.1926824,0.23012400000000002,0.0,0.0,0.0,0.0
13.600000000000001,455.3748576,-1.1387328,0.7046976,0.0,0.0,0.0,0.0,0.0
13.620000000000001,455.4973872,-1.4639544,1.1387328,0.23012400000000002,0.0,0.0,0.0,0.0
13.64,455.7509808,-1.1387328,0.9217152000000001,0.4599432,0.0,0.0,0.0,0.0
13.66,455.9765328,-1.1926824,0.8674608,0.15331440000000002,0.0,0.0,0.0,0.0
13.68,456.11765520000006,-1.3554456000000001,0.9217152000000001,0.15331440000000002,0.0,0.0,0.0,0.0
13.7,456.40172880000006,-1.2469368,0.9217152000000001,0.15331440000000002,0.0,0.0,0.0,0.0
13.719999999999999,456.64252080000006,-1.3554456000000001,1.030224,0.15331440000000002,0.0,0.0,0.0,0.0
13.739999999999998,456.86837760000003,-1.3011912,0.9759696,0.0768096,0.0,0.0,0.0,0.0
13.760000000000002,457.07808,-1.1926824,0.7589520000000001,0.0768096,0.0,0.0,0.0,0.0
13.780000000000001,457.02474,-1.2469368,0.8132064000000001,0.0768096,0.0,0.0,0.0,0.0
13.8,456.7513344,-1.1387328,0.7046976,0.0,0.0,0.0,0.0,0.0
13.82,456.2304312,-1.5724632,0.9217152000000001,-0.15331440000000002,0.0,0.0,0.0,0.0
13.84,454.4394264,-1.4639544,0.7046976,-0.4599432,0.0,0.0,0.0,0.0
13.86,449.7333144,-1.7349216,0.0,-1.2268200000000002,0.0,0.0,0.0,0.0
13.879999999999999,448.63512,-2.9279088,-0.1085088,-2.683764,0.0,0.0,0.0,0.0
13.899999999999999,447.4415232,-2.548128,-1.4639544,-3.2970216000000003,0.0,0.0,0.0,0.0
13.919999999999998,446.15282880000007,-3.5240976,-0.4879848,-3.9870888,0.0,0.0,0.0,0.0
13.940000000000001,444.768732,-4.1748456,-1.2469368,-4.523841600000001,0.0,0.0,0.0,0.0
13.96,443.28984240000005,2.0061936,-4.608576,-29.213556,0.0,0.0,0.0,0.0
13.98,441.7152456,-222.0781944,0.0,156.9561504,0.0,0.0,0.0,0.0
14.0,440.045856,51.8870184,18.81378,-98.8356672,0.0,0.0,0.0,0.0
14.02,438.281064,9.6508824,-36.6515904,-64.2545832,0.0,0.0,0.0,0.0
14.04,436.4208696,-19.572732000000002,21.199449600000005,-26.146658400000003,0.0,0.0,0.0,0.0
14.059999999999999,434.4658824,34.53719280000001,-8.729167200000001,4.2937176,0.0,0.0,0.0,0.0
14.079999999999998,432.415188,-34.6996512,57.471259200000006,-44.47214880000001,0.0,0.0,0.0,0.0
14.100000000000001,430.2697008,-55.8991008,-72.16444800000001,-17.405604,0.0,0.0,0.0,0.0
14.120000000000001,428.0288112,-25.3742952,-45.8687424,-16.3320984,0.0,0.0,0.0,0.0
14.14,425.6925192,-74.17064160000001,19.0847472,-25.0731528,0.0,0.0,0.0,0.0
14.16,423.26143440000004,-67.6643808,-68.6403504,-1.6102584000000002,0.0,0.0,0.0,0.0
14.18,432.3776976,-53.7843984,-76.4478024,11.3480088,0.0,0.0,0.0,0.0
14.2,441.25134,-139.23264,-28.627120800000004,-2.3003256,0.0,0.0,0.0,0.0
14.219999999999999,449.0060616,-75.0923568,-71.8392264,18.4023,0.0,0.0,0.0,0.0
14.239999999999998,454.79665200000005,-5.801258400000001,-10.355580000000002,1.4569440000000002,0.0,0.0,0.0,0.0
14.260000000000002,459.6621744,1.7349216,-10.735360799999999,-3.5271456,0.0,0.0,0.0,0.0
14.280000000000001,462.81807360000005,0.9759696,-6.614769600000001,-15.4119072,0.0,0.0,0.0,0.0
14.3,464.4966072,-21.687434400000004,-0.1085088,-19.5523104,0.0,0.0,0.0,0.0
14.32,465.6999576,-4.120591200000001,13.012521600000001,-16.6387272,0.0,0.0,0.0,0.0
14.34,467.3187504,-11.2230408,-25.970484,-38.1082296,0.0,0.0,0.0,0.0
14.36,468.90492960000006,-20.22348,-33.018984,140.77767120000001,0.0,0.0,0.0,0.0
14.379999999999999,470.2853688,-126.05766,-96.02053440000002,156.9561504,0.0,0.0,0.0,0.0
14.399999999999999,471.98859120000003,-172.7396088,-49.33858560000001,-30.210556800000003,0.0,0.0,0.0,0.0
14.419999999999998,473.7149784,-181.197504,-40.8806904,25.0731528,0.0,0.0,0.0,0.0
14.440000000000001,475.7845704,-152.5161288,-35.7298752,70.7721216,0.0,0.0,0.0,0.0
14.46,478.915476,-164.1729,-57.90498960000001,156.9561504,0.0,0.0,0.0,0.0
14.48,477.2031096,-11.277295200000001,-53.0254464,-24.6132096,0.0,0.0,0.0,0.0
14.5,475.22922480000005,10.4098344,35.8926384,11.271504,0.0,0.0,0.0,0.0
14.52,473.33367360000005,-38.9287512,-2.7108912000000003,-157.03296000000003,0.0,0.0,0.0,0.0
14.54,471.2046456,-52.808733600000004,-11.6028216,-40.5618696,0.0,0.0,0.0,0.0
14.559999999999999,468.86073360000006,31.446520800000002,-7.156704,37.3413528,0.0,0.0,0.0,0.0
14.579999999999998,468.0743496,1.9519392,16.9160952,-1.6102584000000002,0.0,0.0,0.0,0.0
14.600000000000001,466.7088456,-222.0781944,0.0,40.8684984,0.0,0.0,0.0,0.0
14.620000000000001,465.41649359999997,-203.9151624,-18.163032,106.65653040000001,0.0,0.0,0.0,0.0
14.64,464.205828,14.747443200000001,42.39859440000001,50.4529344,0.0,0.0,0.0,0.0
14.66,461.6003976,17.0788584,-130.5034728,156.9561504,0.0,0.0,0.0,0.0
