time,baro_altitude,accl_x,accl_y,accl_z,gps_altitude,gyro_roll,gyro_pitch,gyro_yaw
0.0,0.0,-0.4879848,9.596628,-3.6036504000000003,0.0,0.0,0.0,0.0
0.020000000000000462,-0.0673608,-0.5422392,9.5423736,-3.6036504000000003,0.0,0.0,0.0,0.0
0.040000000000000036,-0.034137600000000004,-0.5422392,9.5423736,-3.5271456,0.0,0.0,0.0,0.0
0.0600000000000005,0.0326136,-0.4879848,9.596628,-3.5271456,0.0,0.0,0.0,0.0
0.08000000000000007,0.131064,-0.4879848,9.379915200000001,-3.5271456,0.0,0.0,0.0,0.0
0.10000000000000053,0.021336000000000004,-0.5422392,9.4338648,-3.450336,0.0,0.0,0.0,0.0
0.1200000000000001,0.0810768,-0.5422392,9.5423736,-3.5271456,0.0,0.0,0.0,0.0
0.14000000000000057,0.2325624,-0.4879848,9.596628,-3.5271456,0.0,0.0,0.0,0.0
0.16000000000000014,0.1524,-0.5964936000000001,9.488119200000002,-3.5271456,0.0,0.0,0.0,0.0
0.17999999999999972,0.23682959999999997,-0.4337304,9.6508824,-3.6036504000000003,0.0,0.0,0.0,0.0
0.20000000000000018,0.30662880000000003,-0.4879848,9.488119200000002,-3.5271456,0.0,0.0,0.0,0.0
0.21999999999999975,0.2456688,-0.4879848,9.596628,-3.6036504000000003,0.0,0.0,0.0,0.0
0.2400000000000002,-0.0762,-0.4879848,9.596628,-3.68046,0.0,0.0,0.0,0.0
0.2599999999999998,-0.011582400000000003,-0.4337304,9.5423736,-3.6036504000000003,0.0,0.0,0.0,0.0
0.28000000000000025,-0.023164799999999996,-0.4879848,9.596628,-3.6036504000000003,0.0,0.0,0.0,0.0
0.2999999999999998,0.1274064,-0.5422392,9.5423736,-3.6036504000000003,0.0,0.0,0.0,0.0
0.3200000000000003,-0.05547360000000001,-0.4879848,9.596628,-3.5271456,0.0,0.0,0.0,0.0
0.33999999999999986,-0.03566160000000001,-0.4879848,9.596628,-3.5271456,0.0,0.0,0.0,0.0
0.3600000000000003,-0.08717280000000001,-0.4879848,9.488119200000002,-3.6036504000000003,0.0,0.0,0.0,0.0
0.3799999999999999,0.0560832,-0.5422392,9.5423736,-3.6036504000000003,0.0,0.0,0.0,0.0
0.40000000000000036,-0.1161288,-0.4879848,9.596628,-3.6036504000000003,0.0,0.0,0.0,0.0
0.41999999999999993,-0.1581912,-0.4337304,9.5423736,-3.5271456,0.0,0.0,0.0,0.0
0.4400000000000004,-0.13868400000000003,-0.5422392,9.5423736,-3.5271456,0.0,0.0,0.0,0.0
0.45999999999999996,0.0094488,-0.5422392,9.5423736,-3.450336,0.0,0.0,0.0,0.0
0.4800000000000004,0.0966216,-0.5422392,9.4338648,-3.450336,0.0,0.0,0.0,0.0
0.5,0.1566672,-0.4879848,9.596628,-3.5271456,0.0,0.0,0.0,0.0
0.5200000000000005,0.057912000000000005,-0.650748,9.5423736,-3.5271456,0.0,0.0,0.0,0.0
0.54,-0.01920240000000001,-0.4337304,9.5423736,-3.6036504000000003,0.0,0.0,0.0,0.0
0.5600000000000005,0.10424159999999999,-0.4337304,9.5423736,-3.5271456,0.0,0.0,0.0,0.0
0.5800000000000001,0.211836,-0.5422392,9.5423736,-3.5271456,0.0,0.0,0.0,0.0
0.6000000000000005,0.1277112,-0.5964936000000001,9.488119200000002,-3.6036504000000003,0.0,0.0,0.0,0.0
0.6200000000000001,-0.040843199999999996,-0.4879848,9.488119200000002,-3.5271456,0.0,0.0,0.0,0.0
0.6400000000000006,-0.024688799999999997,-0.4337304,9.5423736,-3.68046,0.0,0.0,0.0,0.0
0.6600000000000001,0.1085088,-0.4337304,9.5423736,-3.5271456,0.0,0.0,0.0,0.0
0.6800000000000002,-0.0414528,-0.4879848,9.488119200000002,-3.5271456,0.0,0.0,0.0,0.0
0.7000000000000002,-0.023774399999999998,-0.4879848,9.379915200000001,-3.6036504000000003,0.0,0.0,0.0,0.0
0.7200000000000002,-0.056083200000000014,-0.4879848,9.596628,-3.5271456,0.0,0.0,0.0,0.0
0.7400000000000002,-0.1947672,-0.4879848,9.596628,-3.5271456,0.0,0.0,0.0,0.0
0.7600000000000002,0.0646176,-0.5964936000000001,9.488119200000002,-3.68046,0.0,0.0,0.0,0.0
0.7800000000000002,0.16032480000000002,-0.4337304,9.5423736,-3.5271456,0.0,0.0,0.0,0.0
0.8000000000000003,0.0402336,-0.5422392,9.5423736,-3.6036504000000003,0.0,0.0,0.0,0.0
0.8200000000000003,0.1139952,-0.4879848,9.488119200000002,-3.5271456,0.0,0.0,0.0,0.0
0.8400000000000003,0.1941576,-0.5422392,9.5423736,-3.5271456,0.0,0.0,0.0,0.0
0.8600000000000003,0.0448056,-0.5422392,9.5423736,-3.5271456,0.0,0.0,0.0,0.0
0.8800000000000003,0.1063752,-0.5964936000000001,9.596628,-3.5271456,0.0,0.0,0.0,0.0
0.9000000000000004,-0.0085344,-0.4337304,9.6508824,-3.6036504000000003,0.0,0.0,0.0,0.0
0.9199999999999999,0.013411199999999996,-0.4879848,9.596628,-3.6036504000000003,0.0,0.0,0.0,0.0
0.94,0.1094232,-0.4879848,9.488119200000002,-3.5271456,0.0,0.0,0.0,0.0
0.96,0.0560832,-0.5422392,9.5423736,-3.68046,0.0,0.0,0.0,0.0
0.98,0.058216800000000006,-0.37947600000000004,9.596628,-3.450336,0.0,0.0,0.0,0.0
1.0,-0.056083200000000014,-0.4879848,9.488119200000002,-3.5271456,0.0,0.0,0.0,0.0
1.02,-0.12192000000000001,-0.5422392,9.5423736,-3.68046,0.0,0.0,0.0,0.0
1.04,-0.13289280000000003,-0.5422392,9.5423736,-3.5271456,0.0,0.0,0.0,0.0
1.06,0.0719328,-0.4337304,9.5423736,-3.6036504000000003,0.0,0.0,0.0,0.0
1.08,0.0725424,-0.5422392,9.4338648,-3.68046,0.0,0.0,0.0,0.0
1.1,0.061874399999999996,-0.4879848,9.596628,-3.5271456,0.0,0.0,0.0,0.0
1.12,0.3691128,-0.4879848,9.488119200000002,-3.6036504000000003,0.0,0.0,0.0,0.0
1.1400000000000001,0.09906000000000001,-0.5422392,9.5423736,-3.6036504000000003,0.0,0.0,0.0,0.0
1.1600000000000001,0.2350008,-0.4337304,9.5423736,-3.5271456,0.0,0.0,0.0,0.0
1.1800000000000002,0.20970239999999998,-0.5964936000000001,9.488119200000002,-3.6036504000000003,0.0,0.0,0.0,0.0
1.2000000000000002,0.19812000000000002,-0.4879848,9.596628,-3.5271456,0.0,0.0,0.0,0.0
1.2200000000000002,0.23774399999999998,-0.4337304,9.4338648,-3.6036504000000003,0.0,0.0,0.0,0.0
1.2400000000000002,0.1780032,-0.4879848,9.596628,-3.5271456,0.0,0.0,0.0,0.0
1.2600000000000002,0.21244559999999998,-0.4337304,9.5423736,-3.5271456,0.0,0.0,0.0,0.0
1.2800000000000002,-0.01706880000000001,-0.4879848,9.596628,-3.6036504000000003,0.0,0.0,0.0,0.0
1.3000000000000003,0.0341376,-0.5422392,9.4338648,-3.5271456,0.0,0.0,0.0,0.0
1.3200000000000003,0.24201119999999998,-0.37947600000000004,9.488119200000002,-3.450336,0.0,0.0,0.0,0.0
1.3400000000000003,0.10149839999999999,-0.4879848,9.596628,-3.6036504000000003,0.0,0.0,0.0,0.0
1.3600000000000003,0.1072896,-0.4879848,9.596628,-3.450336,0.0,0.0,0.0,0.0
1.3800000000000003,-0.045720000000000004,-0.4879848,9.488119200000002,-3.68046,0.0,0.0,0.0,0.0
1.4000000000000004,0.138684,-0.5422392,9.4338648,-3.5271456,0.0,0.0,0.0,0.0
1.42,0.20208240000000002,-0.4337304,9.5423736,-3.6036504000000003,0.0,0.0,0.0,0.0
1.44,0.3160776,-0.4337304,9.5423736,-3.5271456,0.0,0.0,0.0,0.0
1.46,0.1758696,-0.4337304,9.5423736,-3.68046,0.0,0.0,0.0,0.0
1.48,0.1149096,-0.4337304,9.5423736,-3.6036504000000003,0.0,0.0,0.0,0.0
1.5,0.014630399999999997,-0.4337304,9.5423736,-3.5271456,0.0,0.0,0.0,0.0
1.52,-0.03962400000000001,-0.4879848,9.596628,-3.450336,0.0,0.0,0.0,0.0
1.54,-0.10759439999999999,-0.5422392,9.5423736,-3.5271456,0.0,0.0,0.0,0.0
1.56,-0.12466320000000002,-0.4879848,9.488119200000002,-3.6036504000000003,0.0,0.0,0.0,0.0
1.58,-0.2654808,-0.5422392,9.5423736,-3.6036504000000003,0.0,0.0,0.0,0.0
1.6,-0.3029712,-0.5422392,9.5423736,-3.6036504000000003,0.0,0.0,0.0,0.0
1.62,-0.20574000000000003,-0.5422392,9.6508824,-3.5271456,0.0,0.0,0.0,0.0
1.6400000000000001,-0.042976799999999996,-0.5422392,9.5423736,-3.6036504000000003,0.0,0.0,0.0,0.0
1.6600000000000001,-0.013106400000000004,-0.37947600000000004,9.596628,-3.6036504000000003,0.0,0.0,0.0,0.0
1.6800000000000002,0.08503920000000001,-0.5422392,9.5423736,-3.6036504000000003,0.0,0.0,0.0,0.0
1.7000000000000002,0.06858,-0.5422392,9.5423736,-3.6036504000000003,0.0,0.0,0.0,0.0
1.7200000000000002,0.09814560000000001,-0.4337304,9.5423736,-3.5271456,0.0,0.0,0.0,0.0
1.7400000000000002,0.033832799999999996,-0.5964936000000001,9.488119200000002,-3.5271456,0.0,0.0,0.0,0.0
1.7600000000000002,-0.15575280000000002,-0.5422392,9.4338648,-3.6036504000000003,0.0,0.0,0.0,0.0
1.7800000000000002,-0.17891760000000004,-0.4337304,9.5423736,-3.6036504000000003,0.0,0.0,0.0,0.0
1.8000000000000003,-0.17647920000000003,-0.4879848,9.596628,-3.5271456,0.0,0.0,0.0,0.0
1.8200000000000003,-0.06888480000000001,-0.37947600000000004,9.488119200000002,-3.5271456,0.0,0.0,0.0,0.0
1.8400000000000003,0.1420368,-0.4337304,9.5423736,-3.5271456,0.0,0.0,0.0,0.0
1.8600000000000003,0.0749808,-0.5422392,9.5423736,-3.6036504000000003,0.0,0.0,0.0,0.0
1.8800000000000003,0.1100328,-0.5422392,9.5423736,-3.5271456,0.0,0.0,0.0,0.0
1.9000000000000004,0.12039600000000002,-0.4337304,9.5423736,-3.5271456,0.0,0.0,0.0,0.0
1.92,0.1908048,-0.650748,9.5423736,-3.6036504000000003,0.0,0.0,0.0,0.0
1.94,0.1871472,-0.5422392,9.5423736,-3.5271456,0.0,0.0,0.0,0.0
1.96,0.06858,-0.5422392,9.5423736,-3.5271456,0.0,0.0,0.0,0.0
1.98,0.0313944,-0.5422392,9.5423736,-3.450336,0.0,0.0,0.0,0.0
2.0,0.1633728,-0.4337304,9.5423736,-3.6036504000000003,0.0,0.0,0.0,0.0
2.02,0.36179760000000005,-0.4337304,9.5423736,-3.450336,0.0,0.0,0.0,0.0
2.04,0.254508,-0.4879848,9.488119200000002,-3.6036504000000003,0.0,0.0,0.0,0.0
2.06,0.2532888,-0.5422392,9.5423736,-3.5271456,0.0,0.0,0.0,0.0
2.08,0.0557784,-0.5422392,9.5423736,-3.5271456,0.0,0.0,0.0,0.0
2.1,-0.015240000000000005,-0.4879848,9.488119200000002,-3.68046,0.0,0.0,0.0,0.0
2.12,0.0920496,-0.37947600000000004,9.488119200000002,-3.6036504000000003,0.0,0.0,0.0,0.0
2.14,0.2627376,-0.5422392,9.5423736,-3.5271456,0.0,0.0,0.0,0.0
2.16,0.3898392,-0.5422392,9.5423736,-3.5271456,0.0,0.0,0.0,0.0
2.18,0.3194304,-0.4337304,9.5423736,-3.5271456,0.0,0.0,0.0,0.0
2.2,0.0268224,-0.4879848,9.488119200000002,-3.6036504000000003,0.0,0.0,0.0,0.0
2.22,-0.18044160000000004,-0.4879848,9.596628,-3.5271456,0.0,0.0,0.0,0.0
2.24,-0.0079248,-0.5422392,9.5423736,-3.5271456,0.0,0.0,0.0,0.0
2.2600000000000002,0.0271272,-0.5964936000000001,9.488119200000002,-3.5271456,0.0,0.0,0.0,0.0
2.2800000000000002,0.06614160000000001,-0.5964936000000001,9.596628,-3.6036504000000003,0.0,0.0,0.0,0.0
2.3000000000000003,-0.05242560000000001,-0.4879848,9.488119200000002,-3.5271456,0.0,0.0,0.0,0.0
2.3200000000000003,-0.032004000000000005,-0.37947600000000004,9.596628,-3.5271456,0.0,0.0,0.0,0.0
2.3400000000000003,-0.0015240000000000015,-0.5422392,9.5423736,-3.6036504000000003,0.0,0.0,0.0,0.0
2.3600000000000003,-0.014325600000000004,-0.4879848,9.488119200000002,-3.5271456,0.0,0.0,0.0,0.0
2.3800000000000003,-0.09966960000000002,-0.5422392,9.5423736,-3.6036504000000003,0.0,0.0,0.0,0.0
2.4000000000000004,0.12313920000000002,-0.4879848,9.488119200000002,-3.6036504000000003,0.0,0.0,0.0,0.0
2.42,0.1795272,-0.5422392,9.4338648,-3.450336,0.0,0.0,0.0,0.0
2.44,0.35692080000000004,-0.4879848,9.596628,-3.6036504000000003,0.0,0.0,0.0,0.0
2.46,0.2831592,-0.4879848,9.488119200000002,-3.5271456,0.0,0.0,0.0,0.0
2.48,0.1914144,-0.4337304,9.4338648,-3.5271456,0.0,0.0,0.0,0.0
2.5,0.188976,-0.5964936000000001,9.488119200000002,-3.5271456,0.0,0.0,0.0,0.0
2.52,0.0926592,-0.4879848,9.596628,-3.6036504000000003,0.0,0.0,0.0,0.0
2.54,0.12039600000000002,-0.4879848,9.488119200000002,-3.6036504000000003,0.0,0.0,0.0,0.0
2.56,-0.065532,-0.5964936000000001,9.488119200000002,-3.5271456,0.0,0.0,0.0,0.0
2.58,-0.05486400000000001,-0.5422392,9.5423736,-3.5271456,0.0,0.0,0.0,0.0
2.6,-0.14234160000000004,-0.5964936000000001,9.488119200000002,-3.5271456,0.0,0.0,0.0,0.0
2.62,-0.005486400000000005,-0.5422392,9.5423736,-3.5271456,0.0,0.0,0.0,0.0
2.64,-0.0295656,-0.5422392,9.6508824,-3.5271456,0.0,0.0,0.0,0.0
2.66,-0.0420624,-0.4879848,9.488119200000002,-3.5271456,0.0,0.0,0.0,0.0
2.68,0.04297680000000001,-0.4879848,9.488119200000002,-3.6036504000000003,0.0,0.0,0.0,0.0
2.7,0.07863840000000001,-0.4337304,9.5423736,-3.5271456,0.0,0.0,0.0,0.0
2.72,0.0329184,-0.37947600000000004,9.488119200000002,-3.5271456,0.0,0.0,0.0,0.0
2.74,0.12100560000000002,-0.4337304,9.5423736,-3.5271456,0.0,0.0,0.0,0.0
2.7600000000000002,0.2267712,-0.4879848,9.488119200000002,-3.5271456,0.0,0.0,0.0,0.0
2.7800000000000002,0.19629120000000003,-0.4879848,9.596628,-3.5271456,0.0,0.0,0.0,0.0
2.8,0.1496568,-0.5422392,9.4338648,-3.5271456,0.0,0.0,0.0,0.0
2.8200000000000003,0.3054096,-0.4879848,9.488119200000002,-3.5271456,0.0,0.0,0.0,0.0
2.84,0.1591056,-0.4879848,9.596628,-3.450336,0.0,0.0,0.0,0.0
2.8600000000000003,0.0740664,-0.5422392,9.5423736,-3.6036504000000003,0.0,0.0,0.0,0.0
2.88,-0.0414528,-0.5422392,9.5423736,-3.5271456,0.0,0.0,0.0,0.0
2.9000000000000004,0.0085344,-0.5422392,9.5423736,-3.5271456,0.0,0.0,0.0,0.0
2.92,-0.0094488,-0.5422392,9.5423736,-3.5271456,0.0,0.0,0.0,0.0
2.9400000000000004,0.019812000000000003,-0.4337304,9.5423736,-3.5271456,0.0,0.0,0.0,0.0
2.96,0.012496799999999995,-0.5422392,9.5423736,-3.5271456,0.0,0.0,0.0,0.0
2.9800000000000004,-0.156972,-0.4337304,9.4338648,-3.6036504000000003,0.0,0.0,0.0,0.0
3.0,-0.09662160000000003,-0.4879848,9.488119200000002,-3.6036504000000003,0.0,0.0,0.0,0.0
3.0200000000000005,-0.10241280000000003,-0.4879848,9.596628,-3.5271456,0.0,0.0,0.0,0.0
3.04,-0.2593848,-0.4337304,9.5423736,-3.5271456,0.0,0.0,0.0,0.0
3.06,-0.08229600000000001,-0.4879848,9.596628,-3.6036504000000003,0.0,0.0,0.0,0.0
3.08,0.0204216,-0.4879848,9.488119200000002,-3.5271456,0.0,0.0,0.0,0.0
3.1,-0.0740664,-0.4879848,9.379915200000001,-3.6036504000000003,0.0,0.0,0.0,0.0
3.12,0.1420368,-0.5422392,9.5423736,-3.6036504000000003,0.0,0.0,0.0,0.0
3.14,0.1459992,-0.5422392,9.4338648,-3.6036504000000003,0.0,0.0,0.0,0.0
3.16,0.29291280000000003,-0.4879848,9.488119200000002,-3.6036504000000003,0.0,0.0,0.0,0.0
3.18,0.2145792,-0.4879848,9.596628,-3.6036504000000003,0.0,0.0,0.0,0.0
3.2,0.2490216,-0.5422392,9.5423736,-3.450336,0.0,0.0,0.0,0.0
3.22,0.0691896,-0.5964936000000001,9.488119200000002,-3.5271456,0.0,0.0,0.0,0.0
3.24,0.0100584,-0.5422392,9.5423736,-3.6036504000000003,0.0,0.0,0.0,0.0
3.2600000000000002,0.1438656,-0.4337304,9.4338648,-3.5271456,0.0,0.0,0.0,0.0
3.2800000000000002,0.15575280000000002,-0.0542544,9.488119200000002,-3.5271456,0.0,0.0,0.0,0.0
3.3,0.16703040000000002,-0.650748,9.4338648,-3.450336,0.0,0.0,0.0,0.0
3.3200000000000003,0.23957279999999997,-0.5964936000000001,9.488119200000002,-3.6036504000000003,0.0,0.0,0.0,0.0
3.34,0.0993648,-0.4337304,9.4338648,-3.5271456,0.0,0.0,0.0,0.0
3.3600000000000003,0.3325368,-0.5422392,9.5423736,-3.6036504000000003,0.0,0.0,0.0,0.0
3.38,0.29718,-0.4337304,9.5423736,-3.6036504000000003,0.0,0.0,0.0,0.0
3.4000000000000004,0.2279904,-0.5964936000000001,9.1628976,-3.6036504000000003,0.0,0.0,0.0,0.0
3.42,0.277368,-0.5422392,9.5423736,-3.5271456,0.0,0.0,0.0,0.0
3.4400000000000004,0.384048,-0.4879848,9.488119200000002,-3.68046,0.0,0.0,0.0,0.0
3.46,0.3383280000000001,-0.4879848,9.596628,-3.6036504000000003,0.0,0.0,0.0,0.0
3.4800000000000004,0.2767584,-0.37947600000000004,9.596628,-3.6036504000000003,0.0,0.0,0.0,0.0
3.5,0.4203192,-0.4879848,9.596628,-3.6036504000000003,0.0,0.0,0.0,0.0
3.5200000000000005,0.5614416,-0.4879848,9.488119200000002,-3.6036504000000003,0.0,0.0,0.0,0.0
3.54,0.39380160000000003,-0.5422392,9.5423736,-3.68046,0.0,0.0,0.0,0.0
3.56,0.3605784,-0.5422392,9.5423736,-3.6036504000000003,0.0,0.0,0.0,0.0
3.58,0.2295144,-0.5964936000000001,9.488119200000002,-3.6036504000000003,0.0,0.0,0.0,0.0
3.6,0.06614160000000001,-0.5422392,9.4338648,-3.5271456,0.0,0.0,0.0,0.0
3.62,0.1438656,-0.4337304,9.5423736,-3.6036504000000003,0.0,0.0,0.0,0.0
3.64,0.0999744,-0.4879848,9.596628,-3.5271456,0.0,0.0,0.0,0.0
3.66,-0.111252,-0.4879848,9.488119200000002,-3.5271456,0.0,0.0,0.0,0.0
3.68,-0.10485120000000003,-0.37947600000000004,9.488119200000002,-3.6036504000000003,0.0,0.0,0.0,0.0
3.7,-0.12405360000000001,-0.4879848,9.596628,-3.5271456,0.0,0.0,0.0,0.0
3.72,-0.185928,-0.4879848,9.596628,-3.5271456,0.0,0.0,0.0,0.0
3.74,-0.1530096,-0.4879848,9.596628,-3.6036504000000003,0.0,0.0,0.0,0.0
3.7600000000000002,-0.02011680000000001,-0.37947600000000004,9.7051368,-3.6036504000000003,0.0,0.0,0.0,0.0
3.7800000000000002,0.1133856,-0.4337304,9.4338648,-3.6036504000000003,0.0,0.0,0.0,0.0
3.8000000000000003,0.1795272,-0.4879848,9.379915200000001,-3.68046,0.0,0.0,0.0,0.0
3.8200000000000003,0.1277112,-0.5422392,9.3256608,-3.7572696000000003,0.0,0.0,0.0,0.0
3.8400000000000003,0.2801112,-0.3252216,9.867595200000002,-3.450336,0.0,0.0,0.0,0.0
3.8600000000000003,0.1438656,-0.4879848,9.379915200000001,-3.6036504000000003,0.0,0.0,0.0,0.0
3.88,0.2307336,-0.5422392,9.4338648,-3.6036504000000003,0.0,0.0,0.0,0.0
3.9000000000000004,0.208788,-0.4879848,9.488119200000002,-3.68046,0.0,0.0,0.0,0.0
3.92,0.1880616,-0.5422392,9.5423736,-3.5271456,0.0,0.0,0.0,0.0
3.9400000000000004,0.1697736,-0.5422392,9.4338648,-3.5271456,0.0,0.0,0.0,0.0
3.96,0.17526,-0.4337304,9.6508824,-3.68046,0.0,0.0,0.0,0.0
3.98,0.12192000000000001,-0.4879848,9.596628,-3.7572696000000003,0.0,0.0,0.0,0.0
4.0,0.0460248,-0.5422392,9.4338648,-3.6036504000000003,0.0,0.0,0.0,0.0
4.0200000000000005,0.16703040000000002,-0.37947600000000004,9.813645600000001,-3.6036504000000003,0.0,0.0,0.0,0.0
4.04,0.0603504,-0.4879848,9.7051368,-3.6036504000000003,0.0,0.0,0.0,0.0
4.0600000000000005,-0.13472160000000002,-0.5422392,9.5423736,-3.5271456,0.0,0.0,0.0,0.0
4.08,-0.030480000000000004,-0.37947600000000004,9.596628,-3.6036504000000003,0.0,0.0,0.0,0.0
4.1,-0.14264640000000003,-0.5964936000000001,9.488119200000002,-3.5271456,0.0,0.0,0.0,0.0
4.12,0.0566928,-0.5422392,9.5423736,-3.6036504000000003,0.0,0.0,0.0,0.0
4.140000000000001,0.09144000000000001,-0.5964936000000001,9.1628976,-3.7572696000000003,0.0,0.0,0.0,0.0
4.16,0.27035760000000003,-0.5964936000000001,10.247376,-3.2970216000000003,0.0,0.0,0.0,0.0
4.18,0.3172968,-0.3252216,9.5423736,-3.5271456,0.0,0.0,0.0,0.0
4.2,0.2237232,-0.9217152000000001,9.813645600000001,-2.9903928,0.0,0.0,0.0,0.0
4.22,0.1597152,-0.7046976,10.138867200000002,-3.1437072,0.0,0.0,0.0,0.0
4.24,0.2136648,2.1686520000000002,4.7713392,-4.1404032,0.0,0.0,0.0,0.0
4.26,0.17038319999999998,6.8314824000000005,4.988052,-8.8943688,0.0,0.0,0.0,0.0
4.28,0.1011936,0.2709672,3.8496240000000004,3.9870888,0.0,0.0,0.0,0.0
4.3,0.005486399999999996,0.650748,11.277295200000001,-2.9135831999999997,0.0,0.0,0.0,0.0
4.32,0.0710184,-2.0601432,11.277295200000001,-2.8370784000000002,0.0,0.0,0.0,0.0
4.34,0.109728,-0.7589520000000001,9.3256608,-2.4536400000000005,0.0,0.0,0.0,0.0
4.36,0.2157984,-0.9759696,9.6508824,-4.0638984,0.0,0.0,0.0,0.0
4.38,0.30876240000000005,0.7046976,8.5121496,-4.4473368,0.0,0.0,0.0,0.0
4.4,0.0667512,-0.2170176,9.5423736,-3.9870888,0.0,0.0,0.0,0.0
4.42,0.070104,-0.8132064000000001,9.813645600000001,-2.8370784000000002,0.0,0.0,0.0,0.0
4.44,0.0265176,-0.4879848,9.7051368,-3.450336,0.0,0.0,0.0,0.0
4.46,-0.10271760000000003,-0.37947600000000004,9.813645600000001,-3.6036504000000003,0.0,0.0,0.0,0.0
4.48,0.09144000000000001,-0.4337304,9.3256608,-3.910584,0.0,0.0,0.0,0.0
4.5,-0.011582400000000003,-0.2170176,9.5423736,-3.2205168000000004,0.0,0.0,0.0,0.0
4.5200000000000005,-0.016459200000000007,-0.7046976,9.379915200000001,-3.7572696000000003,0.0,0.0,0.0,0.0
4.54,-0.05455920000000001,-0.5422392,9.5423736,-3.3738312000000006,0.0,0.0,0.0,0.0
4.5600000000000005,0.08412480000000001,-0.650748,9.3256608,-3.7572696000000003,0.0,0.0,0.0,0.0
4.58,0.010668000000000002,-0.37947600000000004,9.596628,-3.5271456,0.0,0.0,0.0,0.0
4.6000000000000005,0.1456944,-0.5422392,9.867595200000002,-3.2970216000000003,0.0,0.0,0.0,0.0
4.62,0.1511808,-0.37947600000000004,9.1628976,-3.7572696000000003,0.0,0.0,0.0,0.0
4.640000000000001,0.0658368,-0.8132064000000001,8.94588,-3.5271456,0.0,0.0,0.0,0.0
4.66,0.2182368,-0.9759696,9.6508824,-3.68046,0.0,0.0,0.0,0.0
4.68,0.3264408,-0.37947600000000004,9.2714064,-3.5271456,0.0,0.0,0.0,0.0
4.7,0.3910584,-1.8976848000000002,11.657076,-3.6036504000000003,0.0,0.0,0.0,0.0
4.72,0.4148328,-0.37947600000000004,11.873788800000002,-6.5175384,0.0,0.0,0.0,0.0
4.74,0.6220968,-5.367528,36.814353600000004,-11.3480088,0.0,0.0,0.0,0.0
4.76,1.2036552000000003,0.9217152000000001,59.5859616,14.338401600000001,0.0,0.0,0.0,0.0
4.78,3.9054024000000003,5.6930544,24.560784,-9.2778072,0.0,0.0,0.0,0.0
4.8,4.7783496,221.9696856,0.0,-157.03296000000003,0.0,0.0,0.0,0.0
4.82,2.1732240000000003,123.0212424,-64.79072640000001,-138.09390720000002,0.0,0.0,0.0,0.0
4.84,0.8567928000000001,116.6777448,-73.0861632,-152.0488704,0.0,0.0,0.0,0.0
4.86,0.3502152,121.7200512,-66.74266560000001,-150.59223120000001,0.0,0.0,0.0,0.0
4.88,0.547116,119.8766208,-67.17639600000001,-153.4293096,0.0,0.0,0.0,0.0
4.9,0.9549384000000001,126.00340560000001,-65.49572880000001,-146.6816472,0.0,0.0,0.0,0.0
4.92,1.7330928,121.7200512,-72.48997440000001,-152.8925568,0.0,0.0,0.0,0.0
4.94,2.8575,121.9910184,-67.7728896,-149.902164,0.0,0.0,0.0,0.0
4.96,3.9986712,120.798336,-69.0740808,-152.43230880000002,0.0,0.0,0.0,0.0
4.98,5.6293512,120.5816232,-63.977520000000005,-151.5889272,0.0,0.0,0.0,0.0
5.0,7.0902576,124.48519680000001,-65.1705072,-154.11937680000003,0.0,0.0,0.0,0.0
5.0200000000000005,8.8705944,118.9549056,-63.977520000000005,-149.67204,0.0,0.0,0.0,0.0
5.04,10.787176800000003,116.461032,-67.1221416,-148.9819728,0.0,0.0,0.0,0.0
5.0600000000000005,12.624511200000002,117.0029664,-62.3511072,-144.994884,0.0,0.0,0.0,0.0
5.08,14.913254400000001,116.6777448,-56.06186400000001,-145.5316368,0.0,0.0,0.0,0.0
5.1000000000000005,17.1385992,117.0029664,-52.3750032,-144.2280072,0.0,0.0,0.0,0.0
5.12,19.357543200000002,116.8947624,-52.591716,-144.3048168,0.0,0.0,0.0,0.0
5.140000000000001,21.80844,117.2742384,-50.368809600000006,-144.534636,0.0,0.0,0.0,0.0
5.16,24.2508024,116.569236,-47.8206816,-142.23431040000003,0.0,0.0,0.0,0.0
5.18,26.730960000000003,115.64752080000001,-50.260300799999996,-142.15780560000002,0.0,0.0,0.0,0.0
5.2,29.2824408,113.8583448,-53.7843984,-142.6945584,0.0,0.0,0.0,0.0
5.220000000000001,31.6632336,110.87648639999999,-50.80254000000001,-143.8445688,0.0,0.0,0.0,0.0
5.24,34.223858400000005,112.0691688,-51.23627040000001,-135.8703912,0.0,0.0,0.0,0.0
5.26,36.7128552,105.183432,-53.8929072,-135.2568288,0.0,0.0,0.0,0.0
5.28,39.279271200000004,107.8943232,-54.4351464,-137.3270304,0.0,0.0,0.0,0.0
5.3,41.6317176,101.71358880000001,-51.3990336,-135.946896,0.0,0.0,0.0,0.0
5.32,44.1859416,106.972608,-49.935079200000004,-138.1707168,0.0,0.0,0.0,0.0
5.34,46.9001856,101.3880624,-49.5556032,-133.0333128,0.0,0.0,0.0,0.0
5.36,49.5540792,101.3880624,-46.302472800000004,-131.499864,0.0,0.0,0.0,0.0
5.38,52.4015208,100.57485600000001,-53.2967184,-128.6627856,0.0,0.0,0.0,0.0
5.4,55.1709336,105.454704,-46.1397096,-121.5319896,0.0,0.0,0.0,0.0
5.42,58.067448,103.01478000000002,-49.447094400000005,-119.1548544,0.0,0.0,0.0,0.0
5.44,61.185856799999996,98.78568000000001,-38.7117336,-125.28895440000001,0.0,0.0,0.0,0.0
5.46,64.1777736,96.45426480000002,-45.9229968,-119.7684168,0.0,0.0,0.0,0.0
5.48,67.50222720000001,95.26158240000001,-47.65791840000001,-116.9313384,0.0,0.0,0.0,0.0
5.5,70.7401176,94.82785200000001,-40.501214399999995,-123.678696,0.0,0.0,0.0,0.0
5.5200000000000005,74.0118408,86.58666960000001,-42.5613576,-118.0813488,0.0,0.0,0.0,0.0
5.54,77.33598959999999,90.38203920000001,-37.0310664,-120.61179840000001,0.0,0.0,0.0,0.0
5.5600000000000005,80.7177456,89.460324,-37.8442728,-110.183676,0.0,0.0,0.0,0.0
5.58,84.1409544,93.14688000000001,-34.6996512,-106.81014960000002,0.0,0.0,0.0,0.0
5.6,87.6016536,85.8274128,-37.573305600000005,-106.1965872,0.0,0.0,0.0,0.0
5.62,91.14282,76.55631120000001,-36.0008424,-110.0303616,0.0,0.0,0.0,0.0
5.640000000000001,94.78182720000001,80.56839360000001,-18.976543200000002,-114.9376416,0.0,0.0,0.0,0.0
5.66,98.3022672,75.8513088,-32.4767448,-103.7429472,0.0,0.0,0.0,0.0
5.68,101.84800560000001,74.604372,-32.0972688,-102.6694416,0.0,0.0,0.0,0.0
5.7,105.3138864,61.8631224,-42.995088,-105.04657680000001,0.0,0.0,0.0,0.0
5.720000000000001,109.0260456,64.628268,-42.5071032,-95.69196,0.0,0.0,0.0,0.0
5.74,112.86164880000001,70.4837808,-32.530999200000004,-92.0883096,0.0,0.0,0.0,0.0
5.76,116.70913920000001,75.4718328,-20.0607168,-95.6151504,0.0,0.0,0.0,0.0
5.78,120.3880752,76.55631120000001,-27.4344384,-85.34064719999999,0.0,0.0,0.0,0.0
5.8,123.98502,69.01982640000001,-31.284062400000003,-81.8903112,0.0,0.0,0.0,0.0
5.82,127.73527920000001,61.7003592,-29.711599200000002,-82.65688320000001,0.0,0.0,0.0,0.0
5.84,131.327652,54.8146224,-23.151084,-86.1840288,0.0,0.0,0.0,0.0
5.86,135.1510632,50.6940312,-23.368101600000003,-83.5770744,0.0,0.0,0.0,0.0
5.88,138.91503840000001,53.404922400000004,-11.873788800000002,-81.8903112,0.0,0.0,0.0,0.0
5.9,142.8417768,55.790592000000004,-26.0789928,-71.84562720000001,0.0,0.0,0.0,0.0
5.92,146.5831968,53.4591768,-26.349960000000003,-69.31548240000001,0.0,0.0,0.0,0.0
5.94,150.24140640000002,59.9654376,-32.3139816,-61.110876000000005,0.0,0.0,0.0,0.0
5.96,153.7984224,56.7123072,-21.1451952,-64.791336,0.0,0.0,0.0,0.0
5.98,157.25394,57.959244000000005,3.8496240000000004,-65.1747744,0.0,0.0,0.0,0.0
6.0,160.9502496,43.9710576,-8.837676,-68.5486056,0.0,0.0,0.0,0.0
6.0200000000000005,164.52524879999999,44.404788,-24.018849600000003,-57.1237872,0.0,0.0,0.0,0.0
6.04,167.99539679999998,35.8926384,-23.3138472,-55.9737768,0.0,0.0,0.0,0.0
6.0600000000000005,171.8303904,34.53719280000001,-18.163032,-55.9737768,0.0,0.0,0.0,0.0
6.08,175.80894480000003,40.175688,-6.668719200000001,-48.2294184,0.0,0.0,0.0,0.0
6.1,179.7795744,39.9589752,-2.0061936,-39.25824000000001,0.0,0.0,0.0,0.0
6.12,183.7157616,23.6390688,-5.421782400000001,-39.3350496,0.0,0.0,0.0,0.0
6.140000000000001,187.41633840000003,18.705271200000002,-8.186928,-30.2870616,0.0,0.0,0.0,0.0
6.16,190.8547872,6.018276,-3.957828,-10.121188800000002,0.0,0.0,0.0,0.0
6.18,194.06463599999998,-4.7170848,5.5845456,3.1437072,0.0,0.0,0.0,0.0
6.2,197.490588,-2.1143976,6.668719200000001,9.584436,0.0,0.0,0.0,0.0
6.220000000000001,200.5331016,-1.1387328,3.7411152,-0.15331440000000002,0.0,0.0,0.0,0.0
6.24,202.4612664,23.3138472,18.217286400000003,8.2043016,0.0,0.0,0.0,0.0
6.26,203.50307279999998,18.7595256,-25.9162296,35.347656,0.0,0.0,0.0,0.0
6.28,204.1711944,86.4239064,-49.5556032,22.6963224,0.0,0.0,0.0,0.0
6.3,204.4942824,-48.41687040000001,-54.59790960000001,-11.1181896,0.0,0.0,0.0,0.0
6.32,205.6064976,9.108643200000001,-31.229808,12.958267200000002,0.0,0.0,0.0,0.0
6.34,206.70255840000002,5.638800000000001,-34.2659208,13.878458400000001,0.0,0.0,0.0,0.0
6.36,209.2077096,5.5845456,-35.512857600000004,15.2585928,0.0,0.0,0.0,0.0
6.38,213.00643200000002,7.427976000000001,-29.115105600000003,14.8751544,0.0,0.0,0.0,0.0
6.4,217.74759600000002,5.9097672,-30.199584,13.9549632,0.0,0.0,0.0,0.0
6.42,223.1992488,7.156704,-35.2418904,11.3480088,0.0,0.0,0.0,0.0
6.44,229.0020312,8.6206584,-35.0791272,7.6675488,0.0,0.0,0.0,0.0
6.46,234.7301376,5.801258400000001,-33.018984,14.951964,0.0,0.0,0.0,0.0
6.48,240.4466616,2.4399240000000004,-31.500775200000003,12.421514400000001,0.0,0.0,0.0,0.0
6.5,246.1317912,3.578352,-33.615477600000006,11.501323200000002,0.0,0.0,0.0,0.0
6.5200000000000005,251.37618000000003,2.6566368,-32.5852536,14.338401600000001,0.0,0.0,0.0,0.0
6.54,256.43067840000003,8.0784192,-34.7539056,12.498324000000002,0.0,0.0,0.0,0.0
6.5600000000000005,261.2446896,5.964021600000001,-28.0851864,13.49502,0.0,0.0,0.0,0.0
6.58,265.752072,1.3554456000000001,-28.6813752,14.8751544,0.0,0.0,0.0,0.0
6.6,269.9208216,10.735360799999999,-30.362347200000002,13.341705600000001,0.0,0.0,0.0,0.0
6.62,274.1761344,1.5182088,-30.362347200000002,12.421514400000001,0.0,0.0,0.0,0.0
6.640000000000001,278.3586,-2.3314152,-33.5612232,12.345009600000001,0.0,0.0,0.0,0.0
6.66,282.3783024,1.5724632,-29.9825664,9.6612456,0.0,0.0,0.0,0.0
6.68,286.0459608,4.933797600000001,-28.1394408,11.5781328,0.0,0.0,0.0,0.0
6.7,289.4947728,2.9818584,-28.898392800000003,11.654637600000001,0.0,0.0,0.0,0.0
6.720000000000001,292.70126880000004,6.2349888,-27.1634712,13.111581600000001,0.0,0.0,0.0,0.0
6.74,295.54840559999997,10.8978192,-28.789884,10.9645704,0.0,0.0,0.0,0.0
6.76,298.42206000000004,0.3252216,-25.4824992,15.718536,0.0,0.0,0.0,0.0
6.78,301.3615512,4.120591200000001,-27.109216800000002,10.888065600000001,0.0,0.0,0.0,0.0
6.800000000000001,304.3571256,4.3915584,-28.789884,8.8943688,0.0,0.0,0.0,0.0
6.82,307.3203912,4.8795432000000005,-26.0247384,10.274503200000002,0.0,0.0,0.0,0.0
6.84,309.9940968,10.8978192,-23.801832,12.5748288,0.0,0.0,0.0,0.0
6.86,312.53033760000005,4.3915584,-27.054962400000004,10.044684,0.0,0.0,0.0,0.0
6.880000000000001,315.0891336,4.3376088,-26.566977600000005,9.2778072,0.0,0.0,0.0,0.0
6.9,317.3239272,0.16276320000000002,-28.898392800000003,7.9744824,0.0,0.0,0.0,0.0
6.92,319.5245832,6.018276,-27.380184,7.6675488,0.0,0.0,0.0,0.0
6.9399999999999995,321.91177680000004,9.9218496,-26.729740800000002,10.888065600000001,0.0,0.0,0.0,0.0
6.96,324.471792,4.5000672,-24.9945144,12.421514400000001,0.0,0.0,0.0,0.0
6.98,327.0098616,3.0903671999999998,-24.8863104,11.5781328,0.0,0.0,0.0,0.0
7.0,329.58755520000005,-0.4337304,-24.181307999999998,11.9615712,0.0,0.0,0.0,0.0
7.02,332.02260240000004,-1.6806672000000002,-23.259592800000004,13.264896000000002,0.0,0.0,0.0,0.0
7.04,335.06511600000005,2.0061936,-21.958401600000002,12.958267200000002,0.0,0.0,0.0,0.0
7.0600000000000005,338.7452712,-1.5182088,-25.9162296,12.8817624,0.0,0.0,0.0,0.0
7.08,342.5836176,8.566404,-22.771608,7.744358400000001,0.0,0.0,0.0,0.0
7.1,346.2744408,6.885736800000001,-24.235562400000003,8.2043016,0.0,0.0,0.0,0.0
7.12,349.6168776,4.7170848,-24.560784,8.1277968,0.0,0.0,0.0,0.0
7.140000000000001,352.67585040000006,2.2771608000000003,-22.5548952,11.7314472,0.0,0.0,0.0,0.0
7.16,355.4129544,4.5000672,-22.0669104,12.2682,0.0,0.0,0.0,0.0
7.18,357.9321264,10.3013256,-22.6630992,6.9009768,0.0,0.0,0.0,0.0
7.2,360.20075280000003,6.885736800000001,-23.9103408,4.984089600000001,0.0,0.0,0.0,0.0
7.220000000000001,362.3846448,6.1267848,-23.801832,6.747662400000001,0.0,0.0,0.0,0.0
7.24,364.44082560000004,3.1446216000000002,-22.5548952,10.428122400000001,0.0,0.0,0.0,0.0
7.26,366.45707760000005,4.933797600000001,-21.958401600000002,15.488716800000002,0.0,0.0,0.0,0.0
7.28,368.893344,8.1326736,-21.470416800000002,10.274503200000002,0.0,0.0,0.0,0.0
7.300000000000001,371.1098496,3.8496240000000004,-21.958401600000002,9.891369599999999,0.0,0.0,0.0,0.0
7.32,373.363236,6.2349888,-23.584814400000003,9.4311216,0.0,0.0,0.0,0.0
7.34,375.5925432,1.6806672000000002,-21.958401600000002,7.9744824,0.0,0.0,0.0,0.0
7.36,377.673108,0.16276320000000002,-21.958401600000002,7.8208632,0.0,0.0,0.0,0.0
7.380000000000001,379.60523520000004,6.885736800000001,-19.898258400000003,10.9645704,0.0,0.0,0.0,0.0
7.4,381.757428,8.1326736,-17.458334400000002,9.047683200000002,0.0,0.0,0.0,0.0
7.42,383.83464,4.7170848,-21.741384,8.2043016,0.0,0.0,0.0,0.0
7.4399999999999995,385.9685448,1.030224,-20.8739232,8.2811112,0.0,0.0,0.0,0.0
7.46,388.0795896,2.2229064000000003,-20.765719200000003,7.36092,0.0,0.0,0.0,0.0
7.48,390.33968160000006,6.7229735999999995,-20.0607168,8.58774,0.0,0.0,0.0,0.0
7.5,392.57904720000005,-0.8132064000000001,-20.1149712,7.130796,0.0,0.0,0.0,0.0
7.52,394.7696448,3.6326064,-20.1149712,5.597347200000001,0.0,0.0,0.0,0.0
7.54,396.86453520000003,1.2469368,-19.247510400000003,6.8241672,0.0,0.0,0.0,0.0
7.5600000000000005,399.0039264,3.7953696000000003,-18.3257952,7.6675488,0.0,0.0,0.0,0.0
7.58,401.36765040000006,2.1686520000000002,-18.434304,11.9615712,0.0,0.0,0.0,0.0
7.6,403.8953568,4.012082400000001,-19.3017648,6.364224,0.0,0.0,0.0,0.0
7.62,406.60838160000003,0.650748,-18.3257952,7.5142344,0.0,0.0,0.0,0.0
7.640000000000001,409.2034488,2.4941784,-20.277734400000003,4.677156,0.0,0.0,0.0,0.0
7.66,411.62782799999997,6.397752,-18.6510168,7.5142344,0.0,0.0,0.0,0.0
7.68,414.17321280000004,2.4399240000000004,-18.705271200000002,7.5142344,0.0,0.0,0.0,0.0
7.7,416.5692456,1.2469368,-18.054828,9.2778072,0.0,0.0,0.0,0.0
7.720000000000001,418.8204984,3.4698432,-19.3017648,8.2811112,0.0,0.0,0.0,0.0
7.74,421.20830159999997,3.4698432,-20.277734400000003,6.1341,0.0,0.0,0.0,0.0
7.76,423.50222640000004,1.7349216,-17.024604,8.817864,0.0,0.0,0.0,0.0
7.78,425.8732656,-0.650748,-18.217286400000003,7.36092,0.0,0.0,0.0,0.0
7.800000000000001,428.3326968,7.3194672,-17.2955712,8.357616,0.0,0.0,0.0,0.0
7.82,430.98963840000005,7.5364848,-16.2113976,8.357616,0.0,0.0,0.0,0.0
7.84,433.5557496,5.964021600000001,-18.000573600000003,4.370527200000001,0.0,0.0,0.0,0.0
7.86,435.956964,-0.7046976,-15.6691584,11.501323200000002,0.0,0.0,0.0,0.0
7.880000000000001,438.44199840000005,-2.1686520000000002,-15.9401256,6.0572904,0.0,0.0,0.0,0.0
7.9,441.40739759999997,-1.6806672000000002,-17.9463192,3.6036504000000003,0.0,0.0,0.0,0.0
7.92,444.51788160000007,2.7651456,-18.163032,2.9903928,0.0,0.0,0.0,0.0
7.9399999999999995,447.1473912,4.3915584,-14.58468,5.6741568000000004,0.0,0.0,0.0,0.0
7.96,449.40656880000006,6.018276,-17.512588800000003,3.9870888,0.0,0.0,0.0,0.0
7.98,451.6194168,3.7411152,-15.777667200000002,2.223516,0.0,0.0,0.0,0.0
8.0,453.65060400000004,1.6806672000000002,-17.1870624,7.5142344,0.0,0.0,0.0,0.0
8.02,455.5293912,1.3554456000000001,-15.1269192,7.9744824,0.0,0.0,0.0,0.0
8.04,457.44475439999997,0.8674608,-15.2896824,11.04138,0.0,0.0,0.0,0.0
8.06,459.70880880000004,2.3314152,-14.0424408,9.814560000000002,0.0,0.0,0.0,0.0
8.08,462.3017424,3.5240976,-15.8858712,5.4440328000000004,0.0,0.0,0.0,0.0
8.1,464.80994160000006,4.2291,-15.506395200000002,3.6036504000000003,0.0,0.0,0.0,0.0
8.120000000000001,466.8777048,2.0601432,-17.3498256,0.996696,0.0,0.0,0.0,0.0
8.14,468.9735096,2.548128,-16.102888800000002,4.523841600000001,0.0,0.0,0.0,0.0
8.16,470.9364216,4.012082400000001,-14.313712800000001,8.4344256,0.0,0.0,0.0,0.0
8.18,472.7460192,3.4698432,-13.446252000000001,5.597347200000001,0.0,0.0,0.0,0.0
8.2,474.63699840000004,2.7108912000000003,-12.361773600000001,8.58774,0.0,0.0,0.0,0.0
8.22,476.2993776,2.9279088,-12.361773600000001,9.2013024,0.0,0.0,0.0,0.0
8.24,478.3259928,0.9217152000000001,-13.608710400000001,4.370527200000001,0.0,0.0,0.0,0.0
8.26,480.2050848,2.7108912000000003,-13.988186400000002,4.2937176,0.0,0.0,0.0,0.0
8.280000000000001,482.05826880000006,0.16276320000000002,-15.343632000000001,3.2970216000000003,0.0,0.0,0.0,0.0
8.3,483.7032744,1.9519392,-13.012521600000001,6.1341,0.0,0.0,0.0,0.0
8.32,485.2135584,2.6566368,-14.58468,1.9936968000000002,0.0,0.0,0.0,0.0
8.34,486.7784016,-0.650748,-12.9040128,3.910584,0.0,0.0,0.0,0.0
8.36,488.44687680000004,3.6326064,-12.3075192,6.5175384,0.0,0.0,0.0,0.0
8.38,490.200696,7.6446888,-13.174980000000001,7.130796,0.0,0.0,0.0,0.0
8.4,491.85545520000005,6.0725304,-13.771473600000002,5.4440328000000004,0.0,0.0,0.0,0.0
8.42,493.6001304,3.7411152,-13.283488800000002,4.677156,0.0,0.0,0.0,0.0
8.44,495.65356800000006,3.957828,-12.3075192,2.9903928,0.0,0.0,0.0,0.0
8.46,497.7393144,0.3252216,-13.229234400000001,4.7539656,0.0,0.0,0.0,0.0
8.48,499.8838872,-1.4639544,-12.524536800000002,6.5175384,0.0,0.0,0.0,0.0
8.5,502.491756,0.2170176,-10.3013256,11.1181896,0.0,0.0,0.0,0.0
8.52,505.4845872,4.0663368,-12.3075192,7.5142344,0.0,0.0,0.0,0.0
8.54,508.4661408,4.2291,-11.928043200000001,5.4440328000000004,0.0,0.0,0.0,0.0
8.56,511.16971680000006,0.7046976,-12.6327408,3.1437072,0.0,0.0,0.0,0.0
8.58,513.5486808,4.2833544,-13.9342368,4.677156,0.0,0.0,0.0,0.0
8.6,515.7621384,3.578352,-12.5787912,4.2172128,0.0,0.0,0.0,0.0
8.620000000000001,517.6811592,2.3856696,-11.277295200000001,5.060594400000001,0.0,0.0,0.0,0.0
8.64,519.3798096,3.6326064,-11.3315496,7.744358400000001,0.0,0.0,0.0,0.0
8.66,520.9979928,6.343497600000001,-11.5485672,4.4473368,0.0,0.0,0.0,0.0
8.68,522.6152616,4.3376088,-11.277295200000001,8.050987200000002,0.0,0.0,0.0,0.0
8.7,524.3355528000001,2.3314152,-12.524536800000002,1.8400776,0.0,0.0,0.0,0.0
8.719999999999999,525.7650648,-2.7108912000000003,-10.952073600000002,4.984089600000001,0.0,0.0,0.0,0.0
8.74,527.2509648,-1.789176,-10.8978192,6.5175384,0.0,0.0,0.0,0.0
8.76,529.2382608,-1.3554456000000001,-12.0908064,5.597347200000001,0.0,0.0,0.0,0.0
8.780000000000001,531.6912912,-0.16276320000000002,-10.789310400000002,4.2172128,0.0,0.0,0.0,0.0
8.8,534.4216896,1.789176,-10.681106400000001,4.984089600000001,0.0,0.0,0.0,0.0
8.82,536.6595312000001,4.988052,-10.3013256,6.6708528000000005,0.0,0.0,0.0,0.0
8.84,538.9674768000001,5.3132736,-9.976104,4.2172128,0.0,0.0,0.0,0.0
8.86,541.1032104,1.0844784,-9.5423736,4.523841600000001,0.0,0.0,0.0,0.0
8.879999999999999,542.8567248,-0.5422392,-9.976104,4.907280000000001,0.0,0.0,0.0,0.0
8.9,544.354512,1.8434304000000001,-11.1690912,2.4536400000000005,0.0,0.0,0.0,0.0
8.92,545.5459752,3.0361128,-11.928043200000001,0.996696,0.0,0.0,0.0,0.0
8.940000000000001,546.7962648,3.6326064,-10.8978192,3.0672024,0.0,0.0,0.0,0.0
8.96,548.3678136,4.7170848,-10.355580000000002,2.9135831999999997,0.0,0.0,0.0,0.0
8.98,549.8488368,8.3496912,-9.976104,4.370527200000001,0.0,0.0,0.0,0.0
9.0,551.2966368,6.506260800000001,-9.3256608,5.6741568000000004,0.0,0.0,0.0,0.0
9.02,552.8288664,2.6566368,-9.379915200000001,6.747662400000001,0.0,0.0,0.0,0.0
9.04,554.5491576000001,0.9759696,-9.6508824,5.060594400000001,0.0,0.0,0.0,0.0
9.06,556.241712,-0.0542544,-10.355580000000002,4.677156,0.0,0.0,0.0,0.0
9.08,557.7711984,-0.1085088,-11.1690912,0.996696,0.0,0.0,0.0,0.0
9.100000000000001,559.2068064,-1.030224,-10.8978192,2.5304496,0.0,0.0,0.0,0.0
9.120000000000001,560.78628,0.16276320000000002,-10.789310400000002,3.3738312000000006,0.0,0.0,0.0,0.0
9.14,562.580028,-1.1926824,-8.024164800000001,7.0542912,0.0,0.0,0.0,0.0
9.16,564.6895488,0.9217152000000001,-9.488119200000002,5.367223200000001,0.0,0.0,0.0,0.0
9.18,567.2105496,2.3314152,-8.6206584,6.2109096,0.0,0.0,0.0,0.0
9.2,569.73978,3.957828,-7.5364848,6.364224,0.0,0.0,0.0,0.0
9.219999999999999,571.8739896000001,3.578352,-9.217152,4.2937176,0.0,0.0,0.0,0.0
9.24,573.8664672,1.8434304000000001,-8.7834216,3.68046,0.0,0.0,0.0,0.0
9.26,575.6318688,-1.4639544,-11.982297599999999,1.2268200000000002,0.0,0.0,0.0,0.0
9.280000000000001,577.2436512,-1.8434304000000001,-9.108643200000001,0.0768096,0.0,0.0,0.0,0.0
9.3,579.3354936,-4.8252888,-9.2714064,4.2937176,0.0,0.0,0.0,0.0
9.32,581.8324152,-0.3252216,-10.5183432,2.8370784000000002,0.0,0.0,0.0,0.0
9.34,584.2232664,0.2170176,-9.6508824,0.996696,0.0,0.0,0.0,0.0
9.36,586.230984,3.957828,-10.355580000000002,-0.6135624,0.0,0.0,0.0,0.0
9.379999999999999,588.3441624,10.843564800000001,-10.4098344,-0.996696,0.0,0.0,0.0,0.0
9.4,591.3760080000001,7.6446888,-10.4640888,0.8433816000000001,0.0,0.0,0.0,0.0
9.42,595.2131352,4.1748456,-8.5121496,3.5271456,0.0,0.0,0.0,0.0
9.440000000000001,599.543124,2.6566368,-8.0784192,3.910584,0.0,0.0,0.0,0.0
9.46,604.2483216,0.8674608,-7.915960800000001,7.0542912,0.0,0.0,0.0,0.0
9.48,608.4289584,1.030224,-6.668719200000001,8.8943688,0.0,0.0,0.0,0.0
9.5,611.555292,1.4639544,-6.4520064,8.2811112,0.0,0.0,0.0,0.0
9.52,613.9866816,-0.1085088,-6.9399912,6.8241672,0.0,0.0,0.0,0.0
9.54,615.7078872000001,2.0601432,-5.964021600000001,7.8976728000000005,0.0,0.0,0.0,0.0
9.56,617.0435208,4.012082400000001,-8.3496912,3.2205168000000004,0.0,0.0,0.0,0.0
9.58,617.9661504000001,1.030224,-8.94588,2.0702016,0.0,0.0,0.0,0.0
9.600000000000001,618.4855296000001,-3.6868608000000003,-10.735360799999999,-2.683764,0.0,0.0,0.0,0.0
9.620000000000001,618.9628464000001,1.1387328,-8.729167200000001,0.0768096,0.0,0.0,0.0,0.0
9.64,619.7403912,1.030224,-9.379915200000001,1.4569440000000002,0.0,0.0,0.0,0.0
9.66,620.357916,2.1686520000000002,-8.4582,1.5334488,0.0,0.0,0.0,0.0
9.68,620.975136,3.7953696000000003,-7.2652128,4.6006512,0.0,0.0,0.0,0.0
9.7,621.8368056,3.198876,-7.5364848,3.0672024,0.0,0.0,0.0,0.0
9.719999999999999,622.8018024,7.5364848,-4.8252888,6.364224,0.0,0.0,0.0,0.0
9.74,623.8119096,4.3915584,-5.367528,8.2811112,0.0,0.0,0.0,0.0
9.76,624.5013672000001,2.8736544000000004,-6.018276,6.364224,0.0,0.0,0.0,0.0
9.780000000000001,625.0850592,1.3011912,-6.506260800000001,6.1341,0.0,0.0,0.0,0.0
9.8,625.8049968,-3.0361128,-6.506260800000001,6.1341,0.0,0.0,0.0,0.0
9.82,626.705376,-0.7046976,-7.753197600000001,3.2970216000000003,0.0,0.0,0.0,0.0
9.84,627.7935120000001,-1.2469368,-6.5605152,5.060594400000001,0.0,0.0,0.0,0.0
9.86,629.0730624,-0.8674608,-7.5904344,2.9903928,0.0,0.0,0.0,0.0
9.879999999999999,630.4446624,-0.3252216,-7.156704,2.4536400000000005,0.0,0.0,0.0,0.0
9.9,631.8311976,-0.650748,-6.9399912,1.6102584000000002,0.0,0.0,0.0,0.0
9.92,633.3576360000001,0.2170176,-7.915960800000001,1.9168872,0.0,0.0,0.0,0.0
9.940000000000001,634.81458,1.8976848000000002,-6.9942456,4.6006512,0.0,0.0,0.0,0.0
9.96,635.9609328,1.030224,-6.9942456,2.683764,0.0,0.0,0.0,0.0
9.98,637.3605744,1.7349216,-6.2892432000000005,3.1437072,0.0,0.0,0.0,0.0
10.0,638.6703,0.7046976,-4.933797600000001,7.6675488,0.0,0.0,0.0,0.0
10.02,640.0236120000001,1.3011912,-5.8555128,6.2109096,0.0,0.0,0.0,0.0
10.04,641.4421512,2.9279088,-5.3132736,6.364224,0.0,0.0,0.0,0.0
10.06,642.9003144000001,1.6806672000000002,-5.9097672,4.677156,0.0,0.0,0.0,0.0
10.08,644.4511368,2.1143976,-6.1267848,2.3768304000000002,0.0,0.0,0.0,0.0
10.100000000000001,645.8550456,0.3252216,-6.7229735999999995,2.3003256,0.0,0.0,0.0,0.0
10.120000000000001,647.2772424,-2.6566368,-6.668719200000001,1.3801344,0.0,0.0,0.0,0.0
10.14,648.5378952,1.030224,-7.970215200000001,0.4599432,0.0,0.0,0.0,0.0
10.16,649.9610064000001,-1.6264128000000002,-5.421782400000001,4.6006512,0.0,0.0,0.0,0.0
10.18,651.6392352,0.0542544,-6.1267848,3.8337744,0.0,0.0,0.0,0.0
10.2,653.55978,0.9759696,-6.506260800000001,4.4473368,0.0,0.0,0.0,0.0
10.219999999999999,655.48764,0.9217152000000001,-5.801258400000001,3.3738312000000006,0.0,0.0,0.0,0.0
10.24,657.2155512,1.3554456000000001,-5.6930544,2.9903928,0.0,0.0,0.0,0.0
10.26,659.0742216,1.8434304000000001,-6.2892432000000005,1.6102584000000002,0.0,0.0,0.0,0.0
10.280000000000001,660.7649472,1.6806672000000002,-5.5845456,1.0735056,0.0,0.0,0.0,0.0
10.3,662.2264632,1.6264128000000002,-5.7470040000000004,1.0735056,0.0,0.0,0.0,0.0
10.32,663.4487112,1.4639544,-5.801258400000001,1.1500104,0.0,0.0,0.0,0.0
10.34,664.4938704,1.1387328,-5.5845456,1.6102584000000002,0.0,0.0,0.0,0.0
10.36,665.4155856,0.8674608,-5.8555128,1.1500104,0.0,0.0,0.0,0.0
10.379999999999999,666.151068,1.030224,-5.1508152,2.683764,0.0,0.0,0.0,0.0
10.4,666.8707008000001,2.3314152,-5.5845456,2.4536400000000005,0.0,0.0,0.0,0.0
10.42,667.6884792000001,1.9519392,-5.638800000000001,2.3003256,0.0,0.0,0.0,0.0
10.440000000000001,668.6010504,1.030224,-4.5000672,3.2970216000000003,0.0,0.0,0.0,0.0
10.46,669.6294456,0.8674608,-5.3132736,2.4536400000000005,0.0,0.0,0.0,0.0
10.48,671.033964,0.9759696,-5.096560800000001,2.3768304000000002,0.0,0.0,0.0,0.0
10.5,672.515292,1.5724632,-5.0423064,2.5304496,0.0,0.0,0.0,0.0
10.52,674.046912,0.9759696,-4.988052,2.3768304000000002,0.0,0.0,0.0,0.0
10.54,675.6294336000001,0.4337304,-4.7713392,1.8400776,0.0,0.0,0.0,0.0
10.56,677.1711120000001,0.4879848,-5.1508152,1.9168872,0.0,0.0,0.0,0.0
10.58,678.4488336000001,1.1387328,-4.933797600000001,2.0702016,0.0,0.0,0.0,0.0
10.600000000000001,679.8067176000001,0.4337304,-5.421782400000001,1.4569440000000002,0.0,0.0,0.0,0.0
10.620000000000001,681.0865728,0.5422392,-4.7713392,1.3036296,0.0,0.0,0.0,0.0
10.64,682.3051632,0.7589520000000001,-4.554321600000001,1.4569440000000002,0.0,0.0,0.0,0.0
10.66,683.4612695999999,0.37947600000000004,-5.367528,1.2268200000000002,0.0,0.0,0.0,0.0
10.68,684.6658392,0.8674608,-4.7713392,1.6102584000000002,0.0,0.0,0.0,0.0
10.7,685.8932688000001,1.0844784,-5.205069600000001,2.4536400000000005,0.0,0.0,0.0,0.0
10.719999999999999,687.1651992,0.4879848,-5.0423064,1.2268200000000002,0.0,0.0,0.0,0.0
10.74,688.447188,0.7589520000000001,-5.3132736,1.3036296,0.0,0.0,0.0,0.0
10.76,689.7133272,1.1387328,-4.3915584,1.6867632000000001,0.0,0.0,0.0,0.0
10.780000000000001,691.0526184000001,1.4097000000000002,-3.9035736000000005,1.9936968000000002,0.0,0.0,0.0,0.0
10.8,692.4757296,1.4639544,-4.1748456,2.4536400000000005,0.0,0.0,0.0,0.0
10.82,693.6918816,1.8434304000000001,-4.6628304,1.8400776,0.0,0.0,0.0,0.0
10.84,694.8351864,2.2229064000000003,-4.933797600000001,1.0735056,0.0,0.0,0.0,0.0
10.86,695.9358192,1.5724632,-4.2833544,1.3036296,0.0,0.0,0.0,0.0
10.879999999999999,697.1157000000001,0.7589520000000001,-4.2291,1.9936968000000002,0.0,0.0,0.0,0.0
10.9,698.4495048000001,0.9759696,-4.7713392,1.6102584000000002,0.0,0.0,0.0,0.0
10.92,699.8058648,0.16276320000000002,-4.7170848,1.8400776,0.0,0.0,0.0,0.0
10.940000000000001,701.1433272,1.1387328,-4.3915584,1.3801344,0.0,0.0,0.0,0.0
10.96,702.5149272,-0.5422392,-4.2291,1.4569440000000002,0.0,0.0,0.0,0.0
10.98,703.7832000000001,0.7589520000000001,-4.2291,2.0702016,0.0,0.0,0.0,0.0
11.0,705.0758568,0.2709672,-3.8496240000000004,2.223516,0.0,0.0,0.0,0.0
11.02,706.3898496,-0.1085088,-4.3376088,2.3768304000000002,0.0,0.0,0.0,0.0
11.04,707.6355672000001,1.1926824,-4.012082400000001,1.0735056,0.0,0.0,0.0,0.0
11.06,708.8569008000001,0.0542544,-3.5240976,1.6102584000000002,0.0,0.0,0.0,0.0
11.08,710.1614448,1.6264128000000002,-3.7953696000000003,1.7635728,0.0,0.0,0.0,0.0
11.100000000000001,711.3903984000001,0.7046976,-3.6326064,1.4569440000000002,0.0,0.0,0.0,0.0
11.120000000000001,712.6592808,0.8674608,-4.2291,1.5334488,0.0,0.0,0.0,0.0
11.14,713.9491944,0.16276320000000002,-3.957828,1.2268200000000002,0.0,0.0,0.0,0.0
11.16,715.2653207999999,1.4097000000000002,-4.120591200000001,1.5334488,0.0,0.0,0.0,0.0
11.18,716.5089048000001,0.5964936000000001,-3.7411152,1.3801344,0.0,0.0,0.0,0.0
11.2,717.7808352000001,0.8132064000000001,-3.7411152,0.996696,0.0,0.0,0.0,0.0
11.219999999999999,719.0009496000001,1.2469368,-3.8496240000000004,1.2268200000000002,0.0,0.0,0.0,0.0
11.24,720.31098,0.9759696,-3.6868608000000003,1.6867632000000001,0.0,0.0,0.0,0.0
11.26,721.4634288,0.5964936000000001,-3.3073848000000003,2.0702016,0.0,0.0,0.0,0.0
11.280000000000001,722.6451384,1.030224,-3.7411152,1.4569440000000002,0.0,0.0,0.0,0.0
11.3,723.7808232,0.8132064000000001,-3.957828,0.996696,0.0,0.0,0.0,0.0
11.32,724.8497568,0.7589520000000001,-3.4698432,1.6867632000000001,0.0,0.0,0.0,0.0
11.34,726.0207984000001,0.5422392,-3.4698432,2.1470112,0.0,0.0,0.0,0.0
11.36,727.1522160000001,0.2170176,-3.0361128,1.9168872,0.0,0.0,0.0,0.0
11.379999999999999,728.3647104,0.7589520000000001,-3.578352,1.3801344,0.0,0.0,0.0,0.0
11.4,729.4619904000001,0.5964936000000001,-3.198876,1.5334488,0.0,0.0,0.0,0.0
11.42,730.6184016,0.2170176,-3.1446216000000002,1.9936968000000002,0.0,0.0,0.0,0.0
11.440000000000001,731.7662784,-0.1085088,-3.0361128,1.6867632000000001,0.0,0.0,0.0,0.0
11.46,733.0153488,-0.37947600000000004,-3.4158936000000004,1.4569440000000002,0.0,0.0,0.0,0.0
11.48,734.2613712000001,1.6264128000000002,-3.4698432,1.4569440000000002,0.0,0.0,0.0,0.0
11.5,735.4473479999999,0.37947600000000004,-3.0903671999999998,1.1500104,0.0,0.0,0.0,0.0
11.52,736.5248160000001,0.3252216,-3.0361128,0.996696,0.0,0.0,0.0,0.0
11.54,737.6729976,0.8132064000000001,-3.5240976,1.0735056,0.0,0.0,0.0,0.0
11.56,738.8434296,0.4879848,-2.8736544000000004,1.3801344,0.0,0.0,0.0,0.0
11.58,739.9477200000001,0.0542544,-3.0903671999999998,0.6135624,0.0,0.0,0.0,0.0
11.600000000000001,741.0352464,-0.16276320000000002,-2.8736544000000004,0.996696,0.0,0.0,0.0,0.0
11.620000000000001,742.1322216000001,0.4337304,-3.1446216000000002,1.2268200000000002,0.0,0.0,0.0,0.0
11.64,743.2816224000001,0.5964936000000001,-3.3073848000000003,0.996696,0.0,0.0,0.0,0.0
11.66,744.3243432,0.2170176,-3.1446216000000002,0.7668768,0.0,0.0,0.0,0.0
11.68,745.367064,0.2170176,-2.9279088,1.0735056,0.0,0.0,0.0,0.0
11.7,746.4439224000001,0.4337304,-3.0361128,1.1500104,0.0,0.0,0.0,0.0
11.719999999999999,747.4470192,0.4337304,-2.8194000000000004,1.0735056,0.0,0.0,0.0,0.0
11.74,748.3784880000001,1.4097000000000002,-2.7108912000000003,0.996696,0.0,0.0,0.0,0.0
11.76,749.3989584,0.4879848,-3.0903671999999998,1.0735056,0.0,0.0,0.0,0.0
11.780000000000001,750.4675872000001,0.5422392,-2.8194000000000004,1.3801344,0.0,0.0,0.0,0.0
11.8,751.6172928000001,0.650748,-2.9279088,1.4569440000000002,0.0,0.0,0.0,0.0
11.82,752.7407856,0.5422392,-3.0361128,1.5334488,0.0,0.0,0.0,0.0
11.84,753.8414184000001,0.37947600000000004,-2.6566368,0.996696,0.0,0.0,0.0,0.0
11.86,754.8414672000001,0.9759696,-2.8194000000000004,1.2268200000000002,0.0,0.0,0.0,0.0
11.879999999999999,755.9326512,0.3252216,-2.6023824,1.0735056,0.0,0.0,0.0,0.0
11.9,756.9741528000001,-0.1085088,-2.9279088,0.6900672,0.0,0.0,0.0,0.0
11.92,758.0488776,0.0542544,-2.7651456,1.0735056,0.0,0.0,0.0,0.0
11.940000000000001,759.0858072,0.5964936000000001,-2.8736544000000004,1.4569440000000002,0.0,0.0,0.0,0.0
11.96,760.1349288,0.3252216,-2.4941784,1.2268200000000002,0.0,0.0,0.0,0.0
11.98,761.2931688000001,0.0542544,-2.6566368,1.0735056,0.0,0.0,0.0,0.0
12.0,762.3404616000001,-0.1085088,-2.6023824,0.996696,0.0,0.0,0.0,0.0
12.02,763.3825728,0.4879848,-2.6566368,1.0735056,0.0,0.0,0.0,0.0
12.04,764.4112728,-0.0542544,-2.6566368,1.1500104,0.0,0.0,0.0,0.0
12.06,765.4149792000001,0.3252216,-2.8194000000000004,1.2268200000000002,0.0,0.0,0.0,0.0
12.08,766.4113704,0.4879848,-2.7651456,1.0735056,0.0,0.0,0.0,0.0
12.100000000000001,767.4281832000001,0.1085088,-2.3856696,1.2268200000000002,0.0,0.0,0.0,0.0
12.120000000000001,768.3980568000001,0.16276320000000002,-2.7651456,0.996696,0.0,0.0,0.0,0.0
12.14,769.4834496000001,0.4879848,-2.2229064000000003,0.9201912000000001,0.0,0.0,0.0,0.0
12.16,770.5523832000001,0.4337304,-2.3856696,0.996696,0.0,0.0,0.0,0.0
12.18,771.6588072,0.1085088,-2.0601432,1.0735056,0.0,0.0,0.0,0.0
12.2,772.7256072,-0.16276320000000002,-2.2229064000000003,0.996696,0.0,0.0,0.0,0.0
12.219999999999999,773.7311424,0.0542544,-2.1143976,0.996696,0.0,0.0,0.0,0.0
12.24,774.6266448,0.16276320000000002,-2.0061936,0.996696,0.0,0.0,0.0,0.0
12.26,775.537692,0.16276320000000002,-2.3314152,0.996696,0.0,0.0,0.0,0.0
12.280000000000001,776.4024096,-0.3252216,-2.2771608000000003,1.0735056,0.0,0.0,0.0,0.0
12.3,777.1857456,0.8674608,-2.2771608000000003,0.8433816000000001,0.0,0.0,0.0,0.0
12.32,778.1028888000001,0.3252216,-2.3856696,0.7668768,0.0,0.0,0.0,0.0
12.34,779.0069256,0.16276320000000002,-2.3314152,0.996696,0.0,0.0,0.0,0.0
12.36,779.7783744000001,0.5964936000000001,-2.1143976,0.8433816000000001,0.0,0.0,0.0,0.0
12.379999999999999,780.5842656000001,0.16276320000000002,-2.4399240000000004,0.996696,0.0,0.0,0.0,0.0
12.4,781.4084448,-0.0542544,-2.1143976,1.0735056,0.0,0.0,0.0,0.0
12.42,782.2637136000001,0.16276320000000002,-1.8976848000000002,0.996696,0.0,0.0,0.0,0.0
12.440000000000001,783.110448,-0.5964936000000001,-2.0061936,1.0735056,0.0,0.0,0.0,0.0
12.46,783.8980512,-0.2170176,-2.0601432,0.996696,0.0,0.0,0.0,0.0
12.48,784.7359464,0.1085088,-2.0601432,0.9201912000000001,0.0,0.0,0.0,0.0
12.5,785.7152688000001,0.5422392,-2.0601432,0.996696,0.0,0.0,0.0,0.0
12.52,786.7381776,0.16276320000000002,-2.0061936,0.996696,0.0,0.0,0.0,0.0
12.54,787.6827528,0.1085088,-1.9519392,0.9201912000000001,0.0,0.0,0.0,0.0
12.56,788.6940792000001,0.0,-1.7349216,0.996696,0.0,0.0,0.0,0.0
12.58,789.6700488,-0.0542544,-2.1143976,0.9201912000000001,0.0,0.0,0.0,0.0
12.600000000000001,790.6158432000001,-0.1085088,-2.0601432,0.8433816000000001,0.0,0.0,0.0,0.0
12.620000000000001,791.6823383999999,0.3252216,-1.9519392,0.9201912000000001,0.0,0.0,0.0,0.0
12.64,792.6522120000001,-0.2170176,-1.8434304000000001,0.996696,0.0,0.0,0.0,0.0
12.66,793.6455552000001,0.0,-1.7349216,0.996696,0.0,0.0,0.0,0.0
12.68,794.540448,0.37947600000000004,-1.5724632,0.996696,0.0,0.0,0.0,0.0
12.7,795.5182464,0.5422392,-1.9519392,0.4599432,0.0,0.0,0.0,0.0
12.72,796.4710512,0.2709672,-2.0061936,0.4599432,0.0,0.0,0.0,0.0
12.74,797.4403152,0.0,-1.8434304000000001,0.8433816000000001,0.0,0.0,0.0,0.0
12.76,798.3330744,0.2170176,-2.0601432,0.6135624,0.0,0.0,0.0,0.0
12.78,799.2538752,-0.0542544,-1.789176,0.5367528,0.0,0.0,0.0,0.0
12.8,800.0756160000001,0.1085088,-1.7349216,0.6135624,0.0,0.0,0.0,0.0
12.82,801.0137904000001,0.0542544,-1.5724632,0.8433816000000001,0.0,0.0,0.0,0.0
12.84,801.832788,0.0,-1.7349216,0.7668768,0.0,0.0,0.0,0.0
12.86,802.6746456000001,0.2709672,-1.5724632,0.996696,0.0,0.0,0.0,0.0
12.88,803.4412176000001,-0.16276320000000002,-1.6806672000000002,0.9201912000000001,0.0,0.0,0.0,0.0
12.9,804.2413176,0.2709672,-1.789176,0.9201912000000001,0.0,0.0,0.0,0.0
12.92,804.941748,-0.1085088,-1.5182088,0.996696,0.0,0.0,0.0,0.0
12.94,805.7162448,0.1085088,-1.4097000000000002,0.9201912000000001,0.0,0.0,0.0,0.0
12.96,806.4995808000001,0.1085088,-1.6264128000000002,0.8433816000000001,0.0,0.0,0.0,0.0
12.98,807.2816976,0.16276320000000002,-1.5724632,0.996696,0.0,0.0,0.0,0.0
13.0,808.0199232,0.37947600000000004,-1.5724632,0.7668768,0.0,0.0,0.0,0.0
13.02,808.8038688,-0.0542544,-1.4639544,0.8433816000000001,0.0,0.0,0.0,0.0
13.040000000000001,809.5564200000001,0.3252216,-1.3011912,0.9201912000000001,0.0,0.0,0.0,0.0
13.06,810.3467664,0.1085088,-1.3011912,0.996696,0.0,0.0,0.0,0.0
13.08,810.9914184,0.0,-1.3011912,0.9201912000000001,0.0,0.0,0.0,0.0
13.1,811.7302536000001,0.0542544,-1.3554456000000001,0.7668768,0.0,0.0,0.0,0.0
13.120000000000001,812.4248928000001,0.2709672,-1.4639544,0.8433816000000001,0.0,0.0,0.0,0.0
13.14,813.2042664,0.5964936000000001,-1.3554456000000001,0.7668768,0.0,0.0,0.0,0.0
13.16,813.9461496000001,0.3252216,-1.1926824,0.9201912000000001,0.0,0.0,0.0,0.0
13.18,814.7572224,0.2170176,-1.1926824,0.8433816000000001,0.0,0.0,0.0,0.0
13.2,815.4265632,0.4879848,-1.2469368,0.6900672,0.0,0.0,0.0,0.0
13.22,816.1184592000001,0.4879848,-1.4639544,0.6900672,0.0,0.0,0.0,0.0
13.24,816.870096,-0.16276320000000002,-1.4639544,0.4599432,0.0,0.0,0.0,0.0
13.26,817.5830232000001,0.2709672,-1.3554456000000001,0.5367528,0.0,0.0,0.0,0.0
13.28,818.3145432,0.16276320000000002,-1.2469368,0.7668768,0.0,0.0,0.0,0.0
13.3,819.072276,0.0542544,-1.3554456000000001,0.4599432,0.0,0.0,0.0,0.0
13.32,819.7827648,0.1085088,-1.0844784,0.8433816000000001,0.0,0.0,0.0,0.0
13.34,820.3698096,-0.16276320000000002,-1.1387328,0.6900672,0.0,0.0,0.0,0.0
13.36,821.0781648000001,-0.4337304,-1.1926824,0.6900672,0.0,0.0,0.0,0.0
13.38,821.7807288,0.0,-1.0844784,0.4599432,0.0,0.0,0.0,0.0
13.4,822.5689416,0.2709672,-1.030224,0.6900672,0.0,0.0,0.0,0.0
13.42,823.446156,-0.0542544,-1.2469368,0.6900672,0.0,0.0,0.0,0.0
13.44,824.2258343999999,-0.0542544,-1.030224,0.6900672,0.0,0.0,0.0,0.0
13.46,824.8729248,-0.16276320000000002,-0.9217152000000001,0.7668768,0.0,0.0,0.0,0.0
13.48,825.5940816,-0.0542544,-1.030224,0.8433816000000001,0.0,0.0,0.0,0.0
13.5,826.3499856,0.2709672,-1.030224,0.3834384,0.0,0.0,0.0,0.0
13.52,826.9961616,0.0,-0.9759696,0.5367528,0.0,0.0,0.0,0.0
13.540000000000001,827.6831808000001,0.37947600000000004,-0.9217152000000001,0.8433816000000001,0.0,0.0,0.0,0.0
13.56,828.3534360000001,0.1085088,-0.8674608,0.8433816000000001,0.0,0.0,0.0,0.0
13.58,829.0669728,-0.2170176,-1.0844784,0.6135624,0.0,0.0,0.0,0.0
13.6,829.5637968000001,0.16276320000000002,-0.8132064000000001,0.6135624,0.0,0.0,0.0,0.0
13.620000000000001,830.255388,0.3252216,-0.9759696,0.5367528,0.0,0.0,0.0,0.0
13.64,830.9978808000001,0.1085088,-1.0844784,0.4599432,0.0,0.0,0.0,0.0
13.66,831.6733176,-0.0542544,-0.8132064000000001,0.5367528,0.0,0.0,0.0,0.0
13.68,832.2871848000001,0.0,-0.7589520000000001,0.5367528,0.0,0.0,0.0,0.0
13.7,832.8696576000001,0.2170176,-0.9759696,0.30662880000000003,0.0,0.0,0.0,0.0
13.72,833.5225392000001,0.16276320000000002,-0.8132064000000001,0.23012400000000002,0.0,0.0,0.0,0.0
13.74,834.16902,-0.1085088,-0.9759696,0.30662880000000003,0.0,0.0,0.0,0.0
13.76,834.6570048000001,0.0542544,-0.8132064000000001,0.4599432,0.0,0.0,0.0,0.0
13.78,835.2364296000001,-0.0542544,-0.9217152000000001,0.5367528,0.0,0.0,0.0,0.0
13.8,835.7283768000001,0.2170176,-0.8674608,0.30662880000000003,0.0,0.0,0.0,0.0
13.82,836.3331000000001,-0.0542544,-0.8132064000000001,0.23012400000000002,0.0,0.0,0.0,0.0
13.84,837.0149376,-0.1085088,-0.650748,0.6135624,0.0,0.0,0.0,0.0
13.86,837.5983248,-0.1085088,-0.7589520000000001,0.30662880000000003,0.0,0.0,0.0,0.0
13.88,838.2499872000001,-0.1085088,-0.650748,0.3834384,0.0,0.0,0.0,0.0
13.9,838.9165848000001,0.16276320000000002,-0.8132064000000001,0.3834384,0.0,0.0,0.0,0.0
13.92,839.4807695999999,0.1085088,-0.8674608,0.23012400000000002,0.0,0.0,0.0,0.0
13.94,840.0388584,-0.1085088,-0.7589520000000001,0.23012400000000002,0.0,0.0,0.0,0.0
13.96,840.5746968000001,-0.1085088,-0.7589520000000001,0.5367528,0.0,0.0,0.0,0.0
13.98,841.1873448,-0.0542544,-0.7046976,0.30662880000000003,0.0,0.0,0.0,0.0
14.0,841.7798760000001,0.0,-0.650748,0.23012400000000002,0.0,0.0,0.0,0.0
14.02,842.4943272,-0.16276320000000002,-0.7046976,0.23012400000000002,0.0,0.0,0.0,0.0
14.040000000000001,843.13776,-0.16276320000000002,-0.5964936000000001,0.23012400000000002,0.0,0.0,0.0,0.0
14.06,843.6089808,-0.2170176,-0.5422392,0.4599432,0.0,0.0,0.0,0.0
14.08,844.1384184000001,-0.2170176,-0.650748,0.3834384,0.0,0.0,0.0,0.0
14.1,844.7510664,-0.5422392,-0.7589520000000001,0.30662880000000003,0.0,0.0,0.0,0.0
14.120000000000001,845.2841616000001,0.2170176,-0.4337304,0.5367528,0.0,0.0,0.0,0.0
14.14,845.8965048000001,-0.0542544,-0.5964936000000001,0.30662880000000003,0.0,0.0,0.0,0.0
14.16,846.3893664,-0.16276320000000002,-0.4879848,0.30662880000000003,0.0,0.0,0.0,0.0
14.18,846.9654384,0.1085088,-0.3252216,0.5367528,0.0,0.0,0.0,0.0
14.2,847.5476064000001,0.16276320000000002,-0.4879848,0.4599432,0.0,0.0,0.0,0.0
14.22,848.1843336000001,-0.0542544,-0.5964936000000001,0.3834384,0.0,0.0,0.0,0.0
14.24,848.7908856,0.0542544,-0.37947600000000004,0.30662880000000003,0.0,0.0,0.0,0.0
14.26,849.3806736,0.1085088,-0.3252216,0.23012400000000002,0.0,0.0,0.0,0.0
14.28,849.9762528,0.16276320000000002,-0.37947600000000004,0.30662880000000003,0.0,0.0,0.0,0.0
14.3,850.5943872000001,-0.16276320000000002,-0.4879848,0.23012400000000002,0.0,0.0,0.0,0.0
14.32,851.2079496000001,-0.1085088,-0.3252216,0.23012400000000002,0.0,0.0,0.0,0.0
14.34,851.7599424,0.1085088,-0.4337304,0.23012400000000002,0.0,0.0,0.0,0.0
14.36,852.4119096000001,-0.0542544,-0.4879848,0.15331440000000002,0.0,0.0,0.0,0.0
14.38,852.9117816,-0.2170176,-0.4337304,0.23012400000000002,0.0,0.0,0.0,0.0
14.4,853.3808688,0.0542544,-0.37947600000000004,0.15331440000000002,0.0,0.0,0.0,0.0
14.42,853.9237176,0.0,-0.4337304,0.30662880000000003,0.0,0.0,0.0,0.0
14.44,854.3931096,0.0542544,-0.4879848,0.23012400000000002,0.0,0.0,0.0,0.0
14.46,854.8152576000001,-0.2170176,-0.4337304,0.15331440000000002,0.0,0.0,0.0,0.0
14.48,855.2889168,-0.16276320000000002,-0.37947600000000004,0.30662880000000003,0.0,0.0,0.0,0.0
14.5,855.7750728000001,0.0542544,-0.4879848,0.15331440000000002,0.0,0.0,0.0,0.0
14.52,856.2191664000001,0.0,-0.3252216,0.23012400000000002,0.0,0.0,0.0,0.0
14.540000000000001,856.7342784,-0.1085088,-0.4337304,0.15331440000000002,0.0,0.0,0.0,0.0
14.56,857.2189104000001,-0.1085088,-0.2170176,0.15331440000000002,0.0,0.0,0.0,0.0
14.58,857.659956,-0.2170176,-0.2170176,0.15331440000000002,0.0,0.0,0.0,0.0
14.6,858.0833232,-0.16276320000000002,-0.37947600000000004,0.15331440000000002,0.0,0.0,0.0,0.0
14.620000000000001,858.5551536,-0.2170176,-0.3252216,0.23012400000000002,0.0,0.0,0.0,0.0
14.64,858.8818992,-0.16276320000000002,-0.16276320000000002,0.30662880000000003,0.0,0.0,0.0,0.0
14.66,859.3698840000001,-0.2170176,-0.2170176,0.23012400000000002,0.0,0.0,0.0,0.0
14.68,859.6893144000001,-0.2170176,-0.3252216,0.15331440000000002,0.0,0.0,0.0,0.0
14.7,860.1209112,-0.2170176,-0.1085088,0.23012400000000002,0.0,0.0,0.0,0.0
14.72,860.6055432,-0.2170176,-0.1085088,0.23012400000000002,0.0,0.0,0.0,0.0
14.74,861.012756,-0.2709672,-0.16276320000000002,0.0768096,0.0,0.0,0.0,0.0
14.76,861.477576,-0.16276320000000002,-0.16276320000000002,0.23012400000000002,0.0,0.0,0.0,0.0
14.78,861.963732,-0.2709672,-0.2709672,0.15331440000000002,0.0,0.0,0.0,0.0
14.8,862.430076,-0.37947600000000004,-0.16276320000000002,0.15331440000000002,0.0,0.0,0.0,0.0
14.82,862.8793512000001,-0.1085088,-0.2170176,0.15331440000000002,0.0,0.0,0.0,0.0
14.84,863.3228352,-0.2170176,-0.1085088,0.0768096,0.0,0.0,0.0,0.0
14.86,863.6794512,-0.16276320000000002,-0.2709672,0.23012400000000002,0.0,0.0,0.0,0.0
14.88,864.1500624,-0.2709672,-0.2709672,0.23012400000000002,0.0,0.0,0.0,0.0
14.9,864.5981184000001,-0.3252216,-0.2170176,0.0768096,0.0,0.0,0.0,0.0
14.92,864.9227304,-0.2709672,-0.16276320000000002,0.15331440000000002,0.0,0.0,0.0,0.0
14.94,865.4393664,-0.16276320000000002,-0.2709672,0.23012400000000002,0.0,0.0,0.0,0.0
14.96,865.85298,-0.2170176,-0.1085088,0.0768096,0.0,0.0,0.0,0.0
14.98,866.2187400000001,-0.2170176,-0.1085088,0.15331440000000002,0.0,0.0,0.0,0.0
15.0,866.5232352,-0.2709672,-0.16276320000000002,0.23012400000000002,0.0,0.0,0.0,0.0
15.02,866.8655256000001,-0.3252216,-0.1085088,0.0768096,0.0,0.0,0.0,0.0
15.040000000000001,867.2660328000001,-0.3252216,-0.1085088,0.15331440000000002,0.0,0.0,0.0,0.0
15.06,867.6881808,-0.2709672,-0.0542544,0.15331440000000002,0.0,0.0,0.0,0.0
