time,baro_altitude,accl_x,accl_y,accl_z,gps_altitude,gyro_roll,gyro_pitch,gyro_yaw
0.0,0.0,-0.1085088,3.578352,9.3546168,0.0,0.0,0.0,0.0
0.019999999999999574,-0.0003048000000000003,-0.2709672,3.6326064,9.2778072,0.0,0.0,0.0,0.0
0.040000000000000036,0.1395984,-0.2170176,3.578352,9.2778072,0.0,0.0,0.0,0.0
0.05999999999999961,0.07924800000000001,-0.1085088,3.4698432,9.2778072,0.0,0.0,0.0,0.0
0.08000000000000007,0.04511040000000001,-0.1085088,3.4698432,9.3546168,0.0,0.0,0.0,0.0
0.09999999999999964,0.1146048,-0.1085088,3.578352,9.3546168,0.0,0.0,0.0,0.0
0.1200000000000001,0.18288000000000004,-0.2709672,3.7411152,9.2778072,0.0,0.0,0.0,0.0
0.13999999999999968,0.10759439999999999,0.0,3.7953696000000003,9.2013024,0.0,0.0,0.0,0.0
0.15999999999999925,0.2685288,-0.0542544,3.6326064,9.4311216,0.0,0.0,0.0,0.0
0.17999999999999972,0.070104,-0.16276320000000002,3.5240976,9.3546168,0.0,0.0,0.0,0.0
0.1999999999999993,0.0865632,-0.16276320000000002,3.6326064,9.2013024,0.0,0.0,0.0,0.0
0.21999999999999975,-0.04602479999999999,-0.2170176,3.7953696000000003,9.3546168,0.0,0.0,0.0,0.0
0.23999999999999932,-0.08961120000000002,-0.0542544,3.7411152,9.2778072,0.0,0.0,0.0,0.0
0.2599999999999998,-0.11430000000000001,-0.2709672,3.5240976,9.3546168,0.0,0.0,0.0,0.0
0.27999999999999936,-0.10149839999999999,-0.2170176,3.3616392,9.2778072,0.0,0.0,0.0,0.0
0.2999999999999998,-0.015239999999999997,-0.16276320000000002,3.5240976,9.2778072,0.0,0.0,0.0,0.0
0.3199999999999994,0.030784800000000005,-0.3252216,3.578352,9.2778072,0.0,0.0,0.0,0.0
0.33999999999999986,-0.0381,-0.1085088,3.578352,9.2013024,0.0,0.0,0.0,0.0
0.35999999999999943,-0.04876799999999999,-0.16276320000000002,3.5240976,9.3546168,0.0,0.0,0.0,0.0
0.3799999999999999,0.041148000000000004,-0.16276320000000002,3.4158936000000004,9.2778072,0.0,0.0,0.0,0.0
0.39999999999999947,0.04206240000000001,-0.16276320000000002,3.6326064,9.3546168,0.0,0.0,0.0,0.0
0.41999999999999993,0.031089600000000005,-0.0542544,3.7411152,9.2778072,0.0,0.0,0.0,0.0
0.4399999999999995,0.028956000000000003,-0.1085088,3.6868608000000003,9.2778072,0.0,0.0,0.0,0.0
0.45999999999999996,-0.029870399999999995,-0.3252216,3.578352,9.3546168,0.0,0.0,0.0,0.0
0.47999999999999954,-0.09601199999999999,-0.16276320000000002,3.6326064,9.3546168,0.0,0.0,0.0,0.0
0.5,-0.20330160000000003,-0.16276320000000002,3.7411152,9.2778072,0.0,0.0,0.0,0.0
0.5199999999999996,0.034747200000000006,-0.16276320000000002,3.6326064,9.2778072,0.0,0.0,0.0,0.0
0.54,-0.003048000000000003,-0.3252216,3.6868608000000003,9.2778072,0.0,0.0,0.0,0.0
0.5599999999999996,0.0554736,-0.2170176,3.4698432,9.3546168,0.0,0.0,0.0,0.0
0.5800000000000001,0.1027176,-0.2709672,3.4158936000000004,9.2778072,0.0,0.0,0.0,0.0
0.5999999999999996,0.1481328,-0.16276320000000002,3.5240976,9.3546168,0.0,0.0,0.0,0.0
0.6200000000000001,-0.008839199999999992,-0.16276320000000002,3.5240976,9.2778072,0.0,0.0,0.0,0.0
0.6399999999999997,-0.149352,-0.16276320000000002,3.4158936000000004,9.2778072,0.0,0.0,0.0,0.0
0.6599999999999997,-0.019812000000000003,-0.16276320000000002,3.5240976,9.4311216,0.0,0.0,0.0,0.0
0.6799999999999997,0.015240000000000005,-0.16276320000000002,3.6326064,9.3546168,0.0,0.0,0.0,0.0
0.6999999999999997,0.135636,-0.16276320000000002,3.7411152,9.2778072,0.0,0.0,0.0,0.0
0.7199999999999998,-0.08839200000000001,-0.2170176,3.6868608000000003,9.2778072,0.0,0.0,0.0,0.0
0.7399999999999998,-0.16184880000000001,-0.2170176,3.578352,9.2013024,0.0,0.0,0.0,0.0
0.7599999999999998,-0.1801368,-0.16276320000000002,3.6326064,9.2013024,0.0,0.0,0.0,0.0
0.7799999999999998,-0.08016240000000001,-0.1085088,3.6868608000000003,9.2778072,0.0,0.0,0.0,0.0
0.7999999999999998,-0.1441704,-0.16276320000000002,3.7411152,9.2013024,0.0,0.0,0.0,0.0
0.8199999999999998,-0.08778240000000001,-0.2709672,3.5240976,9.4311216,0.0,0.0,0.0,0.0
0.8399999999999999,-0.033527999999999995,-0.1085088,3.3616392,9.3546168,0.0,0.0,0.0,0.0
0.8599999999999999,-0.0012192000000000012,-0.0542544,3.4158936000000004,9.2778072,0.0,0.0,0.0,0.0
0.8799999999999999,0.10424160000000002,-0.0542544,3.5240976,9.2778072,0.0,0.0,0.0,0.0
0.8999999999999995,0.1335024,-0.2170176,3.4698432,9.2778072,0.0,0.0,0.0,0.0
0.9199999999999995,0.1609344,-0.37947600000000004,3.5240976,9.2778072,0.0,0.0,0.0,0.0
0.9399999999999995,0.04236720000000001,-0.2709672,3.6326064,9.2013024,0.0,0.0,0.0,0.0
0.9599999999999995,0.0100584,-0.16276320000000002,3.6326064,9.2778072,0.0,0.0,0.0,0.0
0.9799999999999995,0.1527048,-0.2170176,3.6868608000000003,9.2778072,0.0,0.0,0.0,0.0
0.9999999999999996,0.012801600000000003,-0.2170176,3.6868608000000003,9.2013024,0.0,0.0,0.0,0.0
1.0199999999999996,-0.0185928,-0.2709672,3.6326064,9.3546168,0.0,0.0,0.0,0.0
1.0399999999999996,-0.006096000000000006,-0.0542544,3.6326064,9.2778072,0.0,0.0,0.0,0.0
1.0599999999999996,0.1865376,-0.0542544,3.7411152,9.3546168,0.0,0.0,0.0,0.0
1.0799999999999996,0.054864,-0.16276320000000002,3.7411152,9.3546168,0.0,0.0,0.0,0.0
1.0999999999999996,-0.1033272,-0.0542544,3.6326064,9.3546168,0.0,0.0,0.0,0.0
1.1199999999999997,-0.12679680000000002,-0.1085088,3.4698432,9.2778072,0.0,0.0,0.0,0.0
1.1399999999999997,-0.1411224,-0.0542544,3.4158936000000004,9.4311216,0.0,0.0,0.0,0.0
1.1599999999999997,-0.06096000000000001,-0.2170176,3.4698432,9.2778072,0.0,0.0,0.0,0.0
1.1799999999999997,-0.08077200000000001,-0.3252216,3.6868608000000003,9.2013024,0.0,0.0,0.0,0.0
1.1999999999999997,-0.07741920000000001,-0.16276320000000002,3.6326064,9.3546168,0.0,0.0,0.0,0.0
1.2199999999999998,0.1298448,0.0,3.4698432,9.3546168,0.0,0.0,0.0,0.0
1.2399999999999998,0.32735519999999996,-0.16276320000000002,3.6326064,9.2778072,0.0,0.0,0.0,0.0
1.2599999999999998,0.32552640000000005,-0.2170176,3.6868608000000003,9.2778072,0.0,0.0,0.0,0.0
1.2799999999999998,0.26182320000000003,-0.2170176,3.7953696000000003,9.2778072,0.0,0.0,0.0,0.0
1.2999999999999998,0.20848319999999998,-0.1085088,3.7953696000000003,9.2778072,0.0,0.0,0.0,0.0
1.3199999999999998,0.07528560000000001,-0.0542544,3.5240976,9.3546168,0.0,0.0,0.0,0.0
1.3399999999999999,-0.04907279999999999,-0.0542544,3.6326064,9.3546168,0.0,0.0,0.0,0.0
1.3599999999999999,-0.1316736,-0.2170176,3.6868608000000003,9.2778072,0.0,0.0,0.0,0.0
1.38,-0.2212848,-0.1085088,3.6868608000000003,9.2013024,0.0,0.0,0.0,0.0
1.3999999999999995,-0.22341840000000002,-0.0542544,3.5240976,9.2778072,0.0,0.0,0.0,0.0
1.4199999999999995,-0.0371856,-0.2709672,3.5240976,9.3546168,0.0,0.0,0.0,0.0
1.4399999999999995,-0.1365504,-0.3252216,3.4698432,9.4311216,0.0,0.0,0.0,0.0
1.4599999999999995,-0.019507200000000002,-0.2170176,3.578352,9.3546168,0.0,0.0,0.0,0.0
1.4799999999999995,-0.09448799999999999,0.0,3.6868608000000003,9.2013024,0.0,0.0,0.0,0.0
1.4999999999999996,-0.12100560000000002,-0.1085088,3.578352,9.3546168,0.0,0.0,0.0,0.0
1.5199999999999996,-0.09296399999999999,-0.2709672,3.4158936000000004,9.3546168,0.0,0.0,0.0,0.0
1.5399999999999996,-0.23926799999999998,-0.2709672,3.6326064,9.4311216,0.0,0.0,0.0,0.0
1.5599999999999996,-0.26151840000000004,0.1085088,3.6868608000000003,9.2013024,0.0,0.0,0.0,0.0
1.5799999999999996,-0.22098,0.0542544,3.8496240000000004,9.4311216,0.0,0.0,0.0,0.0
1.5999999999999996,-0.045110399999999995,-0.0542544,3.7411152,9.2778072,0.0,0.0,0.0,0.0
1.6199999999999997,-0.012801599999999995,-0.2170176,3.578352,9.2778072,0.0,0.0,0.0,0.0
1.6399999999999997,-0.023774400000000005,-0.16276320000000002,3.6326064,9.2778072,0.0,0.0,0.0,0.0
1.6599999999999997,-0.1490472,0.0,3.7953696000000003,9.2013024,0.0,0.0,0.0,0.0
1.6799999999999997,-0.06492239999999999,-0.1085088,3.6868608000000003,9.2778072,0.0,0.0,0.0,0.0
1.6999999999999997,-0.18989040000000001,-0.37947600000000004,3.5240976,9.3546168,0.0,0.0,0.0,0.0
1.7199999999999998,-0.1944624,-0.2709672,3.5240976,9.2778072,0.0,0.0,0.0,0.0
1.7399999999999998,-0.17068799999999998,-0.1085088,3.4698432,9.3546168,0.0,0.0,0.0,0.0
1.7599999999999998,-0.0984504,-0.16276320000000002,3.6326064,9.2778072,0.0,0.0,0.0,0.0
1.7799999999999998,0.034442400000000005,-0.2709672,3.6326064,9.2778072,0.0,0.0,0.0,0.0
1.7999999999999998,0.1511808,-0.3252216,3.4698432,9.3546168,0.0,0.0,0.0,0.0
1.8199999999999998,0.011582400000000003,-0.0542544,3.4158936000000004,9.3546168,0.0,0.0,0.0,0.0
1.8399999999999999,0.10363200000000002,-0.1085088,3.6868608000000003,9.2778072,0.0,0.0,0.0,0.0
1.8599999999999999,0.0539496,-0.2170176,3.6868608000000003,9.2778072,0.0,0.0,0.0,0.0
1.88,0.0286512,-0.2170176,3.6868608000000003,9.2778072,0.0,0.0,0.0,0.0
1.8999999999999995,0.003048000000000003,-0.1085088,3.578352,9.2778072,0.0,0.0,0.0,0.0
1.9199999999999995,-0.0527304,0.0,3.578352,9.4311216,0.0,0.0,0.0,0.0
1.9399999999999995,-0.12435840000000002,-0.16276320000000002,3.7411152,9.2778072,0.0,0.0,0.0,0.0
1.9599999999999995,0.006096000000000006,-0.2709672,3.6326064,9.2778072,0.0,0.0,0.0,0.0
1.9799999999999995,0.059436,-0.37947600000000004,3.5240976,9.3546168,0.0,0.0,0.0,0.0
1.9999999999999996,-0.0067055999999999895,-0.1085088,3.4698432,9.2013024,0.0,0.0,0.0,0.0
2.0199999999999996,0.041757600000000006,-0.1085088,3.3616392,9.3546168,0.0,0.0,0.0,0.0
2.0399999999999996,-0.073152,-0.37947600000000004,3.6326064,9.2778072,0.0,0.0,0.0,0.0
2.0599999999999996,0.010668000000000002,-0.2709672,3.6326064,9.2778072,0.0,0.0,0.0,0.0
2.0799999999999996,-0.0402336,-0.1085088,3.578352,9.2778072,0.0,0.0,0.0,0.0
2.0999999999999996,-0.019507200000000002,-0.0542544,3.6326064,9.2013024,0.0,0.0,0.0,0.0
2.1199999999999997,-0.049377599999999994,-0.2170176,3.6868608000000003,9.3546168,0.0,0.0,0.0,0.0
2.1399999999999997,0.1673352,-0.2709672,3.7411152,9.2778072,0.0,0.0,0.0,0.0
2.1599999999999997,0.2770632,-0.0542544,3.7411152,9.1244928,0.0,0.0,0.0,0.0
2.1799999999999997,0.15880080000000002,0.0542544,3.6326064,9.2778072,0.0,0.0,0.0,0.0
2.1999999999999997,0.050292,-0.16276320000000002,3.6326064,9.2013024,0.0,0.0,0.0,0.0
2.2199999999999998,0.08961120000000002,-0.16276320000000002,3.6326064,9.2778072,0.0,0.0,0.0,0.0
2.2399999999999998,-0.013106399999999995,-0.16276320000000002,3.6326064,9.3546168,0.0,0.0,0.0,0.0
2.26,0.0926592,-0.0542544,3.5240976,9.2778072,0.0,0.0,0.0,0.0
2.28,0.1563624,-0.2170176,3.578352,9.3546168,0.0,0.0,0.0,0.0
2.3,0.0015240000000000015,-0.3252216,3.578352,9.3546168,0.0,0.0,0.0,0.0
2.32,0.08961120000000002,-0.2170176,3.578352,9.2778072,0.0,0.0,0.0,0.0
2.34,0.0667512,-0.16276320000000002,3.4158936000000004,9.2778072,0.0,0.0,0.0,0.0
2.36,0.08564880000000001,-0.2170176,3.578352,9.3546168,0.0,0.0,0.0,0.0
2.38,-0.1822704,-0.2709672,3.7411152,9.2778072,0.0,0.0,0.0,0.0
2.3999999999999995,-0.16184880000000001,-0.2709672,3.7411152,9.2778072,0.0,0.0,0.0,0.0
2.4199999999999995,-0.141732,-0.0542544,3.6326064,9.3546168,0.0,0.0,0.0,0.0
2.4399999999999995,-0.13807439999999999,-0.0542544,3.6326064,9.2778072,0.0,0.0,0.0,0.0
2.4599999999999995,-0.12801600000000002,-0.16276320000000002,3.6326064,9.2013024,0.0,0.0,0.0,0.0
2.4799999999999995,-0.09936479999999999,-0.16276320000000002,3.7411152,9.2778072,0.0,0.0,0.0,0.0
2.4999999999999996,-0.049987199999999996,0.0,3.6868608000000003,9.3546168,0.0,0.0,0.0,0.0
2.5199999999999996,0.03322320000000001,-0.0542544,3.5240976,9.2778072,0.0,0.0,0.0,0.0
2.5399999999999996,0.032004000000000005,-0.3252216,3.4698432,9.3546168,0.0,0.0,0.0,0.0
2.5599999999999996,0.06461760000000001,-0.16276320000000002,3.5240976,9.2013024,0.0,0.0,0.0,0.0
2.5799999999999996,0.0027432000000000025,-0.1085088,3.578352,9.3546168,0.0,0.0,0.0,0.0
2.5999999999999996,0.1072896,-0.1085088,3.578352,9.3546168,0.0,0.0,0.0,0.0
2.6199999999999997,0.10485120000000002,-0.3252216,3.4698432,9.3546168,0.0,0.0,0.0,0.0
2.6399999999999997,-0.0009144000000000009,-0.37947600000000004,3.6326064,9.3546168,0.0,0.0,0.0,0.0
2.6599999999999997,0.025908000000000007,-0.16276320000000002,3.5240976,9.2013024,0.0,0.0,0.0,0.0
2.6799999999999997,0.2279904,0.0542544,3.6326064,9.2778072,0.0,0.0,0.0,0.0
2.6999999999999997,0.0188976,-0.1085088,3.578352,9.2778072,0.0,0.0,0.0,0.0
2.7199999999999998,0.003962400000000004,-0.2709672,3.6326064,9.2013024,0.0,0.0,0.0,0.0
2.7399999999999998,-0.09174480000000002,-0.1085088,3.578352,9.2778072,0.0,0.0,0.0,0.0
2.76,-0.318516,-0.0542544,3.6326064,9.3546168,0.0,0.0,0.0,0.0
2.7799999999999994,-0.3166872,0.0,3.6868608000000003,9.2778072,0.0,0.0,0.0,0.0
2.8,-0.23134319999999997,-0.3252216,3.578352,9.2778072,0.0,0.0,0.0,0.0
2.8199999999999994,-0.12496800000000001,-0.2170176,3.4698432,9.2778072,0.0,0.0,0.0,0.0
2.84,0.0188976,-0.2170176,3.578352,9.3546168,0.0,0.0,0.0,0.0
2.8599999999999994,0.22494240000000001,-0.2170176,3.578352,9.3546168,0.0,0.0,0.0,0.0
2.88,0.1877568,-0.3252216,3.578352,9.2013024,0.0,0.0,0.0,0.0
2.8999999999999995,0.18989040000000001,-0.2709672,3.5240976,9.2778072,0.0,0.0,0.0,0.0
2.92,0.1490472,-0.16276320000000002,3.5240976,9.3546168,0.0,0.0,0.0,0.0
2.9399999999999995,-0.00792479999999999,0.0,3.578352,9.3546168,0.0,0.0,0.0,0.0
2.96,-0.0682752,0.0,3.6868608000000003,9.2013024,0.0,0.0,0.0,0.0
2.9799999999999995,-0.0164592,-0.16276320000000002,3.6326064,9.3546168,0.0,0.0,0.0,0.0
3.0,-0.11917680000000001,-0.2170176,3.578352,9.2778072,0.0,0.0,0.0,0.0
3.0199999999999996,-0.011277599999999994,0.0542544,3.6326064,9.3546168,0.0,0.0,0.0,0.0
3.0399999999999996,0.2569464,-0.1085088,3.578352,9.2013024,0.0,0.0,0.0,0.0
3.0599999999999996,0.31912560000000006,-0.2709672,3.6326064,9.2778072,0.0,0.0,0.0,0.0
3.0799999999999996,0.1685544,-0.2709672,3.6326064,9.2013024,0.0,0.0,0.0,0.0
3.0999999999999996,0.0935736,-0.2709672,3.5240976,9.3546168,0.0,0.0,0.0,0.0
3.1199999999999997,0.16824960000000003,-0.16276320000000002,3.5240976,9.2778072,0.0,0.0,0.0,0.0
3.1399999999999997,0.10759439999999999,-0.16276320000000002,3.5240976,9.3546168,0.0,0.0,0.0,0.0
3.1599999999999997,0.19781520000000002,-0.2170176,3.4698432,9.2778072,0.0,0.0,0.0,0.0
3.1799999999999997,0.1255776,-0.2170176,3.578352,9.3546168,0.0,0.0,0.0,0.0
3.1999999999999997,0.1298448,-0.0542544,3.5240976,9.2778072,0.0,0.0,0.0,0.0
3.2199999999999998,0.17861280000000004,-0.1085088,3.4698432,9.2778072,0.0,0.0,0.0,0.0
3.2399999999999998,0.1063752,-0.16276320000000002,3.6326064,9.2778072,0.0,0.0,0.0,0.0
3.26,0.27005280000000004,-0.2709672,3.5240976,9.2778072,0.0,0.0,0.0,0.0
3.2799999999999994,0.18166080000000004,-0.1085088,3.6868608000000003,9.2778072,0.0,0.0,0.0,0.0
3.3,0.1563624,-0.1085088,3.6868608000000003,9.2778072,0.0,0.0,0.0,0.0
3.3199999999999994,0.055168800000000004,-0.16276320000000002,3.7411152,9.2778072,0.0,0.0,0.0,0.0
3.34,-0.023469600000000004,-0.16276320000000002,3.6326064,9.2778072,0.0,0.0,0.0,0.0
3.3599999999999994,0.0499872,-0.1085088,3.578352,9.2778072,0.0,0.0,0.0,0.0
3.38,0.2048256,-0.2170176,3.4698432,9.2778072,0.0,0.0,0.0,0.0
3.3999999999999995,0.3282696,-0.2170176,3.578352,9.2778072,0.0,0.0,0.0,0.0
3.42,0.1776984,-0.2170176,3.6868608000000003,9.2778072,0.0,0.0,0.0,0.0
3.4399999999999995,0.19385280000000002,-0.1085088,3.578352,9.3546168,0.0,0.0,0.0,0.0
3.46,0.12527280000000002,-0.0542544,3.4158936000000004,9.2778072,0.0,0.0,0.0,0.0
3.4799999999999995,-0.019812000000000003,-0.2170176,3.4698432,9.3546168,0.0,0.0,0.0,0.0
3.5,0.178308,-0.2709672,3.5240976,9.3546168,0.0,0.0,0.0,0.0
3.5199999999999996,0.096012,-0.0542544,3.6326064,9.2013024,0.0,0.0,0.0,0.0
3.5399999999999996,0.11582400000000001,0.0,3.578352,9.2013024,0.0,0.0,0.0,0.0
3.5599999999999996,0.2593848,-3.1446216000000002,12.361773600000001,15.105278400000001,0.0,0.0,0.0,0.0
3.5799999999999996,0.1450848,0.0542544,3.198876,9.2013024,0.0,0.0,0.0,0.0
3.5999999999999996,0.12252960000000002,-0.3252216,3.2531304000000003,8.971178400000001,0.0,0.0,0.0,0.0
3.6199999999999997,0.10515600000000001,-0.2709672,3.957828,9.4311216,0.0,0.0,0.0,0.0
3.6399999999999997,0.0432816,0.0542544,3.6326064,9.5079312,0.0,0.0,0.0,0.0
3.6599999999999997,0.009753600000000001,-0.37947600000000004,3.3073848000000003,9.2013024,0.0,0.0,0.0,0.0
3.6799999999999997,-0.027736799999999992,-0.2170176,3.7953696000000003,9.5079312,0.0,0.0,0.0,0.0
3.6999999999999997,0.0295656,0.0542544,3.6326064,9.1244928,0.0,0.0,0.0,0.0
3.7199999999999998,0.022555200000000004,-0.1085088,3.578352,9.3546168,0.0,0.0,0.0,0.0
3.7399999999999998,-0.047853599999999996,-0.0542544,3.7411152,9.2778072,0.0,0.0,0.0,0.0
3.76,0.077724,-0.37947600000000004,3.3073848000000003,9.3546168,0.0,0.0,0.0,0.0
3.78,0.13776960000000002,-0.16276320000000002,3.5240976,9.3546168,0.0,0.0,0.0,0.0
3.8,0.16154400000000002,-0.0542544,3.5240976,9.1244928,0.0,0.0,0.0,0.0
3.82,0.1475232,-0.16276320000000002,3.7411152,9.2778072,0.0,0.0,0.0,0.0
3.84,0.0999744,-0.2170176,3.6868608000000003,9.4311216,0.0,0.0,0.0,0.0
3.8599999999999994,0.04724400000000001,-0.16276320000000002,3.6326064,9.4311216,0.0,0.0,0.0,0.0
3.88,0.05273040000000001,0.0,3.4698432,9.3546168,0.0,0.0,0.0,0.0
3.8999999999999995,0.024688800000000007,-0.2709672,3.7411152,9.5079312,0.0,0.0,0.0,0.0
3.92,0.18562320000000002,-0.2709672,3.7411152,9.1244928,0.0,0.0,0.0,0.0
3.9399999999999995,0.12954000000000002,0.0,3.578352,9.1244928,0.0,0.0,0.0,0.0
3.9599999999999995,0.1091184,-0.16276320000000002,3.6326064,9.3546168,0.0,0.0,0.0,0.0
3.9799999999999995,0.13502640000000002,-0.16276320000000002,3.4158936000000004,9.4311216,0.0,0.0,0.0,0.0
3.9999999999999996,0.0100584,-0.2170176,3.578352,9.2778072,0.0,0.0,0.0,0.0
4.02,0.010363200000000001,-0.16276320000000002,3.6326064,9.2778072,0.0,0.0,0.0,0.0
4.04,-0.0536448,-0.0542544,3.6326064,9.2778072,0.0,0.0,0.0,0.0
4.06,-0.09875519999999999,-0.1085088,3.4698432,9.3546168,0.0,0.0,0.0,0.0
4.08,-0.0762,-0.2170176,3.578352,9.2778072,0.0,0.0,0.0,0.0
4.1,-0.0027432000000000025,-0.2170176,3.6868608000000003,9.2778072,0.0,0.0,0.0,0.0
4.119999999999999,0.031089600000000005,-0.0542544,3.6326064,9.2778072,0.0,0.0,0.0,0.0
4.14,-0.0161544,-0.16276320000000002,3.6326064,9.2013024,0.0,0.0,0.0,0.0
4.16,0.16611599999999999,-0.2709672,3.6326064,9.2778072,0.0,0.0,0.0,0.0
4.18,0.24475440000000004,-0.1085088,3.4698432,9.3546168,0.0,0.0,0.0,0.0
4.199999999999999,0.371856,-0.1085088,3.578352,9.3546168,0.0,0.0,0.0,0.0
4.22,0.41513760000000005,-0.16276320000000002,3.7411152,9.2013024,0.0,0.0,0.0,0.0
4.239999999999999,0.1801368,-0.1085088,3.578352,9.3546168,0.0,0.0,0.0,0.0
4.26,0.268224,-0.2170176,3.3616392,9.3546168,0.0,0.0,0.0,0.0
4.279999999999999,0.19964400000000002,-0.16276320000000002,3.5240976,9.2013024,0.0,0.0,0.0,0.0
4.3,0.13380720000000002,-0.2170176,3.578352,9.2778072,0.0,0.0,0.0,0.0
4.319999999999999,0.12070080000000001,-0.16276320000000002,3.4158936000000004,9.2778072,0.0,0.0,0.0,0.0
4.34,0.0908304,-0.37947600000000004,3.7411152,9.2013024,0.0,0.0,0.0,0.0
4.359999999999999,-0.1444752,-0.1085088,3.7953696000000003,9.4311216,0.0,0.0,0.0,0.0
4.38,-0.1932432,0.0542544,3.4158936000000004,9.1244928,0.0,0.0,0.0,0.0
4.3999999999999995,-0.1740408,-0.2170176,3.4698432,9.2778072,0.0,0.0,0.0,0.0
4.42,-0.22341840000000002,-0.16276320000000002,3.6326064,9.2013024,0.0,0.0,0.0,0.0
4.4399999999999995,-0.2721864,-0.4337304,3.578352,9.1244928,0.0,0.0,0.0,0.0
4.46,-0.4696968,0.0,3.2531304000000003,9.3546168,0.0,0.0,0.0,0.0
4.4799999999999995,-0.44897040000000005,-0.2170176,3.4698432,9.4311216,0.0,0.0,0.0,0.0
4.5,-0.3499104,0.3252216,3.6868608000000003,9.5079312,0.0,0.0,0.0,0.0
4.52,-0.352044,0.16276320000000002,4.3915584,9.2778072,0.0,0.0,0.0,0.0
4.54,-0.2901696,0.4337304,3.9035736000000005,9.2013024,0.0,0.0,0.0,0.0
4.56,-0.3081528,0.16276320000000002,2.9818584,8.971178400000001,0.0,0.0,0.0,0.0
4.58,-0.3904488,0.0,3.1446216000000002,8.8943688,0.0,0.0,0.0,0.0
4.6,-0.24353519999999998,0.16276320000000002,3.957828,9.6612456,0.0,0.0,0.0,0.0
4.62,-0.2810256,-0.1085088,3.7953696000000003,9.1244928,0.0,0.0,0.0,0.0
4.64,-0.2517648,-0.650748,3.4698432,9.1244928,0.0,0.0,0.0,0.0
4.659999999999999,-0.2828544,-0.4879848,3.957828,8.58774,0.0,0.0,0.0,0.0
4.68,-0.15483840000000001,-0.16276320000000002,3.4158936000000004,9.737750400000001,0.0,0.0,0.0,0.0
4.699999999999999,-0.1392936,10.626852000000001,2.3856696,10.274503200000002,0.0,0.0,0.0,0.0
4.72,0.22341840000000002,-2.4941784,14.096695200000001,34.6575888,0.0,0.0,0.0,0.0
4.739999999999999,0.3532632,-9.813645600000001,30.199584,61.417809600000005,0.0,0.0,0.0,0.0
4.76,0.4974336000000001,-18.1087776,64.3030464,105.736644,0.0,0.0,0.0,0.0
4.779999999999999,0.6565392,-48.959109600000005,173.1190848,156.9561504,0.0,0.0,0.0,0.0
4.8,0.8302752000000001,-23.801832,-117.9246816,70.7721216,0.0,0.0,0.0,0.0
4.819999999999999,1.0183368000000002,-183.79988640000002,38.2780032,109.11017040000002,0.0,0.0,0.0,0.0
4.84,1.2213336,-123.45497280000001,23.368101600000003,-24.6897144,0.0,0.0,0.0,0.0
4.859999999999999,-0.9259824000000001,-115.3222992,21.090940800000002,15.1817832,0.0,0.0,0.0,0.0
4.88,-2.2180296,-151.59441360000002,13.988186400000002,45.92909280000001,0.0,0.0,0.0,0.0
4.8999999999999995,-3.0833568000000002,-140.7508488,42.8323248,55.437024,0.0,0.0,0.0,0.0
4.92,-2.8888944,-134.7325728,-5.367528,49.7628672,0.0,0.0,0.0,0.0
4.9399999999999995,-1.6221456,-121.6115424,-17.1870624,56.0502816,0.0,0.0,0.0,0.0
4.96,0.08534400000000002,-128.3890752,7.048500000000001,42.708576,0.0,0.0,0.0,0.0
4.9799999999999995,2.3710392000000002,-125.9491512,-10.138867200000002,39.1814304,0.0,0.0,0.0,0.0
5.0,4.5777912,-125.9491512,-4.3915584,45.6989688,0.0,0.0,0.0,0.0
5.02,6.851904,-128.87675520000002,-6.9942456,47.3092272,0.0,0.0,0.0,0.0
5.04,9.269272800000001,-121.82856,-4.608576,46.542350400000004,0.0,0.0,0.0,0.0
5.06,11.5342416,-123.7262448,-2.4941784,47.079103200000006,0.0,0.0,0.0,0.0
5.08,13.427659199999999,-123.78049920000001,-2.0061936,47.76917040000001,0.0,0.0,0.0,0.0
5.1,15.475610399999999,-124.64796,-2.0061936,48.6893616,0.0,0.0,0.0,0.0
5.119999999999999,17.5110648,-123.9429576,-0.8674608,48.2294184,0.0,0.0,0.0,0.0
5.14,19.3221864,-124.32243360000001,-0.37947600000000004,48.2294184,0.0,0.0,0.0,0.0
5.16,21.094293600000004,-124.1057208,-1.6806672000000002,48.3827328,0.0,0.0,0.0,0.0
5.18,22.9471728,-127.46736,-2.0061936,48.9959904,0.0,0.0,0.0,0.0
5.199999999999999,24.7503696,-122.7502752,-2.3856696,49.6095528,0.0,0.0,0.0,0.0
5.22,26.820266400000005,-119.98512960000001,-4.1748456,49.456238400000004,0.0,0.0,0.0,0.0
5.239999999999999,28.601822400000003,-120.039384,-4.120591200000001,48.7661712,0.0,0.0,0.0,0.0
5.26,30.475123200000006,-121.12355760000001,-5.3132736,48.3827328,0.0,0.0,0.0,0.0
5.279999999999999,32.385000000000005,-123.1840056,-5.5302912,48.459542400000004,0.0,0.0,0.0,0.0
5.3,34.552432800000005,-121.557288,-4.8795432000000005,48.842676000000004,0.0,0.0,0.0,0.0
5.319999999999999,36.7122456,-120.68982720000001,-5.096560800000001,50.9896872,0.0,0.0,0.0,0.0
5.34,39.0329928,-117.1657296,-4.933797600000001,53.3665176,0.0,0.0,0.0,0.0
5.359999999999999,41.4909,-118.5211752,-5.421782400000001,55.5135288,0.0,0.0,0.0,0.0
5.38,44.2078872,-118.250208,-6.2349888,56.356910400000004,0.0,0.0,0.0,0.0
5.3999999999999995,47.0830656,-117.4366968,-6.8314824000000005,56.8936632,0.0,0.0,0.0,0.0
5.42,50.243841599999996,-115.5932664,-8.241182400000001,57.430416,0.0,0.0,0.0,0.0
5.4399999999999995,53.6420568,-117.978936,-8.024164800000001,57.5837304,0.0,0.0,0.0,0.0
5.46,57.1402464,-115.7017752,-10.5183432,56.663844000000005,0.0,0.0,0.0,0.0
5.4799999999999995,60.6219768,-115.8645384,-12.0908064,56.5870344,0.0,0.0,0.0,0.0
5.5,64.547496,-116.62349040000001,-13.608710400000001,54.74695680000001,0.0,0.0,0.0,0.0
5.52,68.3053752,-116.7862536,-13.8799824,54.900271200000006,0.0,0.0,0.0,0.0
5.54,72.00503760000001,-116.2982688,-13.174980000000001,54.440023200000006,0.0,0.0,0.0,0.0
5.56,75.5998488,-116.840508,-13.283488800000002,54.2867088,0.0,0.0,0.0,0.0
5.58,79.3053024,-116.3525232,-12.686995200000002,53.2132032,0.0,0.0,0.0,0.0
5.6,82.7803272,-115.051332,-13.1207256,50.9896872,0.0,0.0,0.0,0.0
5.619999999999999,86.1270312,-115.21379040000001,-10.138867200000002,50.3764296,0.0,0.0,0.0,0.0
5.64,89.541096,-115.3222992,-6.018276,51.21981120000001,0.0,0.0,0.0,0.0
5.66,93.0121584,-113.37036,-4.3915584,52.523136,0.0,0.0,0.0,0.0
5.68,96.22566479999999,-113.0451384,-2.4399240000000004,53.1366984,0.0,0.0,0.0,0.0
5.699999999999999,99.65801760000001,-110.3885016,-3.6868608000000003,52.3698216,0.0,0.0,0.0,0.0
5.72,103.1141448,-110.822232,-4.7713392,53.98008,0.0,0.0,0.0,0.0
5.74,106.6379376,-111.58118400000001,-8.3496912,51.756564000000004,0.0,0.0,0.0,0.0
5.76,110.3494872,-109.4667864,-7.8617064,49.5327432,0.0,0.0,0.0,0.0
5.779999999999999,114.2871984,-109.03305600000002,-6.2349888,45.62246400000001,0.0,0.0,0.0,0.0
5.8,118.40870400000001,-107.29813440000001,-6.5605152,46.695969600000005,0.0,0.0,0.0,0.0
5.819999999999999,122.5637376,-106.37641920000002,-4.988052,48.842676000000004,0.0,0.0,0.0,0.0
5.84,126.98364240000001,-105.9966384,-2.9818584,47.9227896,0.0,0.0,0.0,0.0
5.859999999999999,131.3307,-105.72567120000001,-2.3856696,46.9257888,0.0,0.0,0.0,0.0
5.88,135.9139776,-106.4303688,-1.3554456000000001,45.085711200000006,0.0,0.0,0.0,0.0
5.8999999999999995,140.36680080000002,-107.24388000000002,-0.1085088,43.32213840000001,0.0,0.0,0.0,0.0
5.92,144.7208688,-106.37641920000002,-0.2170176,42.478756800000006,0.0,0.0,0.0,0.0
5.9399999999999995,149.0539056,-104.91246480000001,-1.789176,41.788689600000005,0.0,0.0,0.0,0.0
5.96,153.3247632,-105.94268880000001,-2.1686520000000002,40.71518400000001,0.0,0.0,0.0,0.0
5.9799999999999995,157.9936896,-105.34619520000001,-1.8976848000000002,39.8718024,0.0,0.0,0.0,0.0
6.0,162.8083104,-102.635304,-3.4158936000000004,39.3350496,0.0,0.0,0.0,0.0
6.02,167.52082320000002,-101.225604,-2.8736544000000004,39.564868800000006,0.0,0.0,0.0,0.0
6.039999999999999,172.1147688,-99.2736648,-4.608576,38.7982968,0.0,0.0,0.0,0.0
6.06,176.94615360000003,-97.97247360000001,-6.2349888,40.0251168,0.0,0.0,0.0,0.0
6.08,181.50779040000003,-95.96628000000001,-4.2291,40.331745600000005,0.0,0.0,0.0,0.0
6.1,186.04931040000002,-95.09881920000001,-6.1807343999999995,40.71518400000001,0.0,0.0,0.0,0.0
6.119999999999999,190.628016,-93.20113440000002,-8.6206584,41.788689600000005,0.0,0.0,0.0,0.0
6.14,195.2244,-94.12284960000001,-8.241182400000001,40.331745600000005,0.0,0.0,0.0,0.0
6.16,199.7619576,-90.05651280000001,-8.4039456,41.635070400000004,0.0,0.0,0.0,0.0
6.18,204.6491208,-87.45413040000001,-7.3194672,43.2453288,0.0,0.0,0.0,0.0
6.199999999999999,209.7539112,-88.9180848,-9.5423736,42.6320712,0.0,0.0,0.0,0.0
6.22,214.79469360000002,-86.5324152,-3.2531304000000003,43.168824,0.0,0.0,0.0,0.0
6.24,219.990924,-85.50219120000001,-4.933797600000001,43.0920144,0.0,0.0,0.0,0.0
6.26,225.4486728,-84.7432392,-6.1267848,39.1814304,0.0,0.0,0.0,0.0
6.279999999999999,230.754936,-84.9060024,-6.7229735999999995,36.1913424,0.0,0.0,0.0,0.0
6.3,236.09076480000002,-83.9842872,-6.018276,35.807904,0.0,0.0,0.0,0.0
6.319999999999999,241.2434088,-81.4358544,-8.241182400000001,36.574476000000004,0.0,0.0,0.0,0.0
6.34,246.4554888,-80.1346632,-9.3256608,35.9612184,0.0,0.0,0.0,0.0
6.359999999999999,251.4953568,-78.2912328,-10.3013256,33.50757840000001,0.0,0.0,0.0,0.0
6.38,256.5382728,-76.55631120000001,-10.3013256,31.667196,0.0,0.0,0.0,0.0
6.3999999999999995,261.68969760000004,-75.25512,-8.3496912,32.9708256,0.0,0.0,0.0,0.0
6.42,266.7896112,-72.48997440000001,-6.885736800000001,34.0443312,0.0,0.0,0.0,0.0
6.4399999999999995,271.9766976,-69.56206560000001,-5.5845456,35.0410272,0.0,0.0,0.0,0.0
6.46,277.2457752,-71.1345288,-6.506260800000001,32.510577600000005,0.0,0.0,0.0,0.0
6.4799999999999995,282.4700472,-68.85736800000001,-9.0001344,28.8304224,0.0,0.0,0.0,0.0
6.5,287.5644744,-65.1705072,-5.5302912,29.213556,0.0,0.0,0.0,0.0
6.52,292.8378192,-63.001550400000006,-4.012082400000001,29.3668704,0.0,0.0,0.0,0.0
6.539999999999999,298.1358528,-61.537900799999996,-4.7170848,27.526792800000003,0.0,0.0,0.0,0.0
6.56,303.3250728,-63.055804800000004,-7.427976000000001,22.08276,0.0,0.0,0.0,0.0
6.58,308.4457128,-59.69447040000001,-6.4520064,22.312884,0.0,0.0,0.0,0.0
6.6,313.5989664,-57.7425312,-5.5845456,21.0092544,0.0,0.0,0.0,0.0
6.619999999999999,318.9582648,-55.57387920000001,-3.4158936000000004,21.469502400000003,0.0,0.0,0.0,0.0
6.64,324.13651200000004,-51.72425520000001,-7.2652128,25.993344,0.0,0.0,0.0,0.0
6.66,329.65461120000003,-49.5556032,-9.7593912,21.469502400000003,0.0,0.0,0.0,0.0
6.68,335.0096424,-47.2784424,-11.928043200000001,20.932749600000005,0.0,0.0,0.0,0.0
6.699999999999999,340.38448560000006,-46.573440000000005,-6.343497600000001,18.3254904,0.0,0.0,0.0,0.0
6.72,345.7870656,-44.675755200000005,-7.3737216000000005,17.6354232,0.0,0.0,0.0,0.0
6.74,351.12868560000004,-43.428818400000004,-4.8252888,17.405604,0.0,0.0,0.0,0.0
6.76,356.67086400000005,-41.2601664,-3.0903671999999998,15.2585928,0.0,0.0,0.0,0.0
6.779999999999999,362.02193280000006,-41.0974032,-2.7108912000000003,13.418210400000001,0.0,0.0,0.0,0.0
6.8,367.43396160000003,-39.145464000000004,-4.554321600000001,11.7314472,0.0,0.0,0.0,0.0
6.82,372.83044559999996,-34.8624144,-2.2229064000000003,17.942356800000002,0.0,0.0,0.0,0.0
6.84,378.0763584,-32.693762400000004,-4.3915584,15.0284688,0.0,0.0,0.0,0.0
6.859999999999999,383.360676,-30.579060000000002,-9.217152,14.951964,0.0,0.0,0.0,0.0
6.88,388.5306936,-30.416601600000003,-8.186928,12.345009600000001,0.0,0.0,0.0,0.0
6.8999999999999995,393.4794264,-27.8139144,-2.9818584,12.038076,0.0,0.0,0.0,0.0
6.92,398.56318560000005,-29.603090400000003,-0.5422392,10.5814368,0.0,0.0,0.0,0.0
6.9399999999999995,403.4101152,-22.012656,-5.3132736,15.2585928,0.0,0.0,0.0,0.0
6.959999999999999,408.4932648,-23.964595199999998,-1.6264128000000002,9.1244928,0.0,0.0,0.0,0.0
6.9799999999999995,413.5370952,-23.04288,-6.668719200000001,6.5175384,0.0,0.0,0.0,0.0
7.0,418.5739152,-23.259592800000004,-2.7651456,2.9135831999999997,0.0,0.0,0.0,0.0
7.02,423.449496,-20.6572104,-8.94588,4.370527200000001,0.0,0.0,0.0,0.0
7.039999999999999,428.338488,-17.458334400000002,-5.5302912,6.594043200000001,0.0,0.0,0.0,0.0
7.06,433.18115040000004,-16.4281104,-5.801258400000001,10.811256,0.0,0.0,0.0,0.0
7.08,437.9375544,-13.446252000000001,-3.6868608000000003,11.8847616,0.0,0.0,0.0,0.0
7.1,442.80399120000004,-11.006328,-1.789176,12.804952800000002,0.0,0.0,0.0,0.0
7.119999999999999,447.6969456,-12.144756000000001,-0.1085088,11.1181896,0.0,0.0,0.0,0.0
7.14,452.70755280000003,-12.6327408,-3.957828,7.591044000000001,0.0,0.0,0.0,0.0
7.16,457.52004,-12.416028,-1.5724632,6.594043200000001,0.0,0.0,0.0,0.0
7.18,462.3148488,-12.6327408,0.0542544,2.3768304000000002,0.0,0.0,0.0,0.0
7.199999999999999,467.0310192,-11.5485672,0.9217152000000001,3.0672024,0.0,0.0,0.0,0.0
7.22,471.7551144,-13.012521600000001,0.7589520000000001,2.9903928,0.0,0.0,0.0,0.0
7.24,476.506032,-8.7834216,-3.3616392,5.137404,0.0,0.0,0.0,0.0
7.26,481.11796080000005,-7.753197600000001,-3.4158936000000004,4.2172128,0.0,0.0,0.0,0.0
7.279999999999999,485.6372304,-6.614769600000001,-5.421782400000001,4.1404032,0.0,0.0,0.0,0.0
7.3,490.07328960000007,-3.6868608000000003,-5.964021600000001,1.8400776,0.0,0.0,0.0,0.0
7.32,494.43680639999997,-0.8674608,-3.6868608000000003,-2.0702016,0.0,0.0,0.0,0.0
7.34,498.52051680000005,1.6806672000000002,0.4879848,-1.3036296,0.0,0.0,0.0,0.0
7.359999999999999,502.5249792,5.8555128,-0.5422392,-2.4536400000000005,0.0,0.0,0.0,0.0
7.38,506.598936,3.5240976,0.2709672,-1.3801344,0.0,0.0,0.0,0.0
7.3999999999999995,510.736596,3.2531304000000003,-0.2170176,-1.2268200000000002,0.0,0.0,0.0,0.0
7.42,514.9528944,2.4399240000000004,0.16276320000000002,-1.7635728,0.0,0.0,0.0,0.0
7.4399999999999995,519.06678,1.6264128000000002,-1.4097000000000002,-5.367223200000001,0.0,0.0,0.0,0.0
7.459999999999999,523.114524,-222.0781944,0.0,110.7204288,0.0,0.0,0.0,0.0
7.4799999999999995,526.9132464,7.3194672,4.0663368,-4.2937176,0.0,0.0,0.0,0.0
7.5,530.493732,-65.8752048,-156.2029896,96.91878000000001,0.0,0.0,0.0,0.0
7.52,533.9370576,-5.1508152,3.8496240000000004,-15.642031200000002,0.0,0.0,0.0,0.0
7.539999999999999,537.2203632,2.2771608000000003,0.9759696,-13.9549632,0.0,0.0,0.0,0.0
7.56,540.5173848,-1.1926824,-6.614769600000001,-17.7887376,0.0,0.0,0.0,0.0
7.58,543.621468,-3.4158936000000004,-5.1508152,-20.319187200000002,0.0,0.0,0.0,0.0
7.6,546.4091688000001,-1.1926824,-9.6508824,-20.319187200000002,0.0,0.0,0.0,0.0
7.619999999999999,549.1697424,3.198876,-6.5605152,-21.852636,0.0,0.0,0.0,0.0
7.64,551.823636,3.578352,-6.506260800000001,-21.852636,0.0,0.0,0.0,0.0
7.66,554.493684,3.0903671999999998,-7.8617064,-22.08276,0.0,0.0,0.0,0.0
7.68,556.8967272,-6.668719200000001,-8.729167200000001,-20.242377600000005,0.0,0.0,0.0,0.0
7.699999999999999,559.1519424,-5.1508152,-5.6930544,-20.932749600000005,0.0,0.0,0.0,0.0
7.72,561.3321768000001,-0.650748,-4.3376088,-21.469502400000003,0.0,0.0,0.0,0.0
7.74,563.4718728,-2.8736544000000004,-9.813645600000001,-21.315883200000002,0.0,0.0,0.0,0.0
7.76,565.7520816,-1.030224,-8.6206584,-20.85594,0.0,0.0,0.0,0.0
7.779999999999999,568.067952,0.5964936000000001,-6.9942456,-22.08276,0.0,0.0,0.0,0.0
7.8,570.3216432,-0.5422392,-4.3376088,-23.30958,0.0,0.0,0.0,0.0
7.82,572.7508992,1.4097000000000002,-6.7229735999999995,-23.30958,0.0,0.0,0.0,0.0
7.84,575.4026592,1.0844784,-6.2892432000000005,-21.9294456,0.0,0.0,0.0,0.0
7.859999999999999,578.0239392,-2.9818584,-6.777228,-21.622816800000003,0.0,0.0,0.0,0.0
7.88,580.6586304,-2.9279088,-6.1807343999999995,-22.312884,0.0,0.0,0.0,0.0
7.8999999999999995,583.202796,-3.0361128,-6.397752,-21.469502400000003,0.0,0.0,0.0,0.0
7.92,585.8380968,-0.7589520000000001,-6.7229735999999995,-21.699321599999998,0.0,0.0,0.0,0.0
7.9399999999999995,588.4538904000001,1.3011912,-6.614769600000001,-21.622816800000003,0.0,0.0,0.0,0.0
7.959999999999999,591.0078096,-3.3073848000000003,-7.210958400000001,-22.8496368,0.0,0.0,0.0,0.0
7.9799999999999995,593.5894656,-9.379915200000001,-7.210958400000001,-19.4758056,0.0,0.0,0.0,0.0
8.0,596.1165624,-4.0663368,-3.957828,-21.315883200000002,0.0,0.0,0.0,0.0
8.02,598.8149568,-3.578352,-7.4822304,-19.2456816,0.0,0.0,0.0,0.0
8.04,601.3816776,0.0542544,-5.476036800000001,-20.3959968,0.0,0.0,0.0,0.0
8.059999999999999,603.9791832,-1.0844784,-10.843564800000001,-22.312884,0.0,0.0,0.0,0.0
8.08,606.7193352,-3.2531304000000003,-12.795504,-21.1625688,0.0,0.0,0.0,0.0
8.1,609.7944624,-4.2833544,-12.0908064,-22.8496368,0.0,0.0,0.0,0.0
8.12,614.630724,-2.4941784,-12.5787912,-20.5493112,0.0,0.0,0.0,0.0
8.14,621.360708,-0.7046976,-7.3194672,-20.85594,0.0,0.0,0.0,0.0
8.16,629.2172328000001,-0.5964936000000001,-7.5364848,-23.539704000000004,0.0,0.0,0.0,0.0
8.18,637.701036,0.9217152000000001,-11.2230408,-21.776131200000002,0.0,0.0,0.0,0.0
8.2,646.1503968000001,-3.2531304000000003,-5.5302912,-18.2489856,0.0,0.0,0.0,0.0
8.219999999999999,654.5107560000001,-2.2229064000000003,-6.668719200000001,-22.389388800000003,0.0,0.0,0.0,0.0
8.24,662.2401792000001,-0.16276320000000002,-6.1267848,-21.469502400000003,0.0,0.0,0.0,0.0
8.26,669.4462608,-2.548128,-6.885736800000001,-20.85594,0.0,0.0,0.0,0.0
8.28,676.0412184,-5.801258400000001,-5.801258400000001,-21.852636,0.0,0.0,0.0,0.0
8.3,681.8345520000001,4.445812800000001,-15.506395200000002,-22.542703200000002,0.0,0.0,0.0,0.0
8.32,688.2685752000001,0.7046976,-16.970349600000002,-19.0923672,0.0,0.0,0.0,0.0
8.34,694.9854528000002,-6.7229735999999995,-14.747443200000001,-20.0125584,0.0,0.0,0.0,0.0
8.36,701.3704032000002,-4.6628304,-9.0001344,-20.242377600000005,0.0,0.0,0.0,0.0
8.379999999999999,707.2463376000001,4.120591200000001,-4.7713392,-22.236074400000003,0.0,0.0,0.0,0.0
8.399999999999999,712.1182608,5.7470040000000004,-0.8674608,-20.165872800000002,0.0,0.0,0.0,0.0
8.42,715.6484544000001,3.7411152,-6.1267848,-23.999647200000002,0.0,0.0,0.0,0.0
8.44,718.2270624000001,6.7229735999999995,-9.217152,-16.4086032,0.0,0.0,0.0,0.0
8.459999999999999,720.3893136000002,0.8132064000000001,-13.825728,-19.1691768,0.0,0.0,0.0,0.0
8.48,722.3543592000001,-6.2349888,-11.3315496,-17.942356800000002,0.0,0.0,0.0,0.0
8.5,724.1377440000001,-3.4158936000000004,-6.5605152,-19.0158624,0.0,0.0,0.0,0.0
8.52,725.3752320000001,-9.596628,-2.9818584,-16.5622224,0.0,0.0,0.0,0.0
8.54,726.4685496000001,-11.7110256,11.7110256,-19.3224912,0.0,0.0,0.0,0.0
8.559999999999999,726.4941528000002,-2.7651456,6.885736800000001,-6.2874144,0.0,0.0,0.0,0.0
8.58,726.0616416,-3.3073848000000003,3.7411152,-21.5460072,0.0,0.0,0.0,0.0
8.6,724.3047744000002,-1.7349216,0.2170176,-21.622816800000003,0.0,0.0,0.0,0.0
8.62,721.5310944,2.6023824,-15.2896824,-14.491716000000002,0.0,0.0,0.0,0.0
8.64,718.6495152000001,0.3252216,-12.686995200000002,-17.17548,0.0,0.0,0.0,0.0
8.66,715.6679616000001,-5.096560800000001,-12.144756000000001,-17.17548,0.0,0.0,0.0,0.0
8.68,713.2390104000001,-3.7411152,-14.58468,-14.108277600000001,0.0,0.0,0.0,0.0
8.7,712.6995144000001,-10.735360799999999,-20.494447200000003,-16.0254696,0.0,0.0,0.0,0.0
8.719999999999999,713.9815032000001,-5.205069600000001,-6.506260800000001,-17.3287944,0.0,0.0,0.0,0.0
8.739999999999998,715.9169832000001,-1.4097000000000002,-7.2652128,-16.945356,0.0,0.0,0.0,0.0
8.76,718.5702672000001,-4.7713392,-7.048500000000001,-17.7122328,0.0,0.0,0.0,0.0
8.78,720.9842832,-3.4698432,-7.915960800000001,-17.2522896,0.0,0.0,0.0,0.0
8.8,722.5326672000001,3.5240976,-5.5845456,-17.7122328,0.0,0.0,0.0,0.0
8.82,723.4650504000001,2.7651456,-12.0908064,-15.565221600000001,0.0,0.0,0.0,0.0
8.84,724.5918960000001,-1.6264128000000002,-12.2532648,-15.2585928,0.0,0.0,0.0,0.0
8.86,727.8224712000001,0.0542544,-15.018410400000002,-17.0221656,0.0,0.0,0.0,0.0
8.879999999999999,732.3706968000001,-3.3073848000000003,-16.645128,-13.9549632,0.0,0.0,0.0,0.0
8.899999999999999,737.6010648,-2.2229064000000003,-13.283488800000002,-14.8751544,0.0,0.0,0.0,0.0
8.92,742.8265560000001,-3.198876,-5.476036800000001,-15.4119072,0.0,0.0,0.0,0.0
8.94,747.9758472000001,-1.1926824,-4.988052,-16.0254696,0.0,0.0,0.0,0.0
8.96,752.3378400000001,0.3252216,-5.3132736,-16.3320984,0.0,0.0,0.0,0.0
8.98,756.2380608000001,1.4097000000000002,-6.0725304,-16.4086032,0.0,0.0,0.0,0.0
9.0,759.5783640000001,0.5964936000000001,-9.7051368,-15.871850400000001,0.0,0.0,0.0,0.0
9.02,762.6778752000001,4.012082400000001,-12.2532648,-14.338401600000001,0.0,0.0,0.0,0.0
9.04,765.2912304000001,1.4639544,-10.355580000000002,-14.951964,0.0,0.0,0.0,0.0
9.059999999999999,767.7107328000002,-2.548128,-12.8497584,-13.6483344,0.0,0.0,0.0,0.0
9.08,770.0799432,-3.8496240000000004,-11.006328,-14.338401600000001,0.0,0.0,0.0,0.0
9.1,772.3644192000002,-2.0601432,-9.867595200000002,-13.264896000000002,0.0,0.0,0.0,0.0
9.120000000000001,774.6068328000001,-0.4337304,-7.048500000000001,-15.0284688,0.0,0.0,0.0,0.0
9.14,776.5923,-0.3252216,-5.8555128,-14.798649600000001,0.0,0.0,0.0,0.0
9.16,778.3680648000001,-1.1926824,-6.9399912,-14.72184,0.0,0.0,0.0,0.0
9.18,779.8807872000001,-0.4879848,-8.94588,-13.571829600000001,0.0,0.0,0.0,0.0
9.2,781.3154808,-2.2229064000000003,-8.6206584,-14.5685256,0.0,0.0,0.0,0.0
9.219999999999999,782.9150712,-3.7411152,-11.5485672,-13.341705600000001,0.0,0.0,0.0,0.0
9.239999999999998,784.4277936000001,-3.5240976,-9.2714064,-13.9549632,0.0,0.0,0.0,0.0
9.26,785.8804704000001,-2.0601432,-9.3256608,-13.878458400000001,0.0,0.0,0.0,0.0
9.28,787.1539248000001,-2.6023824,-10.193121600000001,-14.2618968,0.0,0.0,0.0,0.0
9.3,788.6334240000001,-1.2469368,-10.789310400000002,-13.571829600000001,0.0,0.0,0.0,0.0
9.32,789.9047448000001,-2.2229064000000003,-12.3075192,-13.49502,0.0,0.0,0.0,0.0
9.34,791.2504368000001,-1.1926824,-12.4702824,-12.498324000000002,0.0,0.0,0.0,0.0
9.36,792.6131976000001,-0.650748,-8.1326736,-14.0317728,0.0,0.0,0.0,0.0
9.379999999999999,794.0698368000002,-1.6264128000000002,-8.7834216,-12.804952800000002,0.0,0.0,0.0,0.0
9.399999999999999,795.5691480000002,-2.0601432,-10.952073600000002,-13.1883912,0.0,0.0,0.0,0.0
9.42,797.1443544000001,-0.5964936000000001,-9.2714064,-12.8817624,0.0,0.0,0.0,0.0
9.44,798.7405920000002,-0.3252216,-9.3256608,-12.8817624,0.0,0.0,0.0,0.0
9.46,800.4035808000001,-1.3554456000000001,-8.5121496,-12.958267200000002,0.0,0.0,0.0,0.0
9.48,802.1308824,0.37947600000000004,-4.933797600000001,-13.1883912,0.0,0.0,0.0,0.0
9.5,803.6414712000001,-1.0844784,-7.6989432,-12.651638400000001,0.0,0.0,0.0,0.0
9.52,805.2477672000001,-3.198876,-6.5605152,-12.958267200000002,0.0,0.0,0.0,0.0
9.54,806.8689984,-2.3314152,-7.427976000000001,-12.114885600000001,0.0,0.0,0.0,0.0
9.559999999999999,808.3725768,-3.0903671999999998,-10.0303584,-10.811256,0.0,0.0,0.0,0.0
9.58,809.9654616000001,-1.4639544,-9.813645600000001,-11.271504,0.0,0.0,0.0,0.0
9.6,811.5997992000001,0.1085088,-11.4943128,-10.9645704,0.0,0.0,0.0,0.0
9.620000000000001,813.3078984000001,-0.16276320000000002,-6.9942456,-11.1181896,0.0,0.0,0.0,0.0
9.64,815.0653752000001,1.6264128000000002,-9.867595200000002,-12.1913904,0.0,0.0,0.0,0.0
9.66,816.9112440000001,0.2170176,-8.7834216,-12.498324000000002,0.0,0.0,0.0,0.0
9.68,818.4638952000001,0.2709672,-8.4039456,-12.114885600000001,0.0,0.0,0.0,0.0
9.7,820.1988168000001,-0.2170176,-8.241182400000001,-12.2682,0.0,0.0,0.0,0.0
9.719999999999999,821.8486992000002,-0.16276320000000002,-7.210958400000001,-12.498324000000002,0.0,0.0,0.0,0.0
9.739999999999998,823.4101896000002,-0.37947600000000004,-6.1267848,-12.038076,0.0,0.0,0.0,0.0
9.76,824.9759472000001,-2.2229064000000003,-5.5845456,-11.1181896,0.0,0.0,0.0,0.0
9.78,826.6974576000001,2.6566368,-6.343497600000001,-12.1913904,0.0,0.0,0.0,0.0
9.8,828.4454856000001,-0.4879848,-8.837676,-11.7314472,0.0,0.0,0.0,0.0
9.82,830.0795184000001,-3.3073848000000003,-8.94588,-10.734751200000002,0.0,0.0,0.0,0.0
9.84,831.9171576000001,-3.2531304000000003,-7.3737216000000005,-10.734751200000002,0.0,0.0,0.0,0.0
9.86,833.3856840000002,-1.4639544,-5.9097672,-11.5781328,0.0,0.0,0.0,0.0
9.879999999999999,834.9093792000001,-2.6023824,-7.6989432,-11.5781328,0.0,0.0,0.0,0.0
9.899999999999999,836.4114336,-0.9217152000000001,-6.4520064,-10.9645704,0.0,0.0,0.0,0.0
9.92,838.0814328000001,-1.3554456000000001,-6.018276,-11.194694400000001,0.0,0.0,0.0,0.0
9.94,839.675232,-1.5182088,-5.638800000000001,-11.1181896,0.0,0.0,0.0,0.0
9.96,841.2668976000001,-0.2170176,-5.964021600000001,-12.038076,0.0,0.0,0.0,0.0
9.98,842.7972984,1.6806672000000002,-6.4520064,-10.734751200000002,0.0,0.0,0.0,0.0
10.0,844.3341,-0.7589520000000001,-6.1807343999999995,-11.194694400000001,0.0,0.0,0.0,0.0
10.02,846.1183992000001,-0.4879848,-8.837676,-10.428122400000001,0.0,0.0,0.0,0.0
10.04,847.6548960000001,-0.4879848,-6.668719200000001,-10.3513128,0.0,0.0,0.0,0.0
10.059999999999999,849.2736888000001,-2.0061936,-6.1267848,-11.1181896,0.0,0.0,0.0,0.0
10.08,850.8132336000001,-1.1387328,-5.9097672,-10.5046272,0.0,0.0,0.0,0.0
10.1,852.3856968000001,-1.9519392,-5.8555128,-10.5814368,0.0,0.0,0.0,0.0
10.120000000000001,853.9371288000001,-0.5422392,-7.5904344,-9.814560000000002,0.0,0.0,0.0,0.0
10.14,855.5428152000002,-1.8976848000000002,-8.6206584,-9.891369599999999,0.0,0.0,0.0,0.0
10.16,857.1899544000001,1.0844784,-7.3737216000000005,-10.5046272,0.0,0.0,0.0,0.0
10.18,858.8633064,0.2170176,-8.7834216,-9.967874400000001,0.0,0.0,0.0,0.0
10.2,860.5869504000001,-0.8132064000000001,-10.138867200000002,-8.971178400000001,0.0,0.0,0.0,0.0
10.219999999999999,862.1880648,-2.8736544000000004,-9.0543888,-9.3546168,0.0,0.0,0.0,0.0
10.239999999999998,864.0601464000001,-2.1686520000000002,-9.3256608,-9.047683200000002,0.0,0.0,0.0,0.0
10.26,865.7313648,-0.5964936000000001,-8.837676,-9.737750400000001,0.0,0.0,0.0,0.0
10.28,867.398316,-0.0542544,-7.5364848,-10.428122400000001,0.0,0.0,0.0,0.0
10.3,869.0603904000001,0.7589520000000001,-4.8795432000000005,-10.3513128,0.0,0.0,0.0,0.0
10.32,870.6989952000001,2.1143976,-6.9942456,-9.4311216,0.0,0.0,0.0,0.0
10.34,872.3321136000002,0.9759696,-5.638800000000001,-10.044684,0.0,0.0,0.0,0.0
10.36,873.6985320000001,-0.7046976,-6.2349888,-10.5814368,0.0,0.0,0.0,0.0
10.379999999999999,875.1496848,-0.7046976,-6.018276,-9.891369599999999,0.0,0.0,0.0,0.0
10.399999999999999,876.5179320000001,-0.3252216,-5.5302912,-9.2778072,0.0,0.0,0.0,0.0
10.42,877.7182344000001,-0.2170176,-6.397752,-9.1244928,0.0,0.0,0.0,0.0
10.44,878.9691336000001,-1.0844784,-5.3132736,-9.6612456,0.0,0.0,0.0,0.0
10.46,880.1950392,-1.7349216,-5.3132736,-8.741054400000001,0.0,0.0,0.0,0.0
10.48,881.4438048000001,-0.9217152000000001,-5.0423064,-9.584436,0.0,0.0,0.0,0.0
10.5,882.7206120000001,-0.1085088,-5.421782400000001,-8.741054400000001,0.0,0.0,0.0,0.0
10.52,883.9699872000001,-0.9217152000000001,-6.2349888,-9.047683200000002,0.0,0.0,0.0,0.0
10.54,885.2851992000001,-1.7349216,-5.3132736,-8.5109304,0.0,0.0,0.0,0.0
10.559999999999999,886.6955088000001,-0.8674608,-5.421782400000001,-9.1244928,0.0,0.0,0.0,0.0
10.58,888.2286528000002,-2.1143976,-6.2349888,-9.1244928,0.0,0.0,0.0,0.0
10.6,889.6322568000002,-0.2709672,-6.4520064,-8.357616,0.0,0.0,0.0,0.0
10.620000000000001,891.0797520000001,-1.4097000000000002,-6.1807343999999995,-8.58774,0.0,0.0,0.0,0.0
10.64,892.6726368000002,-0.1085088,-7.156704,-8.6645496,0.0,0.0,0.0,0.0
10.66,894.2542440000001,0.1085088,-5.8555128,-8.971178400000001,0.0,0.0,0.0,0.0
10.68,895.9144896000001,-0.5422392,-6.0725304,-8.4344256,0.0,0.0,0.0,0.0
10.7,897.504936,0.3252216,-5.421782400000001,-8.8943688,0.0,0.0,0.0,0.0
10.719999999999999,899.1286056000001,0.0542544,-5.0423064,-8.6645496,0.0,0.0,0.0,0.0
10.739999999999998,900.8556024000001,0.4879848,-5.5845456,-8.741054400000001,0.0,0.0,0.0,0.0
10.76,902.5780272000002,-0.1085088,-4.7713392,-9.2013024,0.0,0.0,0.0,0.0
10.78,904.2309576000001,0.16276320000000002,-6.2349888,-8.2811112,0.0,0.0,0.0,0.0
10.8,905.8582848000001,0.0,-4.988052,-8.2811112,0.0,0.0,0.0,0.0
10.82,907.4563512000001,-1.5724632,-5.259324,-8.4344256,0.0,0.0,0.0,0.0
10.84,909.1007472,0.2170176,-4.120591200000001,-8.2811112,0.0,0.0,0.0,0.0
10.86,910.7341704000002,-1.030224,-4.8252888,-8.2811112,0.0,0.0,0.0,0.0
10.879999999999999,912.2115360000001,-0.650748,-4.988052,-8.357616,0.0,0.0,0.0,0.0
10.899999999999999,913.7001792000001,0.4337304,-4.554321600000001,-8.2043016,0.0,0.0,0.0,0.0
10.92,915.2763,-1.8434304000000001,-3.9035736000000005,-7.437729600000001,0.0,0.0,0.0,0.0
10.94,916.7048976000002,-2.3314152,-3.198876,-7.9744824,0.0,0.0,0.0,0.0
10.96,918.1036248000001,-1.030224,-3.0903671999999998,-8.4344256,0.0,0.0,0.0,0.0
10.98,919.4362104,0.2170176,-4.7713392,-8.58774,0.0,0.0,0.0,0.0
11.0,920.9364360000001,-1.7349216,-3.9035736000000005,-7.8976728000000005,0.0,0.0,0.0,0.0
11.02,922.4372712,-0.5422392,-5.638800000000001,-7.6675488,0.0,0.0,0.0,0.0
11.04,923.9198184,-1.2469368,-4.1748456,-7.437729600000001,0.0,0.0,0.0,0.0
11.059999999999999,925.3603032000001,-1.789176,-5.5845456,-7.5142344,0.0,0.0,0.0,0.0
11.08,926.7069096000001,-0.650748,-6.8314824000000005,-7.130796,0.0,0.0,0.0,0.0
11.1,928.0608312000002,-1.3011912,-6.8314824000000005,-6.5175384,0.0,0.0,0.0,0.0
11.120000000000001,929.5412448000002,-1.030224,-6.885736800000001,-7.2076056,0.0,0.0,0.0,0.0
11.14,930.9222936000001,-2.0061936,-6.2349888,-7.2076056,0.0,0.0,0.0,0.0
11.16,932.3731416,-1.6264128000000002,-5.7470040000000004,-7.36092,0.0,0.0,0.0,0.0
11.18,933.7304160000001,-0.5964936000000001,-5.367528,-6.594043200000001,0.0,0.0,0.0,0.0
11.2,935.0053944000001,0.7046976,-4.1748456,-6.9774816,0.0,0.0,0.0,0.0
11.219999999999999,936.2788488000002,0.5422392,-5.3132736,-6.9774816,0.0,0.0,0.0,0.0
11.239999999999998,937.5812592000001,-0.2170176,-4.6628304,-7.2841104,0.0,0.0,0.0,0.0
11.26,939.0958104000001,-0.5964936000000001,-5.1508152,-6.6708528000000005,0.0,0.0,0.0,0.0
11.28,940.5024624000001,1.8434304000000001,-4.2291,-6.8241672,0.0,0.0,0.0,0.0
11.3,941.7484848,1.030224,-3.8496240000000004,-7.130796,0.0,0.0,0.0,0.0
11.32,943.1493456000001,0.8674608,-3.3616392,-7.130796,0.0,0.0,0.0,0.0
11.34,944.5922688,0.16276320000000002,-3.0903671999999998,-7.36092,0.0,0.0,0.0,0.0
11.36,946.0629288000001,0.650748,-3.0361128,-6.747662400000001,0.0,0.0,0.0,0.0
11.379999999999999,947.4525120000001,-0.16276320000000002,-3.5240976,-6.747662400000001,0.0,0.0,0.0,0.0
11.399999999999999,948.9405456000001,-1.8434304000000001,-3.578352,-7.2076056,0.0,0.0,0.0,0.0
11.42,950.3990136000002,-2.0061936,-3.957828,-7.0542912,0.0,0.0,0.0,0.0
11.44,951.7767096000001,-2.0601432,-4.2291,-6.6708528000000005,0.0,0.0,0.0,0.0
11.46,953.1992112000001,-2.2229064000000003,-4.8252888,-6.2874144,0.0,0.0,0.0,0.0
11.48,954.4787616000001,-0.3252216,-3.578352,-7.2841104,0.0,0.0,0.0,0.0
11.5,955.6412688,-0.9759696,-3.7953696000000003,-6.6708528000000005,0.0,0.0,0.0,0.0
11.52,956.8836336,-0.9217152000000001,-3.4158936000000004,-7.36092,0.0,0.0,0.0,0.0
11.54,958.1726328000002,-0.7589520000000001,-4.012082400000001,-7.130796,0.0,0.0,0.0,0.0
11.559999999999999,959.4213984,-0.2709672,-3.4158936000000004,-7.2841104,0.0,0.0,0.0,0.0
11.58,960.7238088000001,-0.3252216,-4.2291,-7.130796,0.0,0.0,0.0,0.0
11.6,962.0448120000001,-0.3252216,-3.7953696000000003,-6.4407288000000005,0.0,0.0,0.0,0.0
11.620000000000001,963.4423200000001,-0.5422392,-3.7953696000000003,-5.9807856,0.0,0.0,0.0,0.0
11.64,964.9775976000002,-1.1387328,-4.0663368,-5.903976000000001,0.0,0.0,0.0,0.0
11.66,966.4973304000001,-0.8132064000000001,-4.8252888,-5.9807856,0.0,0.0,0.0,0.0
11.68,967.9112976000001,0.16276320000000002,-4.8252888,-5.750661600000001,0.0,0.0,0.0,0.0
11.7,969.4517568000002,-0.650748,-4.445812800000001,-5.6741568000000004,0.0,0.0,0.0,0.0
11.719999999999999,970.9269888000001,-0.5964936000000001,-5.367528,-5.6741568000000004,0.0,0.0,0.0,0.0
11.739999999999998,972.3894192000001,-0.9759696,-4.8795432000000005,-5.597347200000001,0.0,0.0,0.0,0.0
11.76,973.8317328000002,-1.1926824,-4.988052,-5.4440328000000004,0.0,0.0,0.0,0.0
11.78,975.323424,-0.3252216,-4.988052,-6.0572904,0.0,0.0,0.0,0.0
11.8,976.7663472,-0.0542544,-4.2833544,-5.827471200000001,0.0,0.0,0.0,0.0
11.82,978.1156968000001,-1.030224,-4.0663368,-5.9807856,0.0,0.0,0.0,0.0
11.84,979.4720568000001,-0.650748,-4.445812800000001,-6.1341,0.0,0.0,0.0,0.0
11.86,980.8753560000001,-0.2170176,-5.096560800000001,-5.827471200000001,0.0,0.0,0.0,0.0
11.879999999999999,982.2506136000002,1.030224,-4.2833544,-5.827471200000001,0.0,0.0,0.0,0.0
11.899999999999999,983.6164224000001,1.3554456000000001,-4.7170848,-5.750661600000001,0.0,0.0,0.0,0.0
11.92,984.9874128000001,1.3011912,-4.6628304,-5.597347200000001,0.0,0.0,0.0,0.0
11.94,986.4132672000001,0.4879848,-3.957828,-5.6741568000000004,0.0,0.0,0.0,0.0
11.96,987.7589592,-0.1085088,-3.578352,-5.827471200000001,0.0,0.0,0.0,0.0
11.98,989.1134904,-0.4337304,-3.4698432,-5.5205376,0.0,0.0,0.0,0.0
12.0,990.4082808,-0.8132064000000001,-2.8736544000000004,-6.0572904,0.0,0.0,0.0,0.0
12.02,991.6704576000001,-1.1926824,-3.0361128,-5.367223200000001,0.0,0.0,0.0,0.0
12.04,992.9750016000002,0.0542544,-2.8736544000000004,-5.5205376,0.0,0.0,0.0,0.0
12.059999999999999,994.1530536000001,-0.5964936000000001,-3.198876,-5.2907184,0.0,0.0,0.0,0.0
12.08,995.2884336000001,-0.8132064000000001,-3.198876,-5.060594400000001,0.0,0.0,0.0,0.0
12.1,996.4853832000001,-0.16276320000000002,-3.3073848000000003,-4.984089600000001,0.0,0.0,0.0,0.0
12.120000000000001,997.7189088000001,-1.1926824,-3.6868608000000003,-4.7539656,0.0,0.0,0.0,0.0
12.14,998.9944968000001,-1.3554456000000001,-2.8736544000000004,-5.137404,0.0,0.0,0.0,0.0
12.16,1000.1115888,-0.7589520000000001,-4.3376088,-5.5205376,0.0,0.0,0.0,0.0
12.18,1001.3728512,-1.4639544,-3.8496240000000004,-4.7539656,0.0,0.0,0.0,0.0
12.2,1002.6173496000001,-0.650748,-4.3376088,-4.677156,0.0,0.0,0.0,0.0
12.219999999999999,1003.8267960000002,-0.4879848,-3.8496240000000004,-5.2907184,0.0,0.0,0.0,0.0
12.239999999999998,1005.0380712000001,-0.1085088,-4.120591200000001,-4.907280000000001,0.0,0.0,0.0,0.0
12.26,1006.361208,-0.37947600000000004,-4.2833544,-4.8304704,0.0,0.0,0.0,0.0
12.28,1007.7584112000002,-0.3252216,-4.6628304,-5.137404,0.0,0.0,0.0,0.0
12.3,1009.0943496000001,-0.2170176,-4.3376088,-4.677156,0.0,0.0,0.0,0.0
12.32,1010.5366632000001,-0.4879848,-4.8252888,-4.7539656,0.0,0.0,0.0,0.0
12.34,1011.9640416000001,-0.1085088,-3.6868608000000003,-4.677156,0.0,0.0,0.0,0.0
12.36,1013.2673664000001,-0.7046976,-4.5000672,-4.370527200000001,0.0,0.0,0.0,0.0
12.379999999999999,1014.5652048000001,-0.5422392,-4.2291,-4.7539656,0.0,0.0,0.0,0.0
12.399999999999999,1015.9846584000002,-0.8674608,-3.1446216000000002,-4.523841600000001,0.0,0.0,0.0,0.0
12.42,1017.3266928,0.3252216,-2.6023824,-4.8304704,0.0,0.0,0.0,0.0
12.44,1018.7190192000002,-0.8132064000000001,-3.0903671999999998,-4.984089600000001,0.0,0.0,0.0,0.0
12.46,1020.0028368000002,0.2709672,-3.5240976,-4.6006512,0.0,0.0,0.0,0.0
12.48,1021.2625752000001,0.7589520000000001,-3.9035736000000005,-4.4473368,0.0,0.0,0.0,0.0
12.5,1022.5975992000001,0.2170176,-3.4698432,-4.6006512,0.0,0.0,0.0,0.0
12.52,1023.8277720000001,0.3252216,-2.9279088,-4.6006512,0.0,0.0,0.0,0.0
12.54,1025.0463624000001,0.3252216,-3.4698432,-4.6006512,0.0,0.0,0.0,0.0
12.559999999999999,1026.3259128000002,-0.16276320000000002,-3.4158936000000004,-4.2172128,0.0,0.0,0.0,0.0
12.58,1027.5377976000002,-0.2170176,-3.578352,-4.2172128,0.0,0.0,0.0,0.0
12.6,1028.6561088,-0.2170176,-3.4698432,-4.523841600000001,0.0,0.0,0.0,0.0
12.620000000000001,1029.8338560000002,-0.4337304,-2.9279088,-4.2172128,0.0,0.0,0.0,0.0
12.64,1030.8988272000001,-0.3252216,-2.3856696,-4.8304704,0.0,0.0,0.0,0.0
12.66,1031.9833056000002,-0.4879848,-2.8736544000000004,-4.4473368,0.0,0.0,0.0,0.0
12.68,1032.9419016000002,-1.1387328,-2.8736544000000004,-3.910584,0.0,0.0,0.0,0.0
12.7,1034.0909976000003,-1.1926824,-2.8194000000000004,-4.1404032,0.0,0.0,0.0,0.0
12.719999999999999,1035.2467992000002,-0.37947600000000004,-2.548128,-5.137404,0.0,0.0,0.0,0.0
12.739999999999998,1036.2901296,-0.8132064000000001,-2.2229064000000003,-4.4473368,0.0,0.0,0.0,0.0
12.759999999999998,1037.3895432000002,-0.650748,-2.1686520000000002,-4.523841600000001,0.0,0.0,0.0,0.0
12.780000000000001,1038.6026472,-0.650748,-2.1686520000000002,-4.984089600000001,0.0,0.0,0.0,0.0
12.8,1039.7395512,-1.2469368,-2.6566368,-4.2937176,0.0,0.0,0.0,0.0
12.82,1040.8673112000001,-0.5964936000000001,-3.0903671999999998,-4.0638984,0.0,0.0,0.0,0.0
12.84,1042.1529576,-0.0542544,-2.8736544000000004,-4.2937176,0.0,0.0,0.0,0.0
12.86,1043.2843752,-1.1387328,-3.0903671999999998,-3.8337744,0.0,0.0,0.0,0.0
12.879999999999999,1044.385008,-0.1085088,-3.2531304000000003,-3.910584,0.0,0.0,0.0,0.0
12.899999999999999,1045.5243504000002,-0.650748,-3.578352,-3.7572696000000003,0.0,0.0,0.0,0.0
12.919999999999998,1046.6883816000002,-0.5422392,-3.0361128,-3.9870888,0.0,0.0,0.0,0.0
12.940000000000001,1047.9959736,0.8674608,-2.1686520000000002,-3.9870888,0.0,0.0,0.0,0.0
12.96,1049.206944,1.3011912,-3.578352,-3.9870888,0.0,0.0,0.0,0.0
12.98,1050.4258392000002,-0.2170176,-4.2291,-3.450336,0.0,0.0,0.0,0.0
13.0,1051.6557072,0.4337304,-3.7953696000000003,-3.6036504000000003,0.0,0.0,0.0,0.0
13.02,1052.9120928000002,1.3011912,-3.3616392,-3.910584,0.0,0.0,0.0,0.0
13.04,1054.2263904000001,0.650748,-2.6023824,-4.0638984,0.0,0.0,0.0,0.0
13.059999999999999,1055.4343128,0.650748,-3.0361128,-3.910584,0.0,0.0,0.0,0.0
13.079999999999998,1056.75684,0.4337304,-3.9035736000000005,-4.1404032,0.0,0.0,0.0,0.0
13.100000000000001,1057.9824408000002,-0.7589520000000001,-3.578352,-3.68046,0.0,0.0,0.0,0.0
13.120000000000001,1059.0699672,-0.2170176,-3.2531304000000003,-3.6036504000000003,0.0,0.0,0.0,0.0
13.14,1060.0764168,-1.1387328,-2.4399240000000004,-3.9870888,0.0,0.0,0.0,0.0
13.16,1061.1797928,-0.8132064000000001,-1.6806672000000002,-3.9870888,0.0,0.0,0.0,0.0
13.18,1062.226476,-0.5964936000000001,-1.4639544,-4.0638984,0.0,0.0,0.0,0.0
13.2,1063.4353128,0.16276320000000002,-1.1387328,-4.2937176,0.0,0.0,0.0,0.0
13.219999999999999,1064.6283,0.8132064000000001,-0.9217152000000001,-4.0638984,0.0,0.0,0.0,0.0
13.239999999999998,1065.8441472,0.5422392,-0.7589520000000001,-4.1404032,0.0,0.0,0.0,0.0
13.259999999999998,1067.106324,0.650748,-0.650748,-4.2172128,0.0,0.0,0.0,0.0
13.280000000000001,1068.3389352000002,0.2709672,-0.7046976,-3.9870888,0.0,0.0,0.0,0.0
13.3,1069.5130248,0.3252216,-1.1926824,-4.0638984,0.0,0.0,0.0,0.0
13.32,1070.6929056000001,-0.1085088,-1.9519392,-3.8337744,0.0,0.0,0.0,0.0
13.34,1071.6902112000002,-0.16276320000000002,-1.6806672000000002,-3.7572696000000003,0.0,0.0,0.0,0.0
13.36,1072.7365896000001,-0.1085088,-1.7349216,-3.5271456,0.0,0.0,0.0,0.0
13.379999999999999,1073.8140576,-0.1085088,-2.4941784,-3.6036504000000003,0.0,0.0,0.0,0.0
13.399999999999999,1074.9558384000002,0.0,-3.0361128,-3.450336,0.0,0.0,0.0,0.0
13.419999999999998,1076.1031056000002,-0.8132064000000001,-2.8736544000000004,-3.3738312000000006,0.0,0.0,0.0,0.0
13.440000000000001,1077.1455216000002,-1.3011912,-2.4941784,-3.2205168000000004,0.0,0.0,0.0,0.0
13.46,1078.1900712000001,-1.789176,-2.4399240000000004,-2.9135831999999997,0.0,0.0,0.0,0.0
13.48,1079.2114560000002,-1.789176,-2.3314152,-3.1437072,0.0,0.0,0.0,0.0
13.5,1080.1307328000003,-1.4097000000000002,-2.0601432,-3.1437072,0.0,0.0,0.0,0.0
13.52,1081.0978632000001,-1.8434304000000001,-2.2771608000000003,-2.9135831999999997,0.0,0.0,0.0,0.0
13.54,1082.126868,-0.9217152000000001,-1.8976848000000002,-2.9903928,0.0,0.0,0.0,0.0
13.559999999999999,1083.0632136000002,-1.2469368,-2.3314152,-2.8370784000000002,0.0,0.0,0.0,0.0
13.579999999999998,1083.9861480000002,-1.5182088,-1.9519392,-3.1437072,0.0,0.0,0.0,0.0
13.600000000000001,1084.9224936,-1.0844784,-2.0601432,-2.9135831999999997,0.0,0.0,0.0,0.0
13.620000000000001,1086.0121536000001,-0.650748,-2.0601432,-3.0672024,0.0,0.0,0.0,0.0
13.64,1087.0140312,-1.1387328,-2.1143976,-3.2205168000000004,0.0,0.0,0.0,0.0
13.66,1088.0988144,-0.2709672,-2.7651456,-2.9903928,0.0,0.0,0.0,0.0
13.68,1089.0763080000002,-0.2170176,-2.6023824,-3.1437072,0.0,0.0,0.0,0.0
13.7,1090.1412792,-0.4879848,-3.0903671999999998,-2.683764,0.0,0.0,0.0,0.0
13.719999999999999,1091.116944,0.3252216,-3.0361128,-3.1437072,0.0,0.0,0.0,0.0
13.739999999999998,1092.2123952000002,1.1387328,-3.7411152,-2.9135831999999997,0.0,0.0,0.0,0.0
13.759999999999998,1093.2420096,1.1387328,-3.3073848000000003,-2.9135831999999997,0.0,0.0,0.0,0.0
13.780000000000001,1094.5401528000002,0.37947600000000004,-3.4158936000000004,-2.8370784000000002,0.0,0.0,0.0,0.0
13.8,1095.6712656000002,0.2709672,-3.3073848000000003,-2.7602688,0.0,0.0,0.0,0.0
13.82,1096.8724824,-0.1085088,-3.4698432,-2.7602688,0.0,0.0,0.0,0.0
13.84,1097.9658,0.2170176,-3.0361128,-2.683764,0.0,0.0,0.0,0.0
13.86,1099.1609208000002,0.0,-3.2531304000000003,-2.9135831999999997,0.0,0.0,0.0,0.0
13.879999999999999,1100.2313784,-0.4337304,-2.9279088,-2.6069544000000002,0.0,0.0,0.0,0.0
13.899999999999999,1101.3966288000001,-0.5422392,-2.2771608000000003,-2.7602688,0.0,0.0,0.0,0.0
13.919999999999998,1102.3939344,-0.8132064000000001,-1.789176,-2.8370784000000002,0.0,0.0,0.0,0.0
13.940000000000001,1103.385144,-0.37947600000000004,-1.2469368,-3.0672024,0.0,0.0,0.0,0.0
13.96,1104.3123456,-0.5422392,-0.9759696,-3.5271456,0.0,0.0,0.0,0.0
13.98,1105.2230880000002,0.2709672,-0.9217152000000001,-2.9903928,0.0,0.0,0.0,0.0
14.0,1106.1573,0.0542544,-0.8132064000000001,-3.0672024,0.0,0.0,0.0,0.0
14.02,1107.1972776000002,0.16276320000000002,-0.8132064000000001,-3.0672024,0.0,0.0,0.0,0.0
14.04,1108.2857184000002,-0.3252216,-0.9759696,-3.2970216000000003,0.0,0.0,0.0,0.0
14.059999999999999,1109.3052744000001,0.2709672,-1.030224,-2.9135831999999997,0.0,0.0,0.0,0.0
14.079999999999998,1110.3354984,0.4879848,-1.1387328,-2.9135831999999997,0.0,0.0,0.0,0.0
14.100000000000001,1111.3337184000002,0.2709672,-1.2469368,-2.7602688,0.0,0.0,0.0,0.0
14.120000000000001,1112.2910952000002,0.2170176,-1.4097000000000002,-2.8370784000000002,0.0,0.0,0.0,0.0
14.14,1113.3517992000002,0.1085088,-1.7349216,-2.6069544000000002,0.0,0.0,0.0,0.0
14.16,1114.3862904,0.0542544,-1.8976848000000002,-2.4536400000000005,0.0,0.0,0.0,0.0
14.18,1115.4585768000002,-0.5964936000000001,-1.5724632,-2.3768304000000002,0.0,0.0,0.0,0.0
14.2,1116.3607848000001,-0.8674608,-1.3011912,-2.683764,0.0,0.0,0.0,0.0
14.219999999999999,1117.2508008000002,-1.030224,-1.789176,-2.7602688,0.0,0.0,0.0,0.0
14.239999999999998,1118.1234432,-1.030224,-1.6806672000000002,-2.683764,0.0,0.0,0.0,0.0
14.259999999999998,1119.029004,-0.7046976,-1.5724632,-2.4536400000000005,0.0,0.0,0.0,0.0
14.280000000000001,1119.9680928,-0.5422392,-1.8434304000000001,-2.0702016,0.0,0.0,0.0,0.0
14.3,1120.9565592000001,-0.37947600000000004,-1.789176,-2.223516,0.0,0.0,0.0,0.0
14.32,1121.9218608,-0.4879848,-1.3554456000000001,-2.223516,0.0,0.0,0.0,0.0
14.34,1122.7618896000001,-0.37947600000000004,-1.6806672000000002,-2.3003256,0.0,0.0,0.0,0.0
14.36,1123.634532,-0.0542544,-1.4639544,-2.223516,0.0,0.0,0.0,0.0
