time,baro_altitude,accl_x,accl_y,accl_z,gps_altitude,gyro_roll,gyro_pitch,gyro_yaw
0.0,0.0,-7.048500000000001,6.1807343999999995,-4.677156,0.0,0.0,0.0,0.0
0.020000000000000462,-0.02712719999999999,-6.885736800000001,6.018276,-4.677156,0.0,0.0,0.0,0.0
0.040000000000000036,0.045719999999999976,-7.2652128,5.8555128,-4.523841600000001,0.0,0.0,0.0,0.0
0.0600000000000005,0.14599920000000002,-7.3194672,5.801258400000001,-4.6006512,0.0,0.0,0.0,0.0
0.08000000000000007,0.06797039999999996,-7.210958400000001,5.801258400000001,-4.677156,0.0,0.0,0.0,0.0
0.10000000000000009,0.02773680000000006,-7.210958400000001,5.5845456,-4.7539656,0.0,0.0,0.0,0.0
0.1200000000000001,-0.1304544,-7.156704,5.638800000000001,-4.8304704,0.0,0.0,0.0,0.0
0.14000000000000012,-0.19080479999999997,-7.210958400000001,5.5845456,-4.984089600000001,0.0,0.0,0.0,0.0
0.16000000000000014,-0.15392399999999998,-7.427976000000001,5.476036800000001,-4.907280000000001,0.0,0.0,0.0,0.0
0.18000000000000016,-0.172212,-7.2652128,5.421782400000001,-4.8304704,0.0,0.0,0.0,0.0
0.20000000000000018,-0.1862328,-7.427976000000001,5.5845456,-4.523841600000001,0.0,0.0,0.0,0.0
0.2200000000000002,-0.2667,-7.3737216000000005,5.5302912,-4.677156,0.0,0.0,0.0,0.0
0.2400000000000002,-0.24475439999999998,-7.3194672,5.5845456,-4.907280000000001,0.0,0.0,0.0,0.0
0.26000000000000023,-0.30998159999999997,-7.210958400000001,5.5845456,-4.907280000000001,0.0,0.0,0.0,0.0
0.28000000000000025,-0.45445680000000005,-7.210958400000001,6.018276,-4.6006512,0.0,0.0,0.0,0.0
0.30000000000000027,-0.36179760000000005,-7.1024496,6.1267848,-4.6006512,0.0,0.0,0.0,0.0
0.3200000000000003,-0.28376880000000004,-7.1024496,6.1267848,-4.6006512,0.0,0.0,0.0,0.0
0.33999999999999986,-0.2980944,-7.048500000000001,6.0725304,-4.6006512,0.0,0.0,0.0,0.0
0.3599999999999999,-0.3194304,-6.9942456,6.1267848,-4.8304704,0.0,0.0,0.0,0.0
0.3799999999999999,-0.2060448,-7.210958400000001,5.801258400000001,-4.7539656,0.0,0.0,0.0,0.0
0.3999999999999999,-0.36545520000000004,-7.3194672,5.801258400000001,-4.523841600000001,0.0,0.0,0.0,0.0
0.41999999999999993,-0.3761232,-7.3737216000000005,5.638800000000001,-4.6006512,0.0,0.0,0.0,0.0
0.43999999999999995,-0.48006,-7.2652128,5.5302912,-4.7539656,0.0,0.0,0.0,0.0
0.45999999999999996,-0.4730496,-7.2652128,5.5302912,-4.8304704,0.0,0.0,0.0,0.0
0.48,-0.41300400000000004,-7.4822304,5.5302912,-4.8304704,0.0,0.0,0.0,0.0
0.5,-0.3590544,-7.4822304,5.421782400000001,-4.7539656,0.0,0.0,0.0,0.0
0.52,-0.38557199999999997,-7.5904344,5.5302912,-4.523841600000001,0.0,0.0,0.0,0.0
0.54,-0.33741360000000004,-7.5364848,5.476036800000001,-4.6006512,0.0,0.0,0.0,0.0
0.56,-0.4136136,-7.2652128,5.7470040000000004,-4.7539656,0.0,0.0,0.0,0.0
0.5800000000000001,-0.3212592,-7.1024496,5.6930544,-4.7539656,0.0,0.0,0.0,0.0
0.6000000000000001,-0.2685288,-6.9942456,5.9097672,-4.7539656,0.0,0.0,0.0,0.0
0.6200000000000001,-0.30906720000000004,-7.1024496,5.9097672,-4.907280000000001,0.0,0.0,0.0,0.0
0.6400000000000001,-0.2569464,-7.048500000000001,6.0725304,-4.7539656,0.0,0.0,0.0,0.0
0.6600000000000001,-0.08503919999999998,-7.048500000000001,6.0725304,-4.677156,0.0,0.0,0.0,0.0
0.6800000000000002,-0.2459736,-6.9942456,6.1267848,-4.6006512,0.0,0.0,0.0,0.0
0.7000000000000002,-0.2176272,-7.1024496,6.2349888,-4.6006512,0.0,0.0,0.0,0.0
0.7200000000000002,-0.2679192,-7.210958400000001,5.9097672,-4.677156,0.0,0.0,0.0,0.0
0.7400000000000002,-0.4949952000000001,-7.210958400000001,5.6930544,-4.8304704,0.0,0.0,0.0,0.0
0.7600000000000002,-0.4212336,-7.3194672,5.5845456,-4.7539656,0.0,0.0,0.0,0.0
0.7800000000000002,-0.5178552,-7.3737216000000005,5.638800000000001,-4.7539656,0.0,0.0,0.0,0.0
0.8000000000000003,-0.6224016,-7.427976000000001,5.5845456,-4.7539656,0.0,0.0,0.0,0.0
0.8200000000000003,-0.8802624,-7.427976000000001,5.367528,-4.677156,0.0,0.0,0.0,0.0
0.8399999999999999,-0.9076944,-7.3737216000000005,5.421782400000001,-4.677156,0.0,0.0,0.0,0.0
0.8599999999999999,-0.9046464000000001,-7.427976000000001,5.476036800000001,-4.8304704,0.0,0.0,0.0,0.0
0.8799999999999999,-0.819912,-7.2652128,5.638800000000001,-4.984089600000001,0.0,0.0,0.0,0.0
0.8999999999999999,-0.7607808,-7.3737216000000005,5.7470040000000004,-4.523841600000001,0.0,0.0,0.0,0.0
0.9199999999999999,-0.7760208,-7.3194672,5.801258400000001,-4.2937176,0.0,0.0,0.0,0.0
0.94,-0.81534,-7.3194672,6.018276,-4.6006512,0.0,0.0,0.0,0.0
0.96,-0.725424,-7.1024496,5.9097672,-4.6006512,0.0,0.0,0.0,0.0
0.98,-0.6016752000000001,-6.9942456,6.018276,-4.7539656,0.0,0.0,0.0,0.0
1.0,-0.5864352,-6.9942456,6.1267848,-4.677156,0.0,0.0,0.0,0.0
1.02,-0.588264,-7.1024496,6.1267848,-4.677156,0.0,0.0,0.0,0.0
1.04,-0.6946392,-7.3737216000000005,5.8555128,-4.6006512,0.0,0.0,0.0,0.0
1.06,-0.8461248,-7.1024496,5.6930544,-4.677156,0.0,0.0,0.0,0.0
1.08,-0.999744,-7.156704,5.964021600000001,-4.677156,0.0,0.0,0.0,0.0
1.1,-1.1021568,-6.9942456,5.9097672,-4.7539656,0.0,0.0,0.0,0.0
1.12,-1.0317479999999999,-7.156704,5.7470040000000004,-4.907280000000001,0.0,0.0,0.0,0.0
1.1400000000000001,-0.9930384000000001,-7.3737216000000005,5.7470040000000004,-4.677156,0.0,0.0,0.0,0.0
1.1600000000000001,-1.0411968,-7.427976000000001,5.801258400000001,-4.4473368,0.0,0.0,0.0,0.0
1.1800000000000002,-0.9204960000000001,-7.210958400000001,6.2349888,-4.2172128,0.0,0.0,0.0,0.0
1.2000000000000002,-0.8607551999999999,-7.427976000000001,5.5845456,-4.8304704,0.0,0.0,0.0,0.0
1.2200000000000002,-0.8266176,-7.1024496,5.367528,-5.060594400000001,0.0,0.0,0.0,0.0
1.2400000000000002,-0.719328,-7.4822304,5.8555128,-4.6006512,0.0,0.0,0.0,0.0
1.2600000000000002,-0.7866888000000001,-7.4822304,5.638800000000001,-4.6006512,0.0,0.0,0.0,0.0
1.2800000000000002,-0.7741920000000001,-7.3737216000000005,5.638800000000001,-4.4473368,0.0,0.0,0.0,0.0
1.3000000000000003,-0.9345168,-7.3194672,5.6930544,-4.6006512,0.0,0.0,0.0,0.0
1.3200000000000003,-0.9116568,-6.9399912,5.8555128,-4.907280000000001,0.0,0.0,0.0,0.0
1.3399999999999999,-0.893064,-7.048500000000001,5.964021600000001,-4.8304704,0.0,0.0,0.0,0.0
1.3599999999999999,-0.9290304,-7.210958400000001,5.9097672,-4.7539656,0.0,0.0,0.0,0.0
1.38,-0.7842504,-7.1024496,5.801258400000001,-4.677156,0.0,0.0,0.0,0.0
1.4,-0.9781032000000001,-7.2652128,5.7470040000000004,-4.8304704,0.0,0.0,0.0,0.0
1.42,-0.996696,-7.1024496,5.476036800000001,-4.8304704,0.0,0.0,0.0,0.0
1.44,-0.818388,-6.9942456,6.1267848,-4.8304704,0.0,0.0,0.0,0.0
1.46,-0.7333488000000001,-7.3737216000000005,5.7470040000000004,-4.677156,0.0,0.0,0.0,0.0
1.48,-0.7848600000000001,-6.9942456,6.1267848,-4.370527200000001,0.0,0.0,0.0,0.0
1.5,-0.7592568000000001,-7.5904344,6.0725304,-4.2937176,0.0,0.0,0.0,0.0
1.52,-0.7568184000000001,-7.427976000000001,5.801258400000001,-4.523841600000001,0.0,0.0,0.0,0.0
1.54,-0.809244,-7.427976000000001,5.367528,-4.907280000000001,0.0,0.0,0.0,0.0
1.56,-0.9073896,-7.427976000000001,5.5845456,-4.7539656,0.0,0.0,0.0,0.0
1.58,-0.8272272,-7.3194672,5.6930544,-4.7539656,0.0,0.0,0.0,0.0
1.6,-0.8994648000000001,-7.2652128,5.964021600000001,-4.523841600000001,0.0,0.0,0.0,0.0
1.62,-0.803148,-7.210958400000001,5.801258400000001,-4.677156,0.0,0.0,0.0,0.0
1.6400000000000001,-0.7821168,-7.3194672,5.476036800000001,-4.7539656,0.0,0.0,0.0,0.0
1.6600000000000001,-0.7607808,-7.210958400000001,5.5845456,-4.984089600000001,0.0,0.0,0.0,0.0
1.6800000000000002,-0.8330184,-7.156704,5.638800000000001,-4.7539656,0.0,0.0,0.0,0.0
1.7000000000000002,-0.6693408,-7.210958400000001,5.801258400000001,-4.7539656,0.0,0.0,0.0,0.0
1.7200000000000002,-0.6986015999999999,-7.156704,6.0725304,-4.6006512,0.0,0.0,0.0,0.0
1.7400000000000002,-0.6906768000000001,-7.210958400000001,5.9097672,-4.6006512,0.0,0.0,0.0,0.0
1.7600000000000002,-0.7220711999999999,-7.210958400000001,5.9097672,-4.6006512,0.0,0.0,0.0,0.0
1.7800000000000002,-0.6260591999999999,-7.2652128,5.7470040000000004,-4.677156,0.0,0.0,0.0,0.0
1.8000000000000003,-0.4721352,-7.2652128,5.7470040000000004,-4.6006512,0.0,0.0,0.0,0.0
1.8200000000000003,-0.420624,-7.3194672,5.9097672,-4.6006512,0.0,0.0,0.0,0.0
1.8399999999999999,-0.26822399999999996,-7.156704,5.964021600000001,-4.677156,0.0,0.0,0.0,0.0
1.8599999999999999,-0.17068800000000003,-7.3194672,5.801258400000001,-4.523841600000001,0.0,0.0,0.0,0.0
1.88,-0.1575816,-7.1024496,5.801258400000001,-4.677156,0.0,0.0,0.0,0.0
1.9,-0.2587752,-7.3194672,5.6930544,-4.8304704,0.0,0.0,0.0,0.0
1.92,-0.21427440000000003,-7.156704,5.638800000000001,-4.8304704,0.0,0.0,0.0,0.0
1.94,-0.37338,-7.1024496,5.801258400000001,-4.907280000000001,0.0,0.0,0.0,0.0
1.96,-0.19751039999999997,-7.156704,5.7470040000000004,-4.7539656,0.0,0.0,0.0,0.0
1.98,-0.20116799999999999,-7.3737216000000005,5.8555128,-4.677156,0.0,0.0,0.0,0.0
2.0,-0.28864560000000006,-7.427976000000001,5.5845456,-4.7539656,0.0,0.0,0.0,0.0
2.02,-0.36545520000000004,-7.3737216000000005,5.638800000000001,-4.6006512,0.0,0.0,0.0,0.0
2.04,-0.27371039999999996,-7.3194672,5.801258400000001,-4.677156,0.0,0.0,0.0,0.0
2.06,-0.3026664,-7.3194672,5.9097672,-4.523841600000001,0.0,0.0,0.0,0.0
2.08,-0.4456176,-7.3194672,5.9097672,-4.6006512,0.0,0.0,0.0,0.0
2.1,-0.28864560000000006,-7.3737216000000005,5.964021600000001,-4.523841600000001,0.0,0.0,0.0,0.0
2.12,-0.2441448,-7.3737216000000005,6.0725304,-4.523841600000001,0.0,0.0,0.0,0.0
2.14,-0.163068,-7.1024496,5.9097672,-4.8304704,0.0,0.0,0.0,0.0
2.16,-0.06675119999999996,-7.156704,5.8555128,-4.907280000000001,0.0,0.0,0.0,0.0
2.18,-0.045719999999999976,-7.3194672,5.801258400000001,-4.8304704,0.0,0.0,0.0,0.0
2.2,0.0003047999999999664,-7.2652128,5.8555128,-4.8304704,0.0,0.0,0.0,0.0
2.2199999999999998,-0.019202400000000053,-7.3194672,5.6930544,-4.8304704,0.0,0.0,0.0,0.0
2.24,-0.15514319999999998,-7.210958400000001,5.476036800000001,-5.2139088000000005,0.0,0.0,0.0,0.0
2.26,-0.1304544,-7.3194672,5.5845456,-4.907280000000001,0.0,0.0,0.0,0.0
2.2800000000000002,0.0027431999999999687,-7.3194672,5.6930544,-4.677156,0.0,0.0,0.0,0.0
2.3,-0.059435999999999954,-7.3194672,5.6930544,-4.677156,0.0,0.0,0.0,0.0
2.3200000000000003,-0.143256,-6.9399912,5.7470040000000004,-4.907280000000001,0.0,0.0,0.0,0.0
2.34,-0.13014960000000003,-6.9399912,5.638800000000001,-5.060594400000001,0.0,0.0,0.0,0.0
2.3600000000000003,-0.11978639999999995,-6.9399912,5.638800000000001,-4.8304704,0.0,0.0,0.0,0.0
2.38,-0.007619999999999973,-7.2652128,5.8555128,-4.4473368,0.0,0.0,0.0,0.0
2.4000000000000004,0.04663440000000001,-7.210958400000001,6.2349888,-4.523841600000001,0.0,0.0,0.0,0.0
2.42,0.05486400000000005,-7.3194672,6.018276,-4.1404032,0.0,0.0,0.0,0.0
2.4400000000000004,-0.06339840000000006,-7.3737216000000005,5.964021600000001,-4.370527200000001,0.0,0.0,0.0,0.0
2.46,-0.03962399999999997,-7.210958400000001,6.018276,-4.984089600000001,0.0,0.0,0.0,0.0
2.48,-0.02346959999999999,-7.427976000000001,5.5845456,-4.677156,0.0,0.0,0.0,0.0
2.5,0.02590799999999999,-7.5364848,5.476036800000001,-4.6006512,0.0,0.0,0.0,0.0
2.52,0.029260800000000028,-7.4822304,5.7470040000000004,-4.6006512,0.0,0.0,0.0,0.0
2.54,0.030784799999999994,-7.427976000000001,5.801258400000001,-4.7539656,0.0,0.0,0.0,0.0
2.56,0.07924800000000007,-7.3194672,5.476036800000001,-4.8304704,0.0,0.0,0.0,0.0
2.58,0.08046720000000007,-7.156704,5.421782400000001,-4.907280000000001,0.0,0.0,0.0,0.0
2.6,0.06766559999999999,-7.2652128,5.5302912,-5.060594400000001,0.0,0.0,0.0,0.0
2.62,-0.06736080000000003,-7.156704,5.638800000000001,-5.060594400000001,0.0,0.0,0.0,0.0
2.64,-0.004876800000000005,-7.2652128,5.638800000000001,-4.677156,0.0,0.0,0.0,0.0
2.66,-0.13716000000000006,-7.1024496,5.801258400000001,-4.7539656,0.0,0.0,0.0,0.0
2.68,-0.22402799999999998,-7.156704,5.964021600000001,-4.677156,0.0,0.0,0.0,0.0
2.7,-0.24018240000000002,-7.2652128,5.964021600000001,-4.523841600000001,0.0,0.0,0.0,0.0
2.7199999999999998,-0.1789176,-7.156704,5.964021600000001,-4.523841600000001,0.0,0.0,0.0,0.0
2.74,-0.2109216,-7.2652128,5.964021600000001,-4.677156,0.0,0.0,0.0,0.0
2.76,-0.12649200000000002,-7.156704,5.8555128,-4.523841600000001,0.0,0.0,0.0,0.0
2.7800000000000002,0.1414272,-7.2652128,5.7470040000000004,-4.2937176,0.0,0.0,0.0,0.0
2.8,0.010363200000000078,-7.3194672,5.9097672,-4.370527200000001,0.0,0.0,0.0,0.0
2.8200000000000003,0.06126480000000002,-7.3737216000000005,5.964021600000001,-4.6006512,0.0,0.0,0.0,0.0
2.84,-0.0652272,-7.3194672,5.5845456,-4.7539656,0.0,0.0,0.0,0.0
2.8600000000000003,-0.19019519999999998,-6.9942456,5.367528,-5.367223200000001,0.0,0.0,0.0,0.0
2.88,-0.0688848,-6.9942456,5.367528,-5.4440328000000004,0.0,0.0,0.0,0.0
2.9000000000000004,-0.10728959999999997,-7.210958400000001,5.476036800000001,-4.8304704,0.0,0.0,0.0,0.0
2.92,-0.18531839999999997,-7.3194672,5.6930544,-4.6006512,0.0,0.0,0.0,0.0
2.9400000000000004,-0.008534400000000008,-7.2652128,5.964021600000001,-4.677156,0.0,0.0,0.0,0.0
2.96,-0.10424160000000003,-7.3194672,5.6930544,-4.907280000000001,0.0,0.0,0.0,0.0
2.98,-0.20208240000000002,-7.210958400000001,5.6930544,-4.984089600000001,0.0,0.0,0.0,0.0
3.0,-0.3273552,-7.2652128,5.7470040000000004,-4.677156,0.0,0.0,0.0,0.0
3.02,-0.3005328,-7.210958400000001,5.9097672,-4.4473368,0.0,0.0,0.0,0.0
3.04,-0.5629656000000001,-7.2652128,6.1807343999999995,-4.2937176,0.0,0.0,0.0,0.0
3.06,-0.6483095999999999,-7.156704,6.0725304,-4.2172128,0.0,0.0,0.0,0.0
3.08,-0.7019544,-7.3194672,6.018276,-4.370527200000001,0.0,0.0,0.0,0.0
3.1,-0.7299960000000001,-7.3194672,5.801258400000001,-4.7539656,0.0,0.0,0.0,0.0
3.12,-0.7918704,-7.3737216000000005,5.5302912,-4.7539656,0.0,0.0,0.0,0.0
3.14,-0.6824472,-7.156704,5.638800000000001,-4.7539656,0.0,0.0,0.0,0.0
3.16,-0.5020056,-7.2652128,5.8555128,-4.7539656,0.0,0.0,0.0,0.0
3.18,-0.5897880000000001,-7.210958400000001,5.6930544,-4.7539656,0.0,0.0,0.0,0.0
3.2,-0.6196584,-7.048500000000001,5.7470040000000004,-4.984089600000001,0.0,0.0,0.0,0.0
3.22,-0.6096,-6.9399912,5.5302912,-4.984089600000001,0.0,0.0,0.0,0.0
3.24,-0.6114288,-7.2652128,5.5302912,-5.060594400000001,0.0,0.0,0.0,0.0
3.2600000000000002,-0.5455920000000001,-7.156704,5.638800000000001,-4.907280000000001,0.0,0.0,0.0,0.0
3.2800000000000002,-0.5913120000000001,-7.4822304,5.7470040000000004,-4.4473368,0.0,0.0,0.0,0.0
3.3,-0.512064,-7.3194672,5.9097672,-4.4473368,0.0,0.0,0.0,0.0
3.3200000000000003,-0.3435096,-7.3194672,5.6930544,-4.523841600000001,0.0,0.0,0.0,0.0
3.34,-0.3523488,-7.3737216000000005,5.7470040000000004,-4.6006512,0.0,0.0,0.0,0.0
3.3600000000000003,-0.48859440000000004,-7.2652128,5.7470040000000004,-4.677156,0.0,0.0,0.0,0.0
3.38,-0.6592823999999999,-7.2652128,5.8555128,-4.8304704,0.0,0.0,0.0,0.0
3.4,-0.5553456,-7.2652128,5.8555128,-4.6006512,0.0,0.0,0.0,0.0
3.42,-0.5096256,-7.2652128,5.8555128,-4.6006512,0.0,0.0,0.0,0.0
3.44,-0.5443728,-7.2652128,5.8555128,-4.7539656,0.0,0.0,0.0,0.0
3.46,-0.4748784,-6.9942456,5.9097672,-4.984089600000001,0.0,0.0,0.0,0.0
3.48,-0.6208776,-7.048500000000001,5.8555128,-5.060594400000001,0.0,0.0,0.0,0.0
3.5,-0.6321552,-7.2652128,5.8555128,-4.8304704,0.0,0.0,0.0,0.0
3.52,-0.6739128,-7.427976000000001,5.6930544,-4.677156,0.0,0.0,0.0,0.0
3.54,-0.7034784,-7.5364848,5.801258400000001,-4.2937176,0.0,0.0,0.0,0.0
3.56,-0.675132,-7.3194672,5.6930544,-4.4473368,0.0,0.0,0.0,0.0
3.58,-0.7327392,-7.210958400000001,5.476036800000001,-4.907280000000001,0.0,0.0,0.0,0.0
3.6,-0.7424928000000001,-7.210958400000001,5.6930544,-4.984089600000001,0.0,0.0,0.0,0.0
3.62,-0.6092952,-7.210958400000001,5.801258400000001,-4.7539656,0.0,0.0,0.0,0.0
3.64,-0.553212,-7.3194672,5.801258400000001,-4.523841600000001,0.0,0.0,0.0,0.0
3.66,-0.5955792,-7.427976000000001,5.9097672,-4.370527200000001,0.0,0.0,0.0,0.0
3.68,-0.6467856,-7.3194672,5.801258400000001,-4.677156,0.0,0.0,0.0,0.0
3.7,-0.6513576,-7.048500000000001,5.5302912,-4.907280000000001,0.0,0.0,0.0,0.0
3.72,-0.6400800000000001,-7.048500000000001,5.638800000000001,-5.060594400000001,0.0,0.0,0.0,0.0
3.74,-0.5961888,-7.1024496,5.801258400000001,-4.677156,0.0,0.0,0.0,0.0
3.7600000000000002,-0.4279392,-7.4822304,5.8555128,-4.2937176,0.0,0.0,0.0,0.0
3.7800000000000002,-0.41696639999999996,-7.3194672,5.9097672,-4.523841600000001,0.0,0.0,0.0,0.0
3.8,-0.475488,-7.3737216000000005,5.964021600000001,-4.677156,0.0,0.0,0.0,0.0
3.8200000000000003,-0.51054,-7.210958400000001,5.6930544,-4.677156,0.0,0.0,0.0,0.0
3.84,-0.62484,-7.210958400000001,5.476036800000001,-4.984089600000001,0.0,0.0,0.0,0.0
3.86,-0.6345936,-7.210958400000001,5.5845456,-4.7539656,0.0,0.0,0.0,0.0
3.88,-0.6382512,-7.3194672,6.018276,-4.677156,0.0,0.0,0.0,0.0
3.9,-0.7260336000000001,-7.3194672,5.9097672,-4.370527200000001,0.0,0.0,0.0,0.0
3.92,-0.8747760000000001,-7.427976000000001,5.801258400000001,-4.370527200000001,0.0,0.0,0.0,0.0
3.94,-1.0363200000000001,-7.1024496,5.6930544,-4.7539656,0.0,0.0,0.0,0.0
3.96,-1.0777728,-7.2652128,5.8555128,-4.8304704,0.0,0.0,0.0,0.0
3.98,-1.11252,-7.2652128,5.638800000000001,-4.907280000000001,0.0,0.0,0.0,0.0
4.0,-1.0479024,-7.2652128,5.8555128,-4.523841600000001,0.0,0.0,0.0,0.0
4.0200000000000005,-1.0692384000000001,-7.3737216000000005,5.8555128,-4.4473368,0.0,0.0,0.0,0.0
4.04,-1.0960608,-7.3737216000000005,5.8555128,-4.523841600000001,0.0,0.0,0.0,0.0
4.0600000000000005,-1.0460736,-7.1024496,6.1267848,-4.677156,0.0,0.0,0.0,0.0
4.08,-1.0643616,-8.4582,5.638800000000001,-5.060594400000001,0.0,0.0,0.0,0.0
4.1,-1.0219944,-6.668719200000001,5.801258400000001,-5.137404,0.0,0.0,0.0,0.0
4.12,-1.1381232000000001,-8.1326736,7.4822304,-6.364224,0.0,0.0,0.0,0.0
4.14,-1.0253472000000001,-15.7234128,12.5787912,-11.501323200000002,0.0,0.0,0.0,0.0
4.16,-0.9659112000000001,-22.771608,22.012656,-15.948660000000002,0.0,0.0,0.0,0.0
4.18,-0.9561576,-33.0732384,26.458468800000002,-22.772827200000002,0.0,0.0,0.0,0.0
4.2,-0.9598152000000001,-39.308227200000005,30.958536,-32.357263200000006,0.0,0.0,0.0,0.0
4.22,-1.016508,-48.688142400000004,34.157412,-44.16552,0.0,0.0,0.0,0.0
4.24,-0.8369808000000001,-53.8386528,38.007036,-48.842676000000004,0.0,0.0,0.0,0.0
4.26,-0.5647944,-51.9952224,34.1031576,-52.29331680000001,0.0,0.0,0.0,0.0
4.28,-0.25633680000000003,-66.417444,43.3203096,-50.1463056,0.0,0.0,0.0,0.0
4.3,-0.043281599999999976,-71.6764632,40.555164000000005,-37.034724,0.0,0.0,0.0,0.0
4.32,0.1033272,-85.0142064,40.555164000000005,-46.695969600000005,0.0,0.0,0.0,0.0
4.34,0.046024800000000074,-73.6284024,26.349960000000003,-17.17548,0.0,0.0,0.0,0.0
4.36,0.5257799999999999,-82.68279120000001,18.5967624,-33.660892800000006,0.0,0.0,0.0,0.0
4.38,1.0222992000000002,-89.8940544,10.5183432,-29.980432800000003,0.0,0.0,0.0,0.0
4.4,1.0079736000000001,-64.3030464,46.085455200000006,-48.1526088,0.0,0.0,0.0,0.0
4.42,0.941832,-74.9295936,39.145464000000004,-39.488364000000004,0.0,0.0,0.0,0.0
4.44,0.9320784,-76.393548,35.6213664,-41.2519368,0.0,0.0,0.0,0.0
4.46,0.9933432000000002,-71.40549600000001,39.633448800000004,-43.4754528,0.0,0.0,0.0,0.0
4.48,0.8994648,-74.224896,38.549275200000004,-43.5519576,0.0,0.0,0.0,0.0
4.5,0.9741407999999999,-77.9117568,39.416736,-43.8588912,0.0,0.0,0.0,0.0
4.5200000000000005,1.05156,-74.9295936,42.5071032,-44.9323968,0.0,0.0,0.0,0.0
4.54,1.3048488,-74.1163872,40.501214399999995,-43.4754528,0.0,0.0,0.0,0.0
4.5600000000000005,1.5861792,-76.66482,40.6636728,-45.92909280000001,0.0,0.0,0.0,0.0
4.58,1.8223992000000002,-77.2610088,41.2601664,-45.6989688,0.0,0.0,0.0,0.0
4.6,2.1588984,-77.6947392,41.043148800000004,-46.235721600000005,0.0,0.0,0.0,0.0
4.62,2.6368248,-78.1284696,42.452848800000005,-45.392340000000004,0.0,0.0,0.0,0.0
4.640000000000001,3.006852,-77.6947392,41.3686752,-47.9227896,0.0,0.0,0.0,0.0
4.66,3.3665160000000007,-79.9719,42.7783752,-46.4658456,0.0,0.0,0.0,0.0
4.68,3.7587936000000006,-79.9719,42.452848800000005,-46.0824072,0.0,0.0,0.0,0.0
4.7,4.0450008,-79.4839152,42.5071032,-45.545654400000004,0.0,0.0,0.0,0.0
4.72,4.4055792,-81.70712639999999,43.2121056,-47.615856,0.0,0.0,0.0,0.0
4.74,4.8405288,-81.9238392,43.5373272,-47.615856,0.0,0.0,0.0,0.0
4.76,5.3163216,-82.4660784,43.75404,-47.3092272,0.0,0.0,0.0,0.0
4.78,5.8917839999999995,-83.38779360000001,44.350533600000006,-47.615856,0.0,0.0,0.0,0.0
4.8,6.435852,-82.8455544,45.76023360000001,-47.46254160000001,0.0,0.0,0.0,0.0
4.82,7.0177152000000005,-83.442048,44.29627920000001,-48.3827328,0.0,0.0,0.0,0.0
4.84,7.6075032,-85.1769696,45.597470400000006,-48.2294184,0.0,0.0,0.0,0.0
4.86,7.959852,-86.369652,44.7300096,-49.6095528,0.0,0.0,0.0,0.0
4.88,8.5456776,-85.0142064,44.5675512,-50.06949600000001,0.0,0.0,0.0,0.0
4.9,8.9772744,-84.851748,43.428818400000004,-48.91948560000001,0.0,0.0,0.0,0.0
4.92,9.186062399999999,-85.88166720000001,44.2420248,-49.9161816,0.0,0.0,0.0,0.0
4.94,9.7462848,-86.1529392,44.0795664,-49.456238400000004,0.0,0.0,0.0,0.0
4.96,10.158984,-87.779352,44.6218056,-49.9161816,0.0,0.0,0.0,0.0
4.98,10.5244392,-88.70106720000001,44.8927728,-49.9161816,0.0,0.0,0.0,0.0
5.0,11.2108488,-88.2130824,44.29627920000001,-50.6062488,0.0,0.0,0.0,0.0
5.02,11.8774464,-89.8940544,46.193964,-50.9896872,0.0,0.0,0.0,0.0
5.04,12.545872800000001,-88.26733680000001,44.8927728,-50.8363728,0.0,0.0,0.0,0.0
5.0600000000000005,13.223748,-89.7855456,43.80829440000001,-51.296316,0.0,0.0,0.0,0.0
5.08,14.092428,-89.67703680000001,43.5915816,-52.3698216,0.0,0.0,0.0,0.0
5.1,14.95044,-89.13479760000001,44.2420248,-52.4466312,0.0,0.0,0.0,0.0
5.12,15.679521600000001,-88.15882800000001,41.422929599999996,-51.9863832,0.0,0.0,0.0,0.0
5.140000000000001,16.5847776,-89.94800400000001,43.3203096,-51.449630400000004,0.0,0.0,0.0,0.0
5.16,17.424501600000003,-89.83980000000001,43.428818400000004,-51.6797544,0.0,0.0,0.0,0.0
5.18,18.236184,-90.1650216,43.645836,-53.3665176,0.0,0.0,0.0,0.0
5.2,19.0265304,-90.54449760000001,43.916803200000004,-53.5201368,0.0,0.0,0.0,0.0
5.22,19.9817736,-91.35770400000001,44.29627920000001,-52.906574400000004,0.0,0.0,0.0,0.0
5.24,21.064728000000002,-94.99031040000001,41.6396424,-55.053585600000005,0.0,0.0,0.0,0.0
5.26,21.934932000000003,-91.35770400000001,44.0795664,-52.3698216,0.0,0.0,0.0,0.0
5.28,22.834092000000002,-90.1650216,42.669866400000004,-52.8300696,0.0,0.0,0.0,0.0
5.3,23.961852000000004,-91.2495,43.1035968,-51.3731256,0.0,0.0,0.0,0.0
5.32,25.077420000000004,-89.24330640000001,42.2903904,-51.3731256,0.0,0.0,0.0,0.0
5.34,26.310336000000003,-88.86383040000001,44.5132968,-49.9161816,0.0,0.0,0.0,0.0
5.36,27.378660000000004,-85.1227152,42.0733728,-48.842676000000004,0.0,0.0,0.0,0.0
5.38,28.441802400000004,-86.8033824,40.9349448,-47.46254160000001,0.0,0.0,0.0,0.0
5.4,29.6728896,-87.29136720000001,41.6396424,-47.1559128,0.0,0.0,0.0,0.0
5.42,30.996331200000004,-81.1106328,40.6636728,-45.7757784,0.0,0.0,0.0,0.0
5.44,32.284111200000005,-80.7311568,39.1997184,-45.085711200000006,0.0,0.0,0.0,0.0
5.46,33.639252000000006,-81.1648872,41.91060960000001,-43.398643199999995,0.0,0.0,0.0,0.0
5.48,34.939224,-79.59242400000001,38.2780032,-42.8618904,0.0,0.0,0.0,0.0
5.5,36.29375520000001,-76.8815328,41.0974032,-40.9450032,0.0,0.0,0.0,0.0
5.52,37.717476000000005,-75.25512,39.6877032,-41.2519368,0.0,0.0,0.0,0.0
5.54,39.004646400000006,-75.5260872,35.4046536,-40.0251168,0.0,0.0,0.0,0.0
5.5600000000000005,40.2512784,-72.0019896,36.976812,-39.8718024,0.0,0.0,0.0,0.0
5.58,41.564052,-70.53803520000001,35.946588000000006,-39.641678399999996,0.0,0.0,0.0,0.0
5.6,42.9832008,-72.2187024,31.229808,-39.9483072,0.0,0.0,0.0,0.0
5.62,44.5260984,-67.61012640000001,36.2721144,-38.7982968,0.0,0.0,0.0,0.0
5.640000000000001,46.0336392,-68.4236376,33.39846,-37.417857600000005,0.0,0.0,0.0,0.0
5.66,47.6106744,-67.0139376,33.8321904,-39.25824000000001,0.0,0.0,0.0,0.0
5.68,49.1666784,-65.658492,33.3442056,-38.261544,0.0,0.0,0.0,0.0
5.7,50.8031496,-64.8992352,32.5852536,-38.031420000000004,0.0,0.0,0.0,0.0
5.72,52.435048800000004,-63.6522984,30.4705512,-37.1880384,0.0,0.0,0.0,0.0
5.74,54.1897824,-65.658492,26.9464536,-36.7277904,0.0,0.0,0.0,0.0
5.76,55.831130400000006,-62.242598400000006,30.036820800000005,-36.9579144,0.0,0.0,0.0,0.0
5.78,57.478269600000004,-61.9173768,30.1453296,-35.7310944,0.0,0.0,0.0,0.0
5.8,59.029092,-62.3511072,28.518916800000003,-35.6545896,0.0,0.0,0.0,0.0
5.82,60.7249992,-61.10417040000001,27.705405600000002,-35.807904,0.0,0.0,0.0,0.0
5.84,62.6495064,-59.5317072,30.2538384,-34.120836,0.0,0.0,0.0,0.0
5.86,64.5788904,-55.6278288,27.8681688,-33.5840832,0.0,0.0,0.0,0.0
5.88,66.4186632,-59.423198400000004,31.121299200000003,-32.0506344,0.0,0.0,0.0,0.0
5.9,68.4056544,-56.98357920000001,28.898392800000003,-32.9708256,0.0,0.0,0.0,0.0
5.92,70.3457064,-56.98357920000001,26.5127232,-30.2870616,0.0,0.0,0.0,0.0
5.94,72.40249680000001,-53.4591768,31.012790400000004,-31.2837576,0.0,0.0,0.0,0.0
5.96,74.3748576,-51.29052480000001,27.2177256,-29.5204896,0.0,0.0,0.0,0.0
5.98,76.48956,-50.9110488,27.5972016,-29.2903656,0.0,0.0,0.0,0.0
6.0,78.47411280000001,-50.4773184,26.837944800000002,-29.5204896,0.0,0.0,0.0,0.0
6.02,80.57509920000001,-48.959109600000005,23.259592800000004,-29.0602416,0.0,0.0,0.0,0.0
6.04,82.50539760000001,-46.8989664,24.560784,-28.523488800000003,0.0,0.0,0.0,0.0
6.0600000000000005,84.6941664,-46.4109816,23.422356,-28.370174400000003,0.0,0.0,0.0,0.0
6.08,86.7558336,-44.8927728,21.0366864,-27.986736,0.0,0.0,0.0,0.0
6.1,88.71630720000002,-43.80829440000001,20.8199736,-26.8367256,0.0,0.0,0.0,0.0
6.12,90.87733920000001,-41.6396424,19.952208,-26.376477600000005,0.0,0.0,0.0,0.0
6.140000000000001,93.00453840000002,-43.4830728,17.3498256,-23.693018400000003,0.0,0.0,0.0,0.0
6.16,95.042736,-44.1338208,19.844004,-27.449983200000002,0.0,0.0,0.0,0.0
6.18,96.94285920000002,-39.4709904,19.4102736,-22.0059504,0.0,0.0,0.0,0.0
6.2,98.9545392,-38.8744968,16.319601600000002,-22.08276,0.0,0.0,0.0,0.0
6.220000000000001,101.26736160000002,-36.597336,17.6210976,-18.8622432,0.0,0.0,0.0,0.0
6.24,103.38236880000002,-33.6694272,16.645128,-17.942356800000002,0.0,0.0,0.0,0.0
6.26,105.60039840000002,-32.5852536,12.8497584,-16.6387272,0.0,0.0,0.0,0.0
6.28,108.0311784,-26.566977600000005,12.144756000000001,-16.7920416,0.0,0.0,0.0,0.0
6.300000000000001,110.47171200000001,-27.9224232,15.994380000000001,-12.804952800000002,0.0,0.0,0.0,0.0
6.32,112.94699280000002,-21.849892800000003,10.681106400000001,-11.1181896,0.0,0.0,0.0,0.0
6.34,115.39087920000001,-21.199449600000005,11.3315496,-8.817864,0.0,0.0,0.0,0.0
6.359999999999999,117.7866072,-8.024164800000001,7.048500000000001,-8.2043016,0.0,0.0,0.0,0.0
6.38,120.32863920000001,-3.9035736000000005,2.6023824,-4.7539656,0.0,0.0,0.0,0.0
6.4,122.739912,-0.0542544,1.4639544,-1.9936968000000002,0.0,0.0,0.0,0.0
6.42,125.07620400000002,1.6264128000000002,-0.9759696,-1.0735056,0.0,0.0,0.0,0.0
6.4399999999999995,127.196088,3.5240976,-1.8976848000000002,0.23012400000000002,0.0,0.0,0.0,0.0
6.46,129.28610160000002,5.5845456,-2.7651456,-1.9168872,0.0,0.0,0.0,0.0
6.48,131.4925488,5.367528,-2.4399240000000004,0.8433816000000001,0.0,0.0,0.0,0.0
6.5,133.7977512,6.777228,-2.2229064000000003,-1.3036296,0.0,0.0,0.0,0.0
6.52,135.9276936,7.210958400000001,-1.3554456000000001,1.9168872,0.0,0.0,0.0,0.0
6.54,138.0936024,7.048500000000001,-2.2771608000000003,2.0702016,0.0,0.0,0.0,0.0
6.5600000000000005,140.32992000000002,7.2652128,-2.9279088,2.6069544000000002,0.0,0.0,0.0,0.0
6.58,142.5863544,10.0846128,-0.1085088,3.9870888,0.0,0.0,0.0,0.0
6.6,144.91075920000003,8.7834216,-1.8434304000000001,2.4536400000000005,0.0,0.0,0.0,0.0
6.62,147.27204480000003,6.7229735999999995,-0.8674608,-0.23012400000000002,0.0,0.0,0.0,0.0
6.640000000000001,149.75128800000002,6.0725304,-0.4337304,1.6102584000000002,0.0,0.0,0.0,0.0
6.66,152.2692408,5.6930544,-2.4399240000000004,-0.6900672,0.0,0.0,0.0,0.0
6.68,154.74269280000001,3.5240976,-1.4639544,-1.6867632000000001,0.0,0.0,0.0,0.0
6.7,157.433772,16.970349600000002,-8.837676,-8.817864,0.0,0.0,0.0,0.0
6.720000000000001,160.0980288,10.843564800000001,-4.445812800000001,-0.7668768,0.0,0.0,0.0,0.0
6.74,162.72449039999998,8.241182400000001,-4.6628304,-0.6900672,0.0,0.0,0.0,0.0
6.76,165.41252160000002,7.210958400000001,-4.608576,0.5367528,0.0,0.0,0.0,0.0
6.78,168.02100000000002,8.1326736,-3.3616392,2.1470112,0.0,0.0,0.0,0.0
6.800000000000001,170.7864504,8.4039456,-2.8736544000000004,0.6900672,0.0,0.0,0.0,0.0
6.82,173.4821016,7.3194672,-3.957828,0.6900672,0.0,0.0,0.0,0.0
6.84,176.2210344,6.9399912,-3.6868608000000003,1.9936968000000002,0.0,0.0,0.0,0.0
6.859999999999999,178.81853999999998,7.5364848,-3.7411152,0.9201912000000001,0.0,0.0,0.0,0.0
6.88,181.4782248,8.024164800000001,-3.6868608000000003,0.0768096,0.0,0.0,0.0,0.0
6.9,184.1040768,7.4822304,-4.2291,-0.4599432,0.0,0.0,0.0,0.0
6.92,186.6598248,7.5364848,-3.957828,0.8433816000000001,0.0,0.0,0.0,0.0
6.9399999999999995,189.2649504,7.048500000000001,-4.8795432000000005,0.6900672,0.0,0.0,0.0,0.0
6.96,191.80149600000001,7.4822304,-3.4698432,3.1437072,0.0,0.0,0.0,0.0
6.98,194.46514320000003,8.024164800000001,-4.8795432000000005,1.9936968000000002,0.0,0.0,0.0,0.0
7.0,197.1153792,7.6989432,-4.554321600000001,1.7635728,0.0,0.0,0.0,0.0
7.02,199.7272104,8.4582,-3.0361128,2.223516,0.0,0.0,0.0,0.0
7.04,202.49936639999999,6.4520064,-4.608576,2.3003256,0.0,0.0,0.0,0.0
7.0600000000000005,205.2270216,6.885736800000001,-4.8252888,1.2268200000000002,0.0,0.0,0.0,0.0
7.08,207.9415704,8.6206584,-3.0903671999999998,0.15331440000000002,0.0,0.0,0.0,0.0
7.1,210.58845359999998,7.6446888,-3.5240976,2.1470112,0.0,0.0,0.0,0.0
7.12,213.404196,6.9399912,-3.4698432,1.7635728,0.0,0.0,0.0,0.0
7.140000000000001,216.12209760000002,7.3194672,-2.6566368,3.2970216000000003,0.0,0.0,0.0,0.0
7.16,218.8119576,7.210958400000001,-3.3073848000000003,2.1470112,0.0,0.0,0.0,0.0
7.18,221.5127904,7.156704,-3.1446216000000002,1.0735056,0.0,0.0,0.0,0.0
7.2,224.194116,7.1024496,-2.548128,1.2268200000000002,0.0,0.0,0.0,0.0
7.220000000000001,226.8345984,6.9399912,-4.120591200000001,1.3036296,0.0,0.0,0.0,0.0
7.24,229.4638032,6.0725304,-3.0361128,0.23012400000000002,0.0,0.0,0.0,0.0
7.26,232.13598480000002,7.4822304,-3.3616392,1.4569440000000002,0.0,0.0,0.0,0.0
7.28,234.6322968,8.241182400000001,-2.3856696,1.6867632000000001,0.0,0.0,0.0,0.0
7.300000000000001,237.28100880000002,7.2652128,-1.6264128000000002,2.1470112,0.0,0.0,0.0,0.0
7.32,239.8824768,7.8617064,-1.789176,1.2268200000000002,0.0,0.0,0.0,0.0
7.34,242.5482576,7.753197600000001,-2.4399240000000004,0.8433816000000001,0.0,0.0,0.0,0.0
7.359999999999999,245.1073584,7.3737216000000005,-2.8194000000000004,-0.23012400000000002,0.0,0.0,0.0,0.0
7.38,247.7484504,7.156704,-3.6868608000000003,1.9168872,0.0,0.0,0.0,0.0
7.4,250.4779344,6.397752,-4.120591200000001,1.8400776,0.0,0.0,0.0,0.0
7.42,253.30586879999998,6.7229735999999995,-4.554321600000001,1.5334488,0.0,0.0,0.0,0.0
7.4399999999999995,256.0902168,6.506260800000001,-3.3616392,0.8433816000000001,0.0,0.0,0.0,0.0
7.46,258.74837759999997,6.2892432000000005,-4.988052,1.7635728,0.0,0.0,0.0,0.0
7.48,261.4623168,4.608576,-5.1508152,2.3768304000000002,0.0,0.0,0.0,0.0
7.5,264.2244144,8.295436800000001,-3.198876,1.1500104,0.0,0.0,0.0,0.0
7.52,266.9889504,4.988052,-3.9035736000000005,2.1470112,0.0,0.0,0.0,0.0
7.54,269.7934152,5.3132736,-4.8795432000000005,2.6069544000000002,0.0,0.0,0.0,0.0
7.5600000000000005,272.4278016,6.5605152,-5.259324,0.6900672,0.0,0.0,0.0,0.0
7.58,275.0310984,6.506260800000001,-3.6868608000000003,1.9168872,0.0,0.0,0.0,0.0
7.6,277.6721904,6.4520064,-3.198876,0.7668768,0.0,0.0,0.0,0.0
7.62,280.2053832,6.777228,-1.2469368,-0.0768096,0.0,0.0,0.0,0.0
7.640000000000001,282.8370264,6.1807343999999995,-1.9519392,0.9201912000000001,0.0,0.0,0.0,0.0
7.66,285.4119768,7.3737216000000005,-1.6264128000000002,-0.23012400000000002,0.0,0.0,0.0,0.0
7.68,288.1323168,7.048500000000001,-2.2771608000000003,0.15331440000000002,0.0,0.0,0.0,0.0
7.7,290.7880392,7.6989432,-2.4941784,-0.23012400000000002,0.0,0.0,0.0,0.0
7.720000000000001,293.39286,6.614769600000001,-2.9279088,0.4599432,0.0,0.0,0.0,0.0
7.74,296.0159688,6.2349888,-2.8736544000000004,1.6102584000000002,0.0,0.0,0.0,0.0
7.76,298.6561464,7.8617064,1.5724632,-1.2268200000000002,0.0,0.0,0.0,0.0
7.78,301.235364,4.5000672,-5.367528,2.3768304000000002,0.0,0.0,0.0,0.0
7.800000000000001,304.004472,6.777228,-2.2229064000000003,1.6102584000000002,0.0,0.0,0.0,0.0
7.82,306.694332,4.6628304,-3.1446216000000002,2.683764,0.0,0.0,0.0,0.0
7.84,309.4311312,6.2892432000000005,-1.9519392,0.8433816000000001,0.0,0.0,0.0,0.0
7.859999999999999,312.1127616,6.506260800000001,-2.0601432,3.2970216000000003,0.0,0.0,0.0,0.0
7.88,314.6432112,5.9097672,-2.548128,2.0702016,0.0,0.0,0.0,0.0
7.9,317.28186480000005,6.1807343999999995,-3.0361128,1.5334488,0.0,0.0,0.0,0.0
7.92,319.81292399999995,6.614769600000001,-2.6023824,1.0735056,0.0,0.0,0.0,0.0
7.9399999999999995,322.362576,4.933797600000001,-1.6806672000000002,1.3036296,0.0,0.0,0.0,0.0
7.96,324.8918064,5.0423064,-2.4399240000000004,1.1500104,0.0,0.0,0.0,0.0
7.98,327.4759008,6.4520064,-2.1143976,1.0735056,0.0,0.0,0.0,0.0
8.0,330.0468888,5.6930544,-2.6566368,0.5367528,0.0,0.0,0.0,0.0
8.02,332.5892256,6.777228,-1.3554456000000001,1.6867632000000001,0.0,0.0,0.0,0.0
8.04,335.3223672,5.259324,-3.4158936000000004,1.3036296,0.0,0.0,0.0,0.0
8.06,337.8244704,5.9097672,-2.3314152,0.996696,0.0,0.0,0.0,0.0
8.08,340.3460808,5.638800000000001,-4.554321600000001,-0.15331440000000002,0.0,0.0,0.0,0.0
8.1,342.92316480000005,6.2349888,-2.2229064000000003,0.5367528,0.0,0.0,0.0,0.0
8.120000000000001,345.63558,6.397752,-2.0601432,0.4599432,0.0,0.0,0.0,0.0
8.14,348.4147464,5.1508152,-3.8496240000000004,0.4599432,0.0,0.0,0.0,0.0
8.16,351.1125312,6.777228,-1.6806672000000002,0.4599432,0.0,0.0,0.0,0.0
8.18,353.63444640000006,6.885736800000001,-2.3314152,0.15331440000000002,0.0,0.0,0.0,0.0
8.2,356.2621272,4.988052,-1.9519392,0.4599432,0.0,0.0,0.0,0.0
8.219999999999999,358.90078079999995,6.397752,-2.4941784,1.8400776,0.0,0.0,0.0,0.0
8.24,361.488228,6.1267848,-2.2229064000000003,1.1500104,0.0,0.0,0.0,0.0
8.26,364.0116672,4.6628304,-3.0361128,0.996696,0.0,0.0,0.0,0.0
8.280000000000001,366.6753144,5.259324,-2.7651456,1.2268200000000002,0.0,0.0,0.0,0.0
8.3,369.2234424,6.1807343999999995,-2.3856696,0.5367528,0.0,0.0,0.0,0.0
8.32,371.73468959999997,5.638800000000001,-2.6023824,0.23012400000000002,0.0,0.0,0.0,0.0
8.34,374.3382912,5.421782400000001,-2.6023824,0.7668768,0.0,0.0,0.0,0.0
8.36,376.76388959999997,5.638800000000001,-2.2771608000000003,1.5334488,0.0,0.0,0.0,0.0
8.379999999999999,379.1861352,4.6628304,-1.5182088,2.1470112,0.0,0.0,0.0,0.0
8.4,381.6077712,4.8795432000000005,-2.3856696,1.6867632000000001,0.0,0.0,0.0,0.0
8.42,384.1437072,5.205069600000001,-3.6868608000000003,0.996696,0.0,0.0,0.0,0.0
8.440000000000001,386.7451752,4.6628304,-4.120591200000001,1.1500104,0.0,0.0,0.0,0.0
8.46,389.28476880000005,5.3132736,-2.8194000000000004,0.996696,0.0,0.0,0.0,0.0
8.48,391.83106799999996,5.8555128,-1.5182088,1.1500104,0.0,0.0,0.0,0.0
8.5,394.4322312,5.096560800000001,-2.7108912000000003,0.996696,0.0,0.0,0.0,0.0
8.52,396.9955992,5.096560800000001,-2.0601432,2.1470112,0.0,0.0,0.0,0.0
8.54,399.4809384,4.7170848,-2.9818584,0.6135624,0.0,0.0,0.0,0.0
8.56,402.0104736,3.7953696000000003,-2.7108912000000003,0.6900672,0.0,0.0,0.0,0.0
8.58,404.64486000000005,4.5000672,-2.548128,1.6102584000000002,0.0,0.0,0.0,0.0
8.6,407.12745600000005,5.5302912,-2.7108912000000003,0.6900672,0.0,0.0,0.0,0.0
8.620000000000001,409.7423352,4.012082400000001,-3.578352,1.0735056,0.0,0.0,0.0,0.0
8.64,412.260288,5.638800000000001,-1.7349216,0.7668768,0.0,0.0,0.0,0.0
8.66,414.93003120000003,5.259324,-0.7046976,1.0735056,0.0,0.0,0.0,0.0
8.68,417.3333792,3.957828,-2.3314152,1.8400776,0.0,0.0,0.0,0.0
8.7,419.68064400000003,5.205069600000001,-1.3011912,1.3801344,0.0,0.0,0.0,0.0
8.719999999999999,422.0952696,4.933797600000001,-3.4158936000000004,0.6135624,0.0,0.0,0.0,0.0
8.74,424.4943504,5.638800000000001,-1.4097000000000002,-0.5367528,0.0,0.0,0.0,0.0
8.76,426.9458568,4.7170848,-2.6566368,1.0735056,0.0,0.0,0.0,0.0
8.780000000000001,429.3516432,4.608576,-1.789176,0.4599432,0.0,0.0,0.0,0.0
8.8,431.714148,4.7170848,-2.7651456,-0.0768096,0.0,0.0,0.0,0.0
8.82,434.1772368,5.638800000000001,-1.3011912,0.7668768,0.0,0.0,0.0,0.0
8.84,436.5811944,4.988052,-1.8434304000000001,0.996696,0.0,0.0,0.0,0.0
8.86,439.01746080000004,4.1748456,-2.6566368,0.9201912000000001,0.0,0.0,0.0,0.0
8.879999999999999,441.44671680000005,3.957828,-2.3314152,0.6135624,0.0,0.0,0.0,0.0
8.9,443.755272,5.259324,-1.2469368,0.996696,0.0,0.0,0.0,0.0
8.92,446.29395120000004,6.0725304,0.2170176,0.6900672,0.0,0.0,0.0,0.0
8.940000000000001,448.75917360000005,3.6326064,-3.3073848000000003,1.4569440000000002,0.0,0.0,0.0,0.0
8.96,451.28809920000003,3.6326064,-2.3314152,0.0,0.0,0.0,0.0,0.0
8.98,453.7673424,4.3915584,-1.6806672000000002,0.3834384,0.0,0.0,0.0,0.0
9.0,456.22281119999997,5.638800000000001,-0.8674608,1.5334488,0.0,0.0,0.0,0.0
9.02,458.66547840000004,3.578352,-2.0601432,0.8433816000000001,0.0,0.0,0.0,0.0
9.04,461.0901624,5.0423064,-1.1387328,1.8400776,0.0,0.0,0.0,0.0
9.06,463.61543040000004,4.0663368,-2.6566368,1.9168872,0.0,0.0,0.0,0.0
9.08,466.01786400000003,4.3376088,-1.9519392,0.7668768,0.0,0.0,0.0,0.0
9.1,468.3157512,4.8795432000000005,-1.5182088,1.4569440000000002,0.0,0.0,0.0,0.0
9.120000000000001,470.77152480000007,4.3915584,-3.3073848000000003,0.6900672,0.0,0.0,0.0,0.0
9.14,473.0508192,4.7170848,-2.3314152,0.15331440000000002,0.0,0.0,0.0,0.0
9.16,475.29810960000003,5.421782400000001,-0.650748,1.2268200000000002,0.0,0.0,0.0,0.0
9.18,477.6069696,4.2291,-3.1446216000000002,0.6135624,0.0,0.0,0.0,0.0
9.2,479.8737672,4.6628304,-1.5182088,0.8433816000000001,0.0,0.0,0.0,0.0
9.219999999999999,482.31582480000003,5.421782400000001,-1.7349216,0.0,0.0,0.0,0.0,0.0
9.24,484.70118959999996,4.5000672,-1.789176,0.5367528,0.0,0.0,0.0,0.0
9.26,487.01340239999996,3.9035736000000005,-2.2771608000000003,0.9201912000000001,0.0,0.0,0.0,0.0
9.280000000000001,489.35304720000005,4.608576,-0.9217152000000001,1.2268200000000002,0.0,0.0,0.0,0.0
9.3,491.6603832,4.445812800000001,-1.7349216,1.0735056,0.0,0.0,0.0,0.0
9.32,493.9765584,3.4158936000000004,-2.2229064000000003,1.0735056,0.0,0.0,0.0,0.0
9.34,496.43111280000005,3.957828,-1.5724632,1.2268200000000002,0.0,0.0,0.0,0.0
9.36,498.69760560000003,4.120591200000001,-1.7349216,0.9201912000000001,0.0,0.0,0.0,0.0
9.379999999999999,501.1225944,4.2833544,-1.6806672000000002,2.4536400000000005,0.0,0.0,0.0,0.0
9.4,503.456448,3.3616392,-2.9279088,1.3036296,0.0,0.0,0.0,0.0
9.42,505.809504,3.2531304000000003,-2.7108912000000003,2.0702016,0.0,0.0,0.0,0.0
9.440000000000001,508.1826768,4.7170848,-0.9217152000000001,0.996696,0.0,0.0,0.0,0.0
9.46,510.5482296,4.445812800000001,-1.7349216,-0.0768096,0.0,0.0,0.0,0.0
9.48,512.809236,4.3376088,-1.7349216,1.6102584000000002,0.0,0.0,0.0,0.0
9.5,515.0979792,4.6628304,-1.0844784,1.7635728,0.0,0.0,0.0,0.0
9.52,517.2431616,4.2833544,-1.5724632,1.6867632000000001,0.0,0.0,0.0,0.0
9.54,519.5200176000001,4.2833544,-1.5724632,0.0768096,0.0,0.0,0.0,0.0
9.56,521.7371328,4.2291,-2.0601432,0.6900672,0.0,0.0,0.0,0.0
9.58,524.0033208000001,3.6326064,-1.2469368,0.23012400000000002,0.0,0.0,0.0,0.0
9.6,526.2097679999999,4.3915584,-1.6806672000000002,0.5367528,0.0,0.0,0.0,0.0
9.620000000000001,528.5058264,3.7953696000000003,-0.9759696,1.0735056,0.0,0.0,0.0,0.0
9.64,530.7195888,4.2833544,-0.5964936000000001,0.30662880000000003,0.0,0.0,0.0,0.0
9.66,532.9711464000001,3.8496240000000004,-2.2229064000000003,-0.0768096,0.0,0.0,0.0,0.0
9.68,535.204416,4.2291,-2.0601432,0.0768096,0.0,0.0,0.0,0.0
9.7,537.3834312,3.8496240000000004,-2.0061936,-0.3834384,0.0,0.0,0.0,0.0
9.719999999999999,539.5182503999999,3.5240976,-1.5724632,0.4599432,0.0,0.0,0.0,0.0
9.74,541.8106512,4.3915584,-0.4879848,0.9201912000000001,0.0,0.0,0.0,0.0
9.76,544.1649264,4.120591200000001,-1.3011912,0.15331440000000002,0.0,0.0,0.0,0.0
9.780000000000001,546.4308096,3.6868608000000003,-0.8674608,-0.23012400000000002,0.0,0.0,0.0,0.0
9.8,548.7213816000001,3.957828,-1.5724632,0.3834384,0.0,0.0,0.0,0.0
9.82,550.9921416,4.012082400000001,-0.7589520000000001,0.30662880000000003,0.0,0.0,0.0,0.0
9.84,553.3006968,3.198876,-2.548128,0.0,0.0,0.0,0.0,0.0
9.86,555.6187008,3.8496240000000004,-1.1387328,0.0,0.0,0.0,0.0,0.0
9.879999999999999,557.872392,3.8496240000000004,-1.8976848000000002,0.15331440000000002,0.0,0.0,0.0,0.0
9.9,560.1041376,3.3616392,-2.4941784,0.996696,0.0,0.0,0.0,0.0
9.92,562.1542224,2.9818584,-1.789176,0.9201912000000001,0.0,0.0,0.0,0.0
9.940000000000001,564.2454552,3.1446216000000002,-0.3252216,1.4569440000000002,0.0,0.0,0.0,0.0
9.96,566.3693016,3.6326064,-1.3554456000000001,0.996696,0.0,0.0,0.0,0.0
9.98,568.5211896,3.5240976,-1.789176,1.1500104,0.0,0.0,0.0,0.0
10.0,570.5164104,3.578352,-1.8434304000000001,0.6135624,0.0,0.0,0.0,0.0
10.02,572.4933432,3.9035736000000005,-0.650748,0.3834384,0.0,0.0,0.0,0.0
10.04,574.584576,3.0903671999999998,-0.9217152000000001,0.8433816000000001,0.0,0.0,0.0,0.0
10.06,576.7267104,4.2833544,-0.0542544,1.2268200000000002,0.0,0.0,0.0,0.0
10.08,578.7673464000001,3.3073848000000003,-1.030224,0.7668768,0.0,0.0,0.0,0.0
10.1,580.8750384,2.9279088,-1.8434304000000001,0.8433816000000001,0.0,0.0,0.0,0.0
10.120000000000001,582.9897408,3.6868608000000003,-1.4097000000000002,1.5334488,0.0,0.0,0.0,0.0
10.14,585.179424,2.7108912000000003,-2.9279088,0.23012400000000002,0.0,0.0,0.0,0.0
10.16,587.3556960000001,3.4698432,-0.7589520000000001,0.30662880000000003,0.0,0.0,0.0,0.0
10.18,589.4804568000001,2.9818584,-2.6566368,0.0768096,0.0,0.0,0.0,0.0
10.2,591.604608,2.8736544000000004,-2.3314152,0.15331440000000002,0.0,0.0,0.0,0.0
10.219999999999999,593.6601792,3.7953696000000003,-1.4097000000000002,0.15331440000000002,0.0,0.0,0.0,0.0
10.24,595.745316,3.7953696000000003,-0.5422392,0.3834384,0.0,0.0,0.0,0.0
10.26,597.9679176000001,2.2229064000000003,-1.3554456000000001,0.3834384,0.0,0.0,0.0,0.0
10.280000000000001,600.0442151999999,3.4698432,-0.8674608,0.5367528,0.0,0.0,0.0,0.0
10.3,602.1677568,3.3073848000000003,-0.8132064000000001,0.0,0.0,0.0,0.0,0.0
10.32,604.3190352,3.6326064,-1.4639544,-0.5367528,0.0,0.0,0.0,0.0
10.34,606.3313248000001,2.8736544000000004,-1.030224,0.0768096,0.0,0.0,0.0,0.0
10.36,608.3945160000001,2.8736544000000004,-2.1143976,0.23012400000000002,0.0,0.0,0.0,0.0
10.379999999999999,610.4171688,2.1686520000000002,-2.4941784,-0.0768096,0.0,0.0,0.0,0.0
10.4,612.4785312,3.3616392,-1.8434304000000001,0.5367528,0.0,0.0,0.0,0.0
10.42,614.4109632,3.7953696000000003,-1.3011912,0.7668768,0.0,0.0,0.0,0.0
10.440000000000001,616.3714368,2.6023824,-2.3856696,0.0768096,0.0,0.0,0.0,0.0
10.46,618.3373968,3.3073848000000003,-0.7046976,0.8433816000000001,0.0,0.0,0.0,0.0
10.48,620.268,3.2531304000000003,-0.650748,0.6900672,0.0,0.0,0.0,0.0
10.5,622.1830584,2.9279088,-1.6264128000000002,0.5367528,0.0,0.0,0.0,0.0
10.52,624.2038824,2.4941784,-1.7349216,0.0,0.0,0.0,0.0,0.0
10.54,626.0936424,2.6023824,-1.1926824,-0.30662880000000003,0.0,0.0,0.0,0.0
10.56,628.0958736,3.2531304000000003,-1.4097000000000002,0.8433816000000001,0.0,0.0,0.0,0.0
10.58,630.2666592,3.4698432,-1.1926824,0.5367528,0.0,0.0,0.0,0.0
10.6,632.2411536000001,3.4158936000000004,-1.2469368,0.23012400000000002,0.0,0.0,0.0,0.0
10.620000000000001,634.1854728000001,2.7651456,-1.5724632,0.23012400000000002,0.0,0.0,0.0,0.0
10.64,636.1307064000001,2.8194000000000004,-0.9759696,0.7668768,0.0,0.0,0.0,0.0
10.66,638.2185864,2.9279088,-0.8674608,0.4599432,0.0,0.0,0.0,0.0
10.68,640.2717192,2.3856696,-0.650748,0.6135624,0.0,0.0,0.0,0.0
10.7,642.3565512,2.4399240000000004,-1.1387328,0.9201912000000001,0.0,0.0,0.0,0.0
10.719999999999999,644.3667072,3.3616392,-1.4097000000000002,0.5367528,0.0,0.0,0.0,0.0
10.74,646.3579655999999,2.9279088,-0.4337304,0.8433816000000001,0.0,0.0,0.0,0.0
10.76,648.3568439999999,2.3314152,-2.0061936,0.0768096,0.0,0.0,0.0,0.0
10.780000000000001,650.3977848000001,3.0361128,-0.7589520000000001,0.4599432,0.0,0.0,0.0,0.0
10.8,652.4524416,2.7651456,-1.4639544,0.15331440000000002,0.0,0.0,0.0,0.0
10.82,654.3815208,3.3073848000000003,-0.9217152000000001,0.5367528,0.0,0.0,0.0,0.0
10.84,656.3724744,2.8736544000000004,-0.2709672,1.2268200000000002,0.0,0.0,0.0,0.0
10.86,658.2311448,3.4698432,0.0,0.9201912000000001,0.0,0.0,0.0,0.0
10.879999999999999,660.2065536000001,2.8736544000000004,-0.9217152000000001,0.0768096,0.0,0.0,0.0,0.0
10.9,662.0417544,3.2531304000000003,-0.7589520000000001,0.996696,0.0,0.0,0.0,0.0
10.92,663.8318448,3.1446216000000002,-0.9759696,1.5334488,0.0,0.0,0.0,0.0
10.940000000000001,665.6121816,2.6023824,-0.9759696,0.3834384,0.0,0.0,0.0,0.0
10.96,667.4394576000001,2.7651456,-0.8132064000000001,0.23012400000000002,0.0,0.0,0.0,0.0
10.98,669.2200991999999,2.7651456,0.37947600000000004,0.23012400000000002,0.0,0.0,0.0,0.0
11.0,671.0580432,2.4399240000000004,-0.9217152000000001,0.30662880000000003,0.0,0.0,0.0,0.0
11.02,672.8377704000001,2.548128,-0.5964936000000001,0.9201912000000001,0.0,0.0,0.0,0.0
11.04,674.6321280000001,2.2229064000000003,-0.7046976,0.15331440000000002,0.0,0.0,0.0,0.0
11.06,676.4807400000001,2.2771608000000003,-1.1926824,1.0735056,0.0,0.0,0.0,0.0
11.08,678.3104544,2.2229064000000003,-2.3314152,0.4599432,0.0,0.0,0.0,0.0
11.1,680.1383400000001,1.9519392,-1.1926824,0.5367528,0.0,0.0,0.0,0.0
11.120000000000001,682.0576656,2.9818584,-1.1387328,1.5334488,0.0,0.0,0.0,0.0
11.14,684.0431328,2.2229064000000003,-1.5724632,-0.23012400000000002,0.0,0.0,0.0,0.0
11.16,685.9780032,2.3856696,-1.0844784,0.4599432,0.0,0.0,0.0,0.0
11.18,687.8138136,2.6023824,0.1085088,0.3834384,0.0,0.0,0.0,0.0
11.2,689.6633400000001,2.0601432,-0.650748,0.6135624,0.0,0.0,0.0,0.0
11.219999999999999,691.6110120000001,3.3073848000000003,-1.2469368,0.6135624,0.0,0.0,0.0,0.0
11.24,693.3828144,2.4399240000000004,-2.1143976,0.5367528,0.0,0.0,0.0,0.0
11.26,695.1683328,2.7108912000000003,-0.4337304,1.3801344,0.0,0.0,0.0,0.0
11.280000000000001,697.1419128,2.548128,-1.3554456000000001,0.6900672,0.0,0.0,0.0,0.0
11.3,699.0158232,2.1143976,-0.5964936000000001,0.8433816000000001,0.0,0.0,0.0,0.0
11.32,700.9025352,2.3856696,-0.4337304,0.8433816000000001,0.0,0.0,0.0,0.0
11.34,702.8331383999999,2.8194000000000004,-0.650748,0.9201912000000001,0.0,0.0,0.0,0.0
11.36,704.5701936,2.2771608000000003,-0.9759696,0.4599432,0.0,0.0,0.0,0.0
11.379999999999999,706.2978,1.9519392,-0.2170176,0.3834384,0.0,0.0,0.0,0.0
11.4,708.0906336,1.4639544,-0.9217152000000001,-0.5367528,0.0,0.0,0.0,0.0
11.42,709.9569240000001,2.2229064000000003,-1.8976848000000002,-0.15331440000000002,0.0,0.0,0.0,0.0
11.440000000000001,711.6196080000001,2.6023824,-0.3252216,-0.4599432,0.0,0.0,0.0,0.0
11.46,713.3926296000001,2.3314152,-0.8132064000000001,0.0768096,0.0,0.0,0.0,0.0
11.48,714.981552,2.2771608000000003,-1.1926824,0.3834384,0.0,0.0,0.0,0.0
11.5,716.6619144000001,1.6806672000000002,-1.4639544,-0.0768096,0.0,0.0,0.0,0.0
11.52,718.3108824000001,2.2771608000000003,-0.3252216,0.5367528,0.0,0.0,0.0,0.0
11.54,720.0698831999999,2.548128,-0.16276320000000002,0.5367528,0.0,0.0,0.0,0.0
11.56,721.7529888,2.3856696,-0.7589520000000001,0.8433816000000001,0.0,0.0,0.0,0.0
11.58,723.4763280000001,2.548128,-0.37947600000000004,1.1500104,0.0,0.0,0.0,0.0
11.6,725.1539472000001,2.2229064000000003,-0.8132064000000001,0.0,0.0,0.0,0.0,0.0
11.620000000000001,726.8736288,1.9519392,-1.0844784,0.4599432,0.0,0.0,0.0,0.0
11.64,728.612208,1.5724632,-1.4639544,0.0,0.0,0.0,0.0,0.0
11.66,730.3029336000001,2.6566368,-0.2709672,0.8433816000000001,0.0,0.0,0.0,0.0
11.68,731.9921352,2.3856696,-0.4337304,0.15331440000000002,0.0,0.0,0.0,0.0
11.7,733.6636584,2.6566368,-0.0542544,0.30662880000000003,0.0,0.0,0.0,0.0
11.719999999999999,735.4217448,2.0601432,-0.7589520000000001,0.23012400000000002,0.0,0.0,0.0,0.0
11.74,737.1965951999999,1.7349216,-1.0844784,-0.15331440000000002,0.0,0.0,0.0,0.0
11.76,739.0357584,2.1686520000000002,-0.4337304,-0.0768096,0.0,0.0,0.0,0.0
11.780000000000001,740.8359072,2.548128,-0.4879848,0.0768096,0.0,0.0,0.0,0.0
11.8,742.6003944,1.5724632,-0.4879848,0.30662880000000003,0.0,0.0,0.0,0.0
11.82,744.4310232,1.6264128000000002,-0.9759696,0.6900672,0.0,0.0,0.0,0.0
11.84,746.202216,2.4941784,0.0,0.3834384,0.0,0.0,0.0,0.0
11.86,747.9660936,2.1686520000000002,-1.0844784,0.0768096,0.0,0.0,0.0,0.0
11.879999999999999,749.66322,2.0601432,-0.3252216,0.5367528,0.0,0.0,0.0,0.0
11.9,751.3832064000001,1.9519392,-1.5182088,0.3834384,0.0,0.0,0.0,0.0
11.92,753.1001448000001,2.4399240000000004,-1.030224,-0.15331440000000002,0.0,0.0,0.0,0.0
11.940000000000001,754.7317392,1.789176,-0.4879848,-0.4599432,0.0,0.0,0.0,0.0
11.96,756.4858632,1.4097000000000002,-1.3011912,-0.4599432,0.0,0.0,0.0,0.0
11.98,758.1238584,1.9519392,-0.8674608,0.23012400000000002,0.0,0.0,0.0,0.0
12.0,759.6707184,2.1143976,-0.37947600000000004,0.9201912000000001,0.0,0.0,0.0,0.0
12.02,761.3081040000001,2.0061936,-1.2469368,-0.15331440000000002,0.0,0.0,0.0,0.0
12.04,762.8570976,1.5724632,-0.37947600000000004,0.15331440000000002,0.0,0.0,0.0,0.0
12.06,764.4448008,2.1686520000000002,-0.3252216,0.15331440000000002,0.0,0.0,0.0,0.0
12.08,765.8938200000001,1.2469368,-0.9217152000000001,-0.7668768,0.0,0.0,0.0,0.0
12.1,767.4397656,1.8976848000000002,-0.9217152000000001,0.4599432,0.0,0.0,0.0,0.0
12.12,768.9601080000001,2.0601432,-0.4337304,0.23012400000000002,0.0,0.0,0.0,0.0
12.14,770.5209888,1.7349216,-1.0844784,0.6135624,0.0,0.0,0.0,0.0
12.16,772.0617528,2.0061936,-0.7046976,-0.0768096,0.0,0.0,0.0,0.0
12.18,773.6256816,2.6566368,-0.4879848,0.23012400000000002,0.0,0.0,0.0,0.0
12.2,775.2764784000001,1.3554456000000001,-0.8132064000000001,0.15331440000000002,0.0,0.0,0.0,0.0
12.22,776.8617432000001,2.1686520000000002,-0.1085088,0.5367528,0.0,0.0,0.0,0.0
12.24,778.4625528,2.2229064000000003,-0.0542544,0.5367528,0.0,0.0,0.0,0.0
12.26,780.0374544,2.0061936,-1.030224,0.30662880000000003,0.0,0.0,0.0,0.0
12.28,781.6385688,1.789176,-0.2709672,0.15331440000000002,0.0,0.0,0.0,0.0
12.3,783.1381848000001,1.8434304000000001,-0.8674608,-0.15331440000000002,0.0,0.0,0.0,0.0
12.32,784.6484688,1.8434304000000001,-1.4097000000000002,0.23012400000000002,0.0,0.0,0.0,0.0
12.34,786.1755168,1.030224,-1.3554456000000001,0.5367528,0.0,0.0,0.0,0.0
12.36,787.7488944,1.5724632,-0.16276320000000002,0.6900672,0.0,0.0,0.0,0.0
12.38,789.3042888000001,2.1686520000000002,-0.4337304,1.2268200000000002,0.0,0.0,0.0,0.0
12.4,791.0215320000001,1.8976848000000002,-0.16276320000000002,0.7668768,0.0,0.0,0.0,0.0
12.42,792.5738784,1.5724632,-0.4879848,0.23012400000000002,0.0,0.0,0.0,0.0
12.44,794.0920871999999,2.4941784,-0.2170176,0.996696,0.0,0.0,0.0,0.0
12.46,795.694116,1.9519392,-0.1085088,-0.23012400000000002,0.0,0.0,0.0,0.0
12.48,797.3446080000001,1.789176,-0.7046976,-0.30662880000000003,0.0,0.0,0.0,0.0
12.5,798.9594384,1.9519392,-0.2170176,0.6900672,0.0,0.0,0.0,0.0
12.52,800.5322064000001,1.5724632,-0.37947600000000004,0.6900672,0.0,0.0,0.0,0.0
12.540000000000001,802.0671792,1.3011912,-0.5422392,0.15331440000000002,0.0,0.0,0.0,0.0
12.56,803.6731704,1.789176,-0.5964936000000001,-0.15331440000000002,0.0,0.0,0.0,0.0
12.58,805.1264568,1.5182088,-0.2170176,0.6135624,0.0,0.0,0.0,0.0
12.6,806.644056,1.1387328,-0.9217152000000001,-0.0768096,0.0,0.0,0.0,0.0
12.62,808.145196,1.8976848000000002,-0.16276320000000002,0.15331440000000002,0.0,0.0,0.0,0.0
12.64,809.5643448000001,1.9519392,0.3252216,0.6135624,0.0,0.0,0.0,0.0
12.66,810.9453936,2.0601432,-0.3252216,0.30662880000000003,0.0,0.0,0.0,0.0
12.68,812.4700032,1.6264128000000002,-0.3252216,0.9201912000000001,0.0,0.0,0.0,0.0
12.7,813.8047224,1.6264128000000002,-0.4337304,0.0768096,0.0,0.0,0.0,0.0
12.72,815.1903432,1.789176,-0.0542544,0.30662880000000003,0.0,0.0,0.0,0.0
12.74,816.6478968000001,1.7349216,-0.3252216,0.6135624,0.0,0.0,0.0,0.0
12.76,818.1048408,1.1387328,-0.8132064000000001,-0.15331440000000002,0.0,0.0,0.0,0.0
12.78,819.4429127999999,1.5724632,0.2709672,0.6900672,0.0,0.0,0.0,0.0
12.8,820.7873856,1.6806672000000002,-0.37947600000000004,0.5367528,0.0,0.0,0.0,0.0
12.82,822.2757240000001,1.1926824,-0.3252216,-0.5367528,0.0,0.0,0.0,0.0
12.84,823.6942632,1.8434304000000001,-0.1085088,0.3834384,0.0,0.0,0.0,0.0
12.86,825.1274328,1.3011912,-0.4337304,0.30662880000000003,0.0,0.0,0.0,0.0
12.88,826.6096752000001,1.1387328,-0.2709672,0.0768096,0.0,0.0,0.0,0.0
12.9,828.0910032,1.6806672000000002,-0.0542544,0.0,0.0,0.0,0.0,0.0
12.92,829.5695880000001,1.1387328,-0.5964936000000001,0.23012400000000002,0.0,0.0,0.0,0.0
12.94,831.0609744000001,0.4879848,-0.9217152000000001,-0.30662880000000003,0.0,0.0,0.0,0.0
12.96,832.5224904,1.6264128000000002,-0.1085088,0.23012400000000002,0.0,0.0,0.0,0.0
12.98,834.0025992,1.5182088,-0.1085088,-0.15331440000000002,0.0,0.0,0.0,0.0
13.0,835.4122992,1.2469368,-0.0542544,-0.0768096,0.0,0.0,0.0,0.0
13.02,836.7781080000001,1.3011912,-0.8674608,-0.3834384,0.0,0.0,0.0,0.0
13.040000000000001,838.1771400000001,1.1926824,-0.7589520000000001,0.0,0.0,0.0,0.0,0.0
13.06,839.5566648,1.5182088,-0.1085088,-0.3834384,0.0,0.0,0.0,0.0
13.08,841.1080968000001,1.3011912,0.0,0.0,0.0,0.0,0.0,0.0
13.1,842.6442888,1.3554456000000001,-0.16276320000000002,0.0768096,0.0,0.0,0.0,0.0
13.12,844.015584,1.4097000000000002,-0.2170176,-0.23012400000000002,0.0,0.0,0.0,0.0
13.14,845.3524368,1.2469368,0.0542544,0.4599432,0.0,0.0,0.0,0.0
13.16,846.9026496000001,1.2469368,-0.2709672,-0.15331440000000002,0.0,0.0,0.0,0.0
13.18,848.3089968,0.9217152000000001,-0.37947600000000004,0.6900672,0.0,0.0,0.0,0.0
13.2,849.5821463999999,1.4097000000000002,-0.2170176,0.0,0.0,0.0,0.0,0.0
13.22,850.9763016,1.3554456000000001,-0.37947600000000004,-0.6900672,0.0,0.0,0.0,0.0
13.24,852.4164816,1.1387328,-0.37947600000000004,0.15331440000000002,0.0,0.0,0.0,0.0
13.26,853.9718760000001,1.3011912,0.0,0.0768096,0.0,0.0,0.0,0.0
13.28,855.2895264,1.2469368,-0.0542544,0.6135624,0.0,0.0,0.0,0.0
13.3,856.7263536,1.7349216,-0.3252216,-0.3834384,0.0,0.0,0.0,0.0
13.32,858.0153528000001,1.0844784,-0.2170176,0.0768096,0.0,0.0,0.0,0.0
13.34,859.3628736,1.1387328,-0.2709672,0.23012400000000002,0.0,0.0,0.0,0.0
13.36,860.5811592000001,1.1926824,-0.1085088,-0.9201912000000001,0.0,0.0,0.0,0.0
13.38,861.8881416,1.4639544,0.2709672,0.996696,0.0,0.0,0.0,0.0
13.4,863.1652536000001,0.7589520000000001,-0.1085088,-0.15331440000000002,0.0,0.0,0.0,0.0
13.42,864.3378192,1.0844784,-0.5422392,-0.15331440000000002,0.0,0.0,0.0,0.0
13.44,865.5798792,1.4639544,-0.0542544,0.0768096,0.0,0.0,0.0,0.0
13.46,866.7436056,1.2469368,0.16276320000000002,-0.23012400000000002,0.0,0.0,0.0,0.0
13.48,867.9594528,0.9217152000000001,-0.16276320000000002,-0.23012400000000002,0.0,0.0,0.0,0.0
13.5,869.2213248,0.8132064000000001,-0.5964936000000001,-0.23012400000000002,0.0,0.0,0.0,0.0
13.52,870.4533263999999,0.4337304,-0.5422392,-0.4599432,0.0,0.0,0.0,0.0
13.540000000000001,871.7758536000001,1.3011912,0.1085088,-0.23012400000000002,0.0,0.0,0.0,0.0
13.56,873.0389448,0.7589520000000001,-0.2170176,-0.15331440000000002,0.0,0.0,0.0,0.0
13.58,874.3584240000001,1.1926824,0.0,0.30662880000000003,0.0,0.0,0.0,0.0
13.6,875.6590056,1.2469368,-0.16276320000000002,0.0768096,0.0,0.0,0.0,0.0
13.62,877.011708,0.8674608,-0.4337304,0.5367528,0.0,0.0,0.0,0.0
13.64,878.3144232,1.1926824,-0.1085088,-0.30662880000000003,0.0,0.0,0.0,0.0
13.66,879.7040064,1.030224,-0.2709672,-0.6135624,0.0,0.0,0.0,0.0
13.68,880.9881288,1.4639544,0.37947600000000004,0.15331440000000002,0.0,0.0,0.0,0.0
13.7,882.2445144000001,0.8674608,-0.4337304,0.15331440000000002,0.0,0.0,0.0,0.0
13.72,883.4914512,0.9217152000000001,-0.2709672,0.0,0.0,0.0,0.0,0.0
13.74,884.7173568000001,1.1387328,0.0542544,0.5367528,0.0,0.0,0.0,0.0
13.76,886.0691448,0.9217152000000001,-0.37947600000000004,0.23012400000000002,0.0,0.0,0.0,0.0
13.78,887.3618016,0.8132064000000001,-0.2709672,0.23012400000000002,0.0,0.0,0.0,0.0
13.8,888.6002040000001,0.8132064000000001,0.0542544,0.15331440000000002,0.0,0.0,0.0,0.0
13.82,889.7925816,1.030224,0.16276320000000002,0.3834384,0.0,0.0,0.0,0.0
13.84,890.9724624,0.8132064000000001,-0.37947600000000004,-0.15331440000000002,0.0,0.0,0.0,0.0
13.86,892.2245808000001,0.8132064000000001,0.0542544,-0.5367528,0.0,0.0,0.0,0.0
13.88,893.4977304,0.8674608,-0.2170176,-0.23012400000000002,0.0,0.0,0.0,0.0
13.9,894.749544,1.3011912,0.0,-0.15331440000000002,0.0,0.0,0.0,0.0
13.92,895.9282056000001,0.9759696,0.0,-0.0768096,0.0,0.0,0.0,0.0
13.94,897.2574384,0.7046976,-0.2709672,0.15331440000000002,0.0,0.0,0.0,0.0
13.96,898.5613728000001,1.030224,0.16276320000000002,-0.15331440000000002,0.0,0.0,0.0,0.0
13.98,899.825988,0.5422392,-0.4337304,-0.6135624,0.0,0.0,0.0,0.0
14.0,900.9759984000001,0.9759696,0.1085088,-0.3834384,0.0,0.0,0.0,0.0
14.02,902.2845047999999,0.7589520000000001,-0.2170176,-0.6900672,0.0,0.0,0.0,0.0
14.040000000000001,903.5728944000001,0.7589520000000001,0.1085088,-0.23012400000000002,0.0,0.0,0.0,0.0
14.06,904.7643576000002,0.5964936000000001,-0.37947600000000004,-0.5367528,0.0,0.0,0.0,0.0
14.08,905.8942512000001,0.5964936000000001,-0.4879848,-0.6900672,0.0,0.0,0.0,0.0
14.1,907.0610256000001,0.7046976,-0.16276320000000002,-0.23012400000000002,0.0,0.0,0.0,0.0
14.12,908.2924176,0.8132064000000001,0.16276320000000002,-0.4599432,0.0,0.0,0.0,0.0
14.14,909.421092,0.7046976,-0.2709672,-0.30662880000000003,0.0,0.0,0.0,0.0
14.16,910.5269064,0.8674608,0.0,-0.0768096,0.0,0.0,0.0,0.0
14.18,911.6284536000001,0.3252216,-0.2170176,-0.3834384,0.0,0.0,0.0,0.0
14.2,912.7309152,0.7046976,-0.0542544,-0.5367528,0.0,0.0,0.0,0.0
14.22,913.7468136,0.5964936000000001,-0.2709672,-0.6900672,0.0,0.0,0.0,0.0
14.24,914.7895344,0.2709672,-0.2709672,-0.8433816000000001,0.0,0.0,0.0,0.0
14.26,915.9566136000001,0.7589520000000001,0.0,0.3834384,0.0,0.0,0.0,0.0
14.28,917.0673048,0.5422392,-0.1085088,0.15331440000000002,0.0,0.0,0.0,0.0
14.3,918.1719,0.7589520000000001,-0.1085088,-0.0768096,0.0,0.0,0.0,0.0
14.32,919.2542448,0.7046976,0.0542544,0.0768096,0.0,0.0,0.0,0.0
14.34,920.4085223999999,0.7589520000000001,-0.1085088,-0.3834384,0.0,0.0,0.0,0.0
14.36,921.4049136,0.650748,-0.1085088,-0.6900672,0.0,0.0,0.0,0.0
14.38,922.5863184000001,0.37947600000000004,-0.2709672,-0.7668768,0.0,0.0,0.0,0.0
14.4,923.6796360000001,0.4337304,0.0,-0.4599432,0.0,0.0,0.0,0.0
14.42,924.741864,0.5422392,-0.2170176,-0.30662880000000003,0.0,0.0,0.0,0.0
14.44,925.8239040000001,0.8132064000000001,-0.16276320000000002,-0.23012400000000002,0.0,0.0,0.0,0.0
14.46,926.9187456000001,0.4879848,-0.0542544,-0.15331440000000002,0.0,0.0,0.0,0.0
14.48,928.0391904,0.9217152000000001,0.16276320000000002,-0.5367528,0.0,0.0,0.0,0.0
14.5,929.2001736,0.7046976,0.16276320000000002,0.23012400000000002,0.0,0.0,0.0,0.0
14.52,930.3038544,0.5964936000000001,0.0542544,0.0,0.0,0.0,0.0,0.0
14.540000000000001,931.4547792000001,0.8674608,0.1085088,0.0768096,0.0,0.0,0.0,0.0
14.56,932.5054248,1.1387328,0.2709672,-0.5367528,0.0,0.0,0.0,0.0
14.58,933.5338200000001,0.3252216,-0.1085088,-0.6135624,0.0,0.0,0.0,0.0
14.6,934.6841352,0.4337304,0.0,0.15331440000000002,0.0,0.0,0.0,0.0
14.62,935.7396576000001,0.4879848,-0.0542544,0.30662880000000003,0.0,0.0,0.0,0.0
14.64,936.8235264,0.4337304,0.0,0.0768096,0.0,0.0,0.0,0.0
14.66,937.9262928,0.7589520000000001,0.1085088,0.23012400000000002,0.0,0.0,0.0,0.0
14.68,938.9604792000001,0.4337304,0.0,0.3834384,0.0,0.0,0.0,0.0
14.7,940.0403856,0.8132064000000001,0.16276320000000002,0.0,0.0,0.0,0.0,0.0
14.72,941.1678408,0.37947600000000004,-0.0542544,-0.7668768,0.0,0.0,0.0,0.0
14.74,942.2501856,0.2709672,-0.0542544,-0.3834384,0.0,0.0,0.0,0.0
14.76,943.5202872,0.3252216,0.0,-0.15331440000000002,0.0,0.0,0.0,0.0
14.78,944.6965104000001,0.5964936000000001,0.16276320000000002,-0.23012400000000002,0.0,0.0,0.0,0.0
14.8,945.7651392,0.2709672,-0.0542544,-0.0768096,0.0,0.0,0.0,0.0
14.82,946.8523608,0.4337304,0.0,0.15331440000000002,0.0,0.0,0.0,0.0
14.84,948.0608928000001,0.650748,0.0,-0.0768096,0.0,0.0,0.0,0.0
14.86,949.074048,0.7589520000000001,0.2170176,0.0768096,0.0,0.0,0.0,0.0
14.88,950.1109776,0.7046976,0.2709672,0.23012400000000002,0.0,0.0,0.0,0.0
14.9,951.1546128,0.650748,0.2170176,-0.0768096,0.0,0.0,0.0,0.0
14.92,952.1510040000001,0.4337304,0.1085088,-0.23012400000000002,0.0,0.0,0.0,0.0
14.94,953.2290816,0.4337304,0.2170176,-0.15331440000000002,0.0,0.0,0.0,0.0
14.96,954.1885920000001,0.5422392,0.0,-0.30662880000000003,0.0,0.0,0.0,0.0
14.98,955.1557224,0.2709672,-0.0542544,-0.23012400000000002,0.0,0.0,0.0,0.0
15.0,956.171316,0.4337304,0.2170176,-0.3834384,0.0,0.0,0.0,0.0
15.02,957.1805088,0.37947600000000004,0.0542544,-0.30662880000000003,0.0,0.0,0.0,0.0
15.040000000000001,958.2512712000001,0.2709672,-0.0542544,0.0,0.0,0.0,0.0,0.0
15.06,959.1824352,0.8674608,0.3252216,-0.15331440000000002,0.0,0.0,0.0,0.0
15.08,960.0395328,0.37947600000000004,0.16276320000000002,-0.4599432,0.0,0.0,0.0,0.0
