time,baro_altitude,accl_x,accl_y,accl_z,gps_altitude,gyro_roll,gyro_pitch,gyro_yaw
0.0,0.0,9.89,0.1,-0.36,0.0,-0.63,0.25,-0.01
0.010000000000000009,0.2800000000002001,9.84,-0.34,-0.4,0.0,-0.26,0.25,-0.01
0.019999999999999962,0.09000000000014552,9.96,-0.06,0.04,0.0,-0.45,0.01,-0.07
0.02999999999999997,0.5600000000001728,9.95,0.32,0.1,0.0,-0.2,-0.36,-0.07
0.03999999999999998,0.37000000000011823,9.89,0.22,-0.17,0.0,0.47,-0.24,0.06
0.04999999999999999,0.4700000000000273,9.81,0.29,-0.61,0.0,0.71,0.55,-0.01
0.06,-0.2799999999999727,9.8,0.41,-0.33,0.0,0.29,0.25,0.12
0.06999999999999998,0.4700000000000273,9.98,0.29,0.17,0.0,-0.69,-0.36,0.12
0.07999999999999999,0.650000000000091,9.95,-0.13,0.3,0.0,-0.75,-0.54,0.06
0.09,0.4700000000000273,9.84,0.1,-0.29,0.0,-0.26,0.01,0.06
0.09999999999999998,0.37000000000011823,9.82,-0.04,-0.69,0.0,-0.14,0.37,0.06
0.10999999999999999,0.2800000000002001,9.8,-0.06,-0.54,0.0,0.35,0.37,0.18
0.12,0.650000000000091,9.9,-0.29,-0.52,0.0,0.71,0.37,-0.07
0.12999999999999998,0.37000000000011823,9.77,-0.14,-0.85,0.0,0.41,0.68,-0.13
0.13999999999999999,0.37000000000011823,9.83,-0.31,-0.45,0.0,-0.26,0.25,-0.01
0.15,0.4700000000000273,9.72,0.04,-0.14,0.0,-0.02,0.13,0.24
0.15999999999999998,0.5600000000001728,9.75,-0.01,-0.68,0.0,0.1,0.55,0.06
0.16999999999999998,0.2800000000002001,9.74,-0.04,-0.82,0.0,0.53,0.8,0.12
0.18,0.19000000000005457,9.83,-0.18,0.11,0.0,0.29,0.01,-0.01
0.19,0.19000000000005457,9.86,-0.44,0.36,0.0,-0.38,-0.3,-0.01
0.19999999999999998,0.4700000000000273,9.81,-0.57,-0.34,0.0,-0.2,0.13,-0.13
0.21,0.09000000000014552,9.7,-0.25,-0.72,0.0,0.23,0.49,-0.07
0.21999999999999997,0.7400000000000091,9.84,0.15,-0.28,0.0,-0.14,0.43,0.12
0.22999999999999998,0.0,9.93,-0.14,-0.18,0.0,0.16,0.01,-0.01
0.24,0.2800000000002001,9.83,-0.21,-0.14,0.0,0.65,-0.18,-0.13
0.25,-0.1899999999998272,9.94,-0.03,0.16,0.0,-0.08,-0.24,-0.07
0.26,-3.1599999999998545,11.21,0.2,0.79,0.0,-1.24,-0.91,0.18
0.27,-4.089999999999918,15.27,-0.05,0.66,0.0,1.93,-0.48,0.24
0.27999999999999997,-8.909999999999854,50.25,-1.28,-2.4,0.0,16.03,2.08,-0.37
0.29,-3.339999999999918,155.6,-1.22,-1.35,0.0,113.39,1.59,0.97
0.3,24.0,156.9,-4.35,6.51,0.0,259.27,-8.78,-9.04
0.3,24.0,156.9,-4.35,6.51,0.0,259.27,-8.78,-9.04
0.3,24.0,156.9,-4.35,6.51,0.0,259.27,-8.78,-9.04
0.3,24.0,156.9,-4.35,6.51,0.0,259.27,-8.78,-9.04
0.3,24.0,156.9,-4.35,6.51,0.0,259.27,-8.78,-9.04
0.3,24.0,156.9,-4.35,6.51,0.0,259.27,-8.78,-9.04
0.3,24.0,156.9,-4.35,6.51,0.0,259.27,-8.78,-9.04
0.3,24.0,156.9,-4.35,6.51,0.0,259.27,-8.78,-9.04
0.3,24.0,156.9,-4.35,6.51,0.0,259.27,-8.78,-9.04
0.3,24.0,156.9,-4.35,6.51,0.0,259.27,-8.78,-9.04
0.3,24.0,156.9,-4.35,6.51,0.0,259.27,-8.78,-9.04
0.3,24.0,156.9,-4.35,6.51,0.0,259.27,-8.78,-9.04
0.3,24.0,156.9,-4.35,6.51,0.0,259.27,-8.78,-9.04
0.3,24.0,156.9,-4.35,6.51,0.0,259.27,-8.78,-9.04
0.3,24.0,156.9,-4.35,6.51,0.0,259.27,-8.78,-9.04
0.3,24.0,156.9,-4.35,6.51,0.0,259.27,-8.78,-9.04
0.3,24.0,156.9,-4.35,6.51,0.0,259.27,-8.78,-9.04
0.3,24.0,156.9,-4.35,6.51,0.0,259.27,-8.78,-9.04
0.3,24.0,156.9,-4.35,6.51,0.0,259.27,-8.78,-9.04
0.3,24.0,156.9,-4.35,6.51,0.0,259.27,-8.78,-9.04
0.3,24.0,156.9,-4.35,6.51,0.0,259.27,-8.78,-9.04
0.3,24.0,156.9,-4.35,6.51,0.0,259.27,-8.78,-9.04
0.3,24.0,156.9,-4.35,6.51,0.0,259.27,-8.78,-9.04
0.3,24.0,156.9,-4.35,6.51,0.0,259.27,-8.78,-9.04
0.3,24.0,156.9,-4.35,6.51,0.0,259.27,-8.78,-9.04
0.3,24.0,156.9,-4.35,6.51,0.0,259.27,-8.78,-9.04
0.3,24.0,156.9,-4.35,6.51,0.0,259.27,-8.78,-9.04
0.3,24.0,156.9,-4.35,6.51,0.0,259.27,-8.78,-9.04
0.3,24.0,156.9,-4.35,6.51,0.0,259.27,-8.78,-9.04
0.3,24.0,156.9,-4.35,6.51,0.0,259.27,-8.78,-9.04
0.3,24.0,156.9,-4.35,6.51,0.0,259.27,-8.78,-9.04
0.3,24.0,156.9,-4.35,6.51,0.0,259.27,-8.78,-9.04
0.3,24.0,156.9,-4.35,6.51,0.0,259.27,-8.78,-9.04
0.31,27.63000000000011,156.9,-1.01,-1.37,0.0,297.6,3.67,10.25
0.31,27.63000000000011,156.9,-1.01,-1.37,0.0,297.6,3.67,10.25
0.32,13.570000000000164,156.9,7.57,10.84,0.0,318.53,-14.03,-0.68
0.32,13.570000000000164,156.9,7.57,10.84,0.0,318.53,-14.03,-0.68
0.32999999999999996,1.7699999999999818,156.9,2.1,4.72,0.0,139.63,7.76,5.12
0.33999999999999997,0.0,156.9,16.45,-13.23,0.0,-56.78,13.07,3.54
0.35,3.160000000000082,156.9,-14.69,7.79,0.0,-131.49,-7.08,-10.44
0.36,3.6200000000001182,156.9,1.05,-11.08,0.0,-131.37,11.97,-0.37
0.37,5.019999999999982,156.9,-0.3,20.61,0.0,-134.3,-8.17,1.03
0.38,7.720000000000027,156.9,1.42,7.02,0.0,-133.51,-0.79,4.94
0.39,4.550000000000182,156.58,3.51,-5.64,0.0,-130.09,6.66,0.67
0.4,6.320000000000164,156.9,-5.3,-9.18,0.0,-126.37,15.39,-1.59
0.41,6.600000000000136,156.9,-3.44,20.36,0.0,-131.55,-26.49,5.12
0.42,7.720000000000027,156.9,-1.95,-22.18,0.0,-109.52,50.06,-4.03
0.43,7.900000000000091,156.9,-1.57,10.69,0.0,-115.81,-16.9,-5.13
0.44,8.740000000000009,156.9,-6.77,-0.31,0.0,-121.97,-1.4,-2.63
0.44999999999999996,9.300000000000182,156.9,6.11,0.82,0.0,-113.12,5.25,0.67
0.45999999999999996,14.230000000000018,156.9,-3.76,2.79,0.0,-116.23,-7.93,1.15
0.47,8.269999999999982,111.32,-1.69,-6.75,0.0,-115.56,2.26,-2.08
0.48,9.670000000000073,156.58,-1.36,3.15,0.0,-113.49,-7.32,5.37
0.49,9.670000000000073,156.9,-3.98,-4.61,0.0,-114.46,4.58,2.19
0.5,11.440000000000055,156.9,0.2,1.84,0.0,-114.77,-5.18,6.4
0.51,11.620000000000118,156.9,-2.07,0.23,0.0,-115.44,-7.56,7.93
0.52,11.25,156.9,-3.27,-1.99,0.0,-115.13,-1.77,7.26
0.53,12.550000000000182,156.9,-0.85,2.24,0.0,-116.05,-10.68,12.08
0.54,14.230000000000018,156.9,-3.5,-1.49,0.0,-115.5,-6.4,11.59
0.55,14.600000000000136,156.9,-1.64,0.97,0.0,-115.56,-8.78,13.91
0.56,15.5300000000002,156.9,-2.19,0.97,0.0,-115.5,-11.35,16.35
0.5700000000000001,16.180000000000064,156.9,-3.44,-0.73,0.0,-114.95,-8.54,16.11
0.5800000000000001,17.019999999999982,156.9,-1.12,1.25,0.0,-114.71,-12.45,19.71
0.59,17.950000000000045,156.9,-2.71,-0.01,0.0,-113.73,-10.86,19.95
0.6,18.230000000000018,156.9,-1.59,0.38,0.0,-112.69,-11.35,21.36
0.61,19.160000000000082,156.9,-1.67,1.21,0.0,-112.2,-12.87,23.43
0.62,20.0,156.9,-2.7,0.2,0.0,-111.17,-11.84,23.62
0.63,21.210000000000036,156.9,-1.37,0.72,0.0,-109.95,-12.69,26.0
0.64,21.670000000000073,156.9,-2.22,0.51,0.0,-108.66,-12.51,26.48
0.64,21.670000000000073,156.9,-2.22,0.51,0.0,-108.66,-12.51,26.48
0.6499999999999999,22.600000000000136,156.9,-2.04,0.48,0.0,-107.93,-12.39,26.79
0.6599999999999999,22.980000000000018,156.9,-1.22,0.35,0.0,-106.35,-12.57,28.44
0.6699999999999999,24.930000000000064,156.9,-2.46,0.23,0.0,-104.94,-12.63,27.4
0.6799999999999999,26.050000000000182,156.9,-1.65,-0.06,0.0,-102.38,-12.32,28.01
0.69,27.25999999999999,156.9,-1.7,0.14,0.0,-101.46,-12.39,28.38
0.7,28.190000000000055,156.9,-2.15,0.01,0.0,-99.75,-12.75,27.46
0.71,29.7800000000002,156.9,-1.61,0.03,0.0,-97.43,-12.14,27.71
0.72,31.360000000000127,156.9,-2.29,0.66,0.0,-95.24,-12.69,26.42
0.73,32.940000000000055,156.9,-1.6,0.15,0.0,-92.73,-11.47,25.63
0.74,34.16000000000008,156.9,-1.85,0.33,0.0,-89.99,-10.55,23.86
0.75,34.90000000000009,156.9,-1.93,0.66,0.0,-87.67,-11.1,21.72
0.76,36.30000000000018,156.9,-1.54,-0.17,0.0,-84.8,-9.09,19.83
0.77,38.63000000000011,156.9,-2.07,0.95,0.0,-82.36,-9.52,16.72
0.78,40.12000000000012,156.9,-1.49,-0.05,0.0,-79.49,-8.11,14.09
0.79,41.99000000000001,156.9,-1.81,0.47,0.0,-76.44,-7.38,11.04
0.8,43.11000000000013,156.9,-1.43,0.4,0.0,-74.12,-7.14,7.81
0.81,44.320000000000164,156.9,-1.37,-0.25,0.0,-71.37,-5.85,4.39
0.8200000000000001,46.2800000000002,156.9,-2.11,0.68,0.0,-68.69,-6.59,0.54
0.8300000000000001,48.24000000000001,156.9,-1.64,0.11,0.0,-65.33,-5.12,-1.96
0.8400000000000001,48.90000000000009,156.9,-1.88,0.36,0.0,-62.7,-3.96,-5.68
0.8500000000000001,50.30000000000018,156.9,-1.63,0.68,0.0,-60.51,-3.96,-8.98
0.8600000000000001,51.79000000000019,156.9,-1.98,0.34,0.0,-58.19,-2.56,-12.33
0.8699999999999999,52.91000000000008,156.9,-2.04,0.23,0.0,-56.23,-1.95,-15.14
0.8799999999999999,54.590000000000146,156.9,-1.72,0.05,0.0,-54.28,-0.97,-18.01
0.8899999999999999,55.99000000000001,156.9,-1.93,0.21,0.0,-52.14,0.25,-20.39
0.8999999999999999,57.210000000000036,156.9,-1.88,0.34,0.0,-49.64,1.41,-22.04
0.9099999999999999,58.80000000000018,156.9,-2.42,-0.19,0.0,-47.93,3.48,-23.93
0.9199999999999999,60.75999999999999,156.9,-1.92,0.35,0.0,-46.9,3.79,-25.09
0.9299999999999999,62.070000000000164,156.9,-1.97,0.34,0.0,-45.37,5.56,-26.13
0.94,62.91000000000008,156.9,-2.54,0.5,0.0,-44.39,6.41,-27.17
0.95,65.25,156.9,-2.03,0.39,0.0,-43.72,7.02,-27.29
0.96,66.0,156.9,-2.07,0.11,0.0,-42.62,8.25,-26.98
0.96,66.0,156.9,-2.07,0.11,0.0,-42.62,8.25,-26.98
0.97,67.96000000000004,156.9,-2.19,-0.04,0.0,-41.89,9.16,-27.41
0.98,69.08000000000015,156.9,-2.04,-0.13,0.0,-40.67,9.65,-26.25
0.99,71.70000000000005,156.9,-2.5,-0.32,0.0,-40.0,10.02,-25.03
1.0,73.20000000000005,156.9,-2.69,-0.25,0.0,-39.33,10.32,-22.53
1.01,74.79000000000019,156.9,-2.64,-0.16,0.0,-39.08,10.44,-19.48
1.02,76.57000000000016,156.9,-2.71,-0.16,0.0,-39.33,9.89,-16.73
1.03,77.88000000000011,156.9,-2.4,-0.13,0.0,-39.2,9.16,-12.94
1.04,79.66000000000008,156.9,-2.32,0.03,0.0,-39.2,7.88,-9.77
1.05,82.19000000000005,156.9,-2.41,-0.27,0.0,-39.08,6.6,-6.17
1.06,84.15000000000009,156.9,-2.78,-0.44,0.0,-38.84,6.11,-2.02
1.07,85.75,156.9,-2.67,0.14,0.0,-38.78,4.46,1.95
1.08,87.71000000000004,156.9,-3.07,-0.34,0.0,-38.17,3.85,5.73
1.09,90.24000000000001,156.9,-2.21,-0.03,0.0,-38.11,1.9,9.33
1.1,91.93000000000006,156.9,-2.9,-0.69,0.0,-37.68,0.37,11.71
1.11,93.90000000000009,156.9,-2.48,-0.45,0.0,-36.82,0.19,14.95
1.1199999999999999,95.87000000000012,156.9,-2.6,-0.11,0.0,-36.46,-1.09,17.09
1.13,97.75,156.9,-2.53,-0.41,0.0,-35.36,-0.97,18.92
1.14,100.19000000000005,156.9,-2.26,-0.63,0.0,-33.96,-1.7,20.14
1.15,102.44000000000005,156.9,-1.96,0.18,0.0,-32.67,-2.62,20.44
1.16,104.7800000000002,156.9,-2.64,-0.11,0.0,-31.45,-2.38,19.34
1.17,106.85000000000014,156.9,-2.11,0.42,0.0,-30.48,-2.86,18.49
1.18,108.92000000000007,156.9,-2.19,0.11,0.0,-28.89,-2.74,16.6
1.19,111.73000000000002,156.9,-2.16,-0.12,0.0,-27.18,-1.95,13.36
1.2,113.51999999999998,156.9,-1.86,0.46,0.0,-25.53,-2.5,10.98
1.21,115.96000000000004,156.9,-1.27,0.11,0.0,-24.13,-1.4,7.08
1.22,118.41000000000008,156.9,-1.49,0.11,0.0,-22.97,-0.12,2.8
1.23,120.57000000000016,156.9,-1.86,0.22,0.0,-21.99,0.49,-1.71
1.24,123.00999999999999,156.9,-1.79,0.42,0.0,-20.59,1.16,-5.32
1.25,124.71000000000004,156.9,-2.44,-0.12,0.0,-19.31,2.14,-9.22
1.26,127.34000000000015,156.9,-2.07,0.44,0.0,-18.21,2.81,-12.21
1.27,129.97000000000003,156.9,-2.25,0.33,0.0,-16.38,3.85,-14.9
1.28,131.86000000000013,156.9,-2.54,0.34,0.0,-14.79,4.46,-17.34
1.28,131.86000000000013,156.9,-2.54,0.34,0.0,-14.79,4.46,-17.34
1.29,135.06000000000017,156.9,-2.33,0.09,0.0,-13.81,5.19,-17.89
1.3,136.09000000000015,156.9,-3.07,0.3,0.0,-12.47,5.62,-18.5
1.31,138.6400000000001,156.9,-2.86,0.09,0.0,-10.94,5.93,-17.71
1.32,140.9000000000001,156.9,-3.07,-0.03,0.0,-9.66,6.17,-16.0
1.33,143.44000000000005,156.9,-3.41,-0.31,0.0,-8.2,5.74,-13.86
1.34,145.33000000000015,156.9,-3.53,0.11,0.0,-7.59,4.4,-10.32
1.35,147.97000000000003,156.9,-3.37,-0.19,0.0,-6.37,3.85,-6.72
1.36,150.7900000000002,156.9,-3.58,0.19,0.0,-4.78,2.2,-2.81
1.37,152.87000000000012,156.9,-3.43,0.0,0.0,-3.5,1.04,1.46
1.3800000000000001,155.51,156.9,-3.66,0.6,0.0,-2.7,-0.3,5.55
1.3900000000000001,157.68000000000006,156.9,-3.29,0.02,0.0,-1.42,-1.64,9.33
1.4000000000000001,160.70000000000005,156.9,-3.5,0.25,0.0,-0.14,-2.74,12.2
1.4100000000000001,162.97000000000003,156.9,-3.16,0.39,0.0,1.26,-4.51,14.64
1.4200000000000002,165.33000000000015,156.9,-3.23,0.09,0.0,2.85,-5.06,15.56
1.43,167.8800000000001,156.9,-2.92,-0.02,0.0,4.44,-5.92,15.86
1.44,170.43000000000006,156.9,-2.89,0.52,0.0,6.63,-6.53,15.32
1.45,173.07000000000016,156.9,-3.23,0.26,0.0,9.2,-6.59,13.42
1.46,176.0,156.9,-2.77,0.71,0.0,12.01,-5.85,10.86
1.47,178.46000000000004,156.9,-2.45,0.53,0.0,14.94,-5.37,8.17
1.48,181.3900000000001,156.9,-3.39,0.3,0.0,18.54,-2.99,4.08
1.49,184.1400000000001,156.9,-2.86,0.99,0.0,21.59,-2.13,1.4
1.5,186.5,156.9,-2.97,0.09,0.0,25.25,0.49,-1.84
1.51,188.7800000000002,156.9,-3.56,0.29,0.0,28.3,2.2,-4.95
1.52,191.62000000000012,156.9,-3.18,0.72,0.0,31.42,3.0,-6.66
1.53,193.98000000000002,156.9,-3.62,-0.12,0.0,35.69,5.62,-9.4
1.54,196.26,156.9,-4.1,0.84,0.0,39.11,5.32,-10.63
1.55,198.91000000000008,156.9,-3.44,0.17,0.0,42.59,6.41,-9.89
1.56,201.09000000000015,156.9,-4.39,0.36,0.0,45.94,6.11,-10.08
1.57,202.98000000000002,156.9,-3.52,-0.38,0.0,50.21,5.38,-8.98
1.58,205.35000000000014,156.9,-4.12,0.11,0.0,53.63,3.55,-7.27
1.59,207.44000000000005,156.9,-4.11,-0.36,0.0,57.97,2.14,-4.28
1.6,209.34000000000015,156.9,-3.82,-0.46,0.0,64.62,0.86,-1.23
1.6,209.34000000000015,156.9,-3.82,-0.46,0.0,64.62,0.86,-1.23
1.61,211.0400000000002,156.9,-4.4,0.13,0.0,74.75,-2.31,1.46
1.62,213.42000000000007,156.9,-4.02,0.29,0.0,90.68,-4.21,3.6
1.6300000000000001,214.84000000000015,156.9,-3.96,-0.36,0.0,109.24,-4.88,6.04
1.6400000000000001,213.42000000000007,156.9,-4.12,0.84,0.0,124.8,-8.11,6.71
1.6500000000000001,209.91000000000008,156.9,-2.96,0.08,0.0,138.78,-7.81,7.81
1.6600000000000001,217.31000000000017,156.9,-3.03,0.3,0.0,151.9,-6.83,6.83
1.6700000000000002,258.1100000000001,156.9,-2.96,1.23,0.0,163.5,-6.71,5.79
1.68,302.1500000000001,156.9,-2.56,0.3,0.0,174.85,-4.33,3.96
1.69,336.8600000000001,156.9,-2.55,1.08,0.0,184.13,-2.74,2.13
1.7,366.49,156.9,-3.17,0.95,0.0,192.86,-0.48,0.18
1.71,390.99,156.9,-2.83,0.49,0.0,201.89,3.06,-0.8
1.72,412.45000000000005,156.9,-3.18,0.77,0.0,210.74,4.46,-0.8
1.73,429.98,156.9,-3.39,0.5,0.0,218.8,6.23,-1.04
1.74,444.5400000000002,156.9,-3.16,0.18,0.0,226.43,6.78,0.3
1.75,458.72,156.9,-3.68,0.08,0.0,232.72,5.62,1.4
1.76,473.32000000000016,156.9,-3.51,-0.35,0.0,238.94,4.46,2.56
1.77,487.45000000000005,156.9,-3.29,-0.18,0.0,245.29,1.78,4.27
1.78,502.3800000000001,156.9,-2.76,-0.01,0.0,252.19,-0.24,5.24
1.79,514.49,156.9,-3.59,-0.5,0.0,258.53,-1.64,6.16
1.8,527.8000000000002,156.9,-3.07,0.3,0.0,264.09,-4.57,6.1
1.81,540.1400000000001,156.9,-2.36,0.23,0.0,270.13,-5.49,4.57
1.82,551.0300000000002,156.9,-2.78,2.35,0.0,274.65,-5.18,3.54
1.83,562.71,156.9,-2.54,1.54,0.0,278.31,-4.08,1.28
1.84,572.44,156.9,-3.82,-0.19,0.0,281.67,1.16,1.7
1.85,582.0800000000002,156.9,-3.57,1.6,0.0,282.22,-2.07,1.64
1.86,591.9300000000001,156.9,-3.03,-0.89,0.0,283.68,0.55,2.74
1.87,601.2,156.9,-3.07,0.16,0.0,284.6,2.39,3.66
1.8800000000000001,610.77,156.9,-3.68,1.21,0.0,284.35,-0.12,3.78
1.8900000000000001,619.26,156.9,-2.7,-1.61,0.0,285.21,4.03,5.37
1.9000000000000001,627.96,156.9,-3.3,0.69,0.0,285.57,1.35,5.49
1.9100000000000001,636.6600000000001,156.9,-3.07,0.12,0.0,285.82,0.25,5.55
1.9200000000000002,645.1800000000001,156.9,-2.38,-0.89,0.0,287.16,1.47,4.88
1.9200000000000002,645.1800000000001,156.9,-2.38,-0.89,0.0,287.16,1.47,4.88
1.93,653.21,156.9,-2.73,0.04,0.0,287.71,-3.17,3.29
1.94,661.73,156.9,-3.41,0.84,0.0,289.17,-2.07,1.4
1.95,669.97,156.9,-2.15,0.82,0.0,289.85,-4.39,1.46
1.96,677.72,156.9,-4.68,-0.46,0.0,291.62,-3.35,0.61
1.97,686.0700000000002,156.9,-2.46,0.5,0.0,293.26,-5.18,2.44
1.98,693.24,156.9,-3.31,-0.24,0.0,294.61,-6.71,2.8
1.99,700.9000000000001,156.9,-4.12,0.22,0.0,295.77,-7.69,1.89
2.0,708.3800000000001,156.9,-2.08,1.24,0.0,297.66,-3.47,4.88
2.01,716.3500000000001,156.9,-3.48,2.06,0.0,301.2,-2.56,5.31
2.02,723.74,156.9,-2.88,-1.18,0.0,304.13,3.48,4.69
2.03,731.6300000000001,156.9,-2.94,3.57,0.0,305.04,-1.15,4.15
2.04,738.8300000000002,156.9,-2.76,-0.41,0.0,307.79,0.86,4.76
2.05,745.73,156.9,-3.31,-0.56,0.0,311.58,3.67,5.18
2.06,753.0300000000002,156.9,-3.48,1.74,0.0,313.41,-3.72,4.45
2.07,761.1500000000001,156.9,-2.54,-1.51,0.0,317.56,-0.67,6.53
2.08,767.97,156.9,-3.61,0.25,0.0,320.98,-2.86,5.61
2.09,774.8900000000001,156.9,-3.79,0.44,0.0,324.27,-4.45,3.96
2.1,782.3200000000002,156.9,-1.88,-1.06,0.0,328.54,-2.86,5.12
2.11,789.45,156.9,-2.69,0.06,0.0,332.14,-5.73,3.84
2.12,795.7800000000002,156.9,-4.4,0.8,0.0,336.05,-7.14,1.64
2.13,803.8300000000002,156.9,-2.34,1.81,0.0,341.0,-6.4,2.56
2.14,811.2800000000002,156.9,-2.92,0.87,0.0,345.94,-5.85,2.31
2.15,818.4300000000001,156.9,-3.18,0.1,0.0,349.85,-3.35,0.54
2.16,825.2900000000002,156.9,-2.4,1.63,0.0,354.0,-3.41,2.44
2.17,832.76,156.9,-4.72,0.07,0.0,358.76,-1.46,2.62
2.1799999999999997,840.0300000000002,156.9,-2.33,-0.5,0.0,363.03,0.07,5.55
2.19,846.9000000000001,156.9,-2.81,1.38,0.0,367.55,-2.99,7.44
2.1999999999999997,854.0800000000002,156.9,-4.2,-0.06,0.0,371.03,0.37,4.33
2.21,860.96,156.9,-1.83,-1.58,0.0,375.66,3.42,5.61
2.2199999999999998,868.1500000000001,156.9,-2.68,-1.91,0.0,382.13,2.02,0.12
2.23,875.6400000000001,156.9,-2.02,0.27,0.0,384.82,3.06,0.42
2.2399999999999998,882.74,156.9,-5.2,-3.34,0.0,388.6,6.66,-0.07
2.2399999999999998,882.74,156.9,-5.2,-3.34,0.0,388.6,6.66,-0.07
2.25,889.95,156.9,-3.94,0.29,0.0,390.01,0.13,-1.29
2.26,897.0600000000002,156.9,-2.46,-2.36,0.0,394.04,-1.52,-0.37
2.27,904.27,156.9,-3.54,-0.91,0.0,398.19,-3.17,0.36
2.28,911.5900000000001,156.9,-4.5,1.75,0.0,400.45,-8.05,-1.16
2.29,918.5100000000002,156.9,-3.18,-1.06,0.0,404.53,-4.63,1.58
2.3,925.8499999999999,156.9,-3.76,1.04,0.0,407.1,-4.27,2.74
2.3099999999999996,932.3699999999999,156.9,-5.23,1.13,0.0,410.27,-6.34,3.11
2.32,939.5100000000002,156.9,-2.62,-1.88,0.0,415.09,2.69,5.73
2.3299999999999996,946.96,156.9,-2.99,2.69,0.0,416.19,-2.25,9.88
2.34,954.4200000000001,156.9,-4.64,-0.62,0.0,418.21,-1.28,7.44
2.3499999999999996,960.6500000000001,156.9,-1.09,-1.09,0.0,420.89,2.51,11.16
2.36,967.71,156.9,-3.24,1.91,0.0,422.36,-5.43,8.05
2.3699999999999997,975.4900000000002,156.9,-2.93,-2.29,0.0,424.37,-0.12,3.96
2.38,982.1399999999999,156.9,-1.5,1.19,0.0,426.63,-1.58,3.72
2.3899999999999997,989.73,156.9,-3.91,0.4,0.0,428.77,-3.84,0.73
2.4,996.5999999999999,156.9,-2.93,-2.84,0.0,432.12,0.98,0.24
2.4099999999999997,1004.6100000000001,156.9,-3.38,0.75,0.0,432.98,-0.3,2.19
2.42,1011.1800000000003,156.9,-3.43,0.76,0.0,433.28,-1.83,2.74
2.4299999999999997,1018.1700000000001,156.9,-2.14,-1.54,0.0,435.11,3.55,4.82
2.44,1025.38,156.9,-3.56,0.75,0.0,434.87,-0.12,6.77
2.4499999999999997,1032.0700000000002,156.9,-3.61,-0.76,0.0,435.42,-1.28,8.17
2.46,1039.17,156.9,-2.94,-1.64,0.0,436.09,-1.28,9.7
2.4699999999999998,1046.19,156.9,-2.74,0.36,0.0,436.09,-7.2,9.94
2.48,1053.7200000000003,156.9,-2.71,-1.67,0.0,437.31,-3.17,9.27
2.4899999999999998,1060.5300000000002,156.9,-2.65,0.13,0.0,438.35,-3.35,8.72
2.5,1068.1800000000003,156.9,-3.12,0.11,0.0,438.96,-2.13,5.92
2.51,1074.38,156.9,-2.82,-1.58,0.0,440.12,2.32,3.11
2.52,1081.83,156.9,-2.35,-0.05,0.0,440.24,1.23,2.68
2.53,1088.4500000000003,156.9,-3.36,-0.74,0.0,440.12,2.45,0.3
2.54,1095.5,156.9,-2.72,-1.47,0.0,439.88,4.4,1.28
2.55,1103.0700000000002,156.9,-3.37,-0.51,0.0,439.14,1.53,2.19
2.5599999999999996,1109.92,156.9,-3.5,-1.18,0.0,438.47,-0.36,3.47
2.5599999999999996,1109.92,156.9,-3.5,-1.18,0.0,438.47,-0.36,3.47
2.57,1117.29,156.9,-2.77,-1.18,0.0,437.31,-2.19,4.57
2.5799999999999996,1123.42,156.9,-3.56,-1.01,0.0,436.88,-4.82,4.02
2.59,1130.8000000000002,156.9,-3.09,-0.96,0.0,436.52,-6.28,3.17
2.5999999999999996,1138.08,156.9,-2.57,-0.29,0.0,436.82,-5.67,3.84
2.61,1145.1600000000003,156.9,-3.7,0.31,0.0,435.66,-4.76,1.95
2.6199999999999997,1152.04,156.9,-2.1,-2.06,0.0,435.72,1.41,4.21
2.63,1159.0300000000002,156.9,-4.24,0.9,0.0,434.2,-1.22,3.84
2.6399999999999997,1167.06,156.9,-4.06,-0.43,0.0,432.61,0.07,4.15
2.65,1173.85,156.9,-2.49,-2.85,0.0,432.92,6.6,7.69
2.6599999999999997,1180.54,156.9,-4.03,1.72,0.0,431.33,-1.34,4.69
2.67,1187.96,156.9,-3.29,-0.35,0.0,430.48,-2.01,5.12
2.6799999999999997,1194.4500000000003,156.9,-2.41,-1.74,0.0,429.93,0.68,5.06
2.69,1201.7800000000002,156.9,-4.84,0.17,0.0,428.46,-5.61,3.05
2.6999999999999997,1208.8000000000002,156.9,-3.69,-2.48,0.0,427.55,-4.27,2.5
2.71,1216.3600000000001,156.9,-1.8,1.54,0.0,426.87,-6.46,2.62
2.7199999999999998,1223.2800000000002,156.9,-3.07,-0.41,0.0,426.14,-4.21,0.67
2.73,1230.5300000000002,156.9,-3.88,-2.34,0.0,425.71,3.61,1.22
2.7399999999999998,1237.3600000000001,156.9,-2.3,-0.15,0.0,423.64,-0.18,4.02
2.75,1245.15,156.9,-2.74,-3.55,0.0,423.33,4.28,5.37
2.76,1251.5700000000002,156.9,-3.24,0.57,0.0,421.2,-0.48,7.26
2.77,1258.31,156.9,-3.0,-0.65,0.0,419.37,-3.54,8.17
2.78,1265.69,156.9,-2.36,-2.9,0.0,419.37,1.78,7.99
2.79,1273.1800000000003,156.9,-3.75,1.44,0.0,417.11,-10.8,5.43
2.8,1280.88,156.9,-3.09,-3.49,0.0,417.41,-2.8,4.15
2.8099999999999996,1288.2800000000002,156.9,-2.35,-0.53,0.0,416.38,-4.15,3.78
2.82,1294.83,156.9,-3.84,0.77,0.0,414.61,-10.01,-0.01
2.8299999999999996,1301.71,156.9,-2.05,-3.59,0.0,415.4,-0.85,0.54
2.84,1309.75,156.9,-2.79,-0.5,0.0,413.45,-2.86,1.83
2.8499999999999996,1316.54,156.9,-3.25,-0.3,0.0,411.07,-1.83,2.92
2.86,1323.85,156.9,-3.6,-2.7,0.0,411.0,0.92,1.7
2.8699999999999997,1331.4900000000002,156.9,-0.79,-1.16,0.0,409.54,0.43,4.51
2.88,1338.3899999999999,156.9,-2.94,-1.92,0.0,407.95,-1.83,5.85
2.88,1338.3899999999999,156.9,-2.94,-1.92,0.0,407.95,-1.83,5.85
2.8899999999999997,1345.62,156.9,-3.94,-2.55,0.0,406.73,-1.28,5.12
2.9,1352.96,156.9,-1.28,-1.22,0.0,405.39,-4.88,9.46
2.9099999999999997,1360.3000000000002,156.9,-4.47,-2.12,0.0,404.72,-5.18,6.1
2.92,1367.65,156.9,-2.59,-0.96,0.0,403.62,-4.57,5.55
2.9299999999999997,1374.79,156.9,-1.8,-1.65,0.0,402.76,-4.27,5.73
2.94,1382.6800000000003,156.9,-3.91,-3.51,0.0,402.83,0.25,3.05
2.9499999999999997,1390.2600000000002,156.9,-4.25,-1.7,0.0,401.85,-0.61,3.29
2.96,1396.9900000000002,156.9,-1.8,-2.74,0.0,402.15,0.43,1.83
2.9699999999999998,1404.58,156.9,-2.75,-1.57,0.0,400.99,-0.48,0.73
2.98,1412.2800000000002,156.9,-4.06,-1.79,0.0,399.53,-1.58,0.06
2.9899999999999998,1420.6399999999999,156.9,-2.42,-2.4,0.0,399.29,-1.03,2.25
3.0,1427.2800000000002,156.9,-2.7,-1.78,0.0,397.64,-3.35,1.76
3.01,1434.8899999999999,156.9,-3.7,-0.99,0.0,396.23,-5.55,3.78
3.02,1442.4100000000003,156.9,-1.81,-2.52,0.0,395.01,-4.57,7.26
3.03,1450.35,156.9,-1.61,-1.62,0.0,392.94,-7.14,7.5
3.04,1457.23,156.9,-2.7,-1.25,0.0,391.35,-8.17,8.48
3.05,1465.3000000000002,156.9,-2.87,-4.79,0.0,393.3,-3.47,5.18
3.0599999999999996,1472.94,156.9,-1.3,-2.12,0.0,392.75,0.43,2.62
3.07,1481.13,156.9,-2.26,-2.95,0.0,392.82,-1.4,4.63
3.0799999999999996,1487.6,156.9,-4.01,-4.75,0.0,391.11,3.06,1.76
3.09,1496.12,156.9,-1.48,-0.99,0.0,389.21,-2.19,5.43
3.0999999999999996,1503.1399999999999,156.9,-3.39,-1.7,0.0,388.18,-2.86,5.98
3.11,1510.38,156.9,-4.57,-5.43,0.0,387.99,-1.15,4.02
3.1199999999999997,1518.2800000000002,156.9,-0.21,-3.09,0.0,388.3,-1.89,8.72
3.13,1526.1800000000003,156.9,-3.13,-3.57,0.0,387.63,-8.23,5.49
3.1399999999999997,1533.7600000000002,156.9,-6.02,-7.72,0.0,390.07,4.46,-2.2
3.15,1541.02,156.9,-0.43,0.15,0.0,386.9,-9.33,0.91
3.1599999999999997,1549.4900000000002,156.9,-4.01,-5.83,0.0,387.2,-1.09,-4.22
3.17,1557.19,156.9,-1.28,-2.13,0.0,386.16,4.09,-4.22
3.1799999999999997,1564.4700000000003,156.9,-0.22,-0.1,0.0,382.26,-2.8,2.62
3.19,1572.52,156.9,-3.34,-6.62,0.0,382.44,8.98,1.83
3.1999999999999997,1580.79,156.9,-1.31,-0.3,0.0,379.39,-1.77,6.4
3.1999999999999997,1580.79,156.9,-1.31,-0.3,0.0,379.39,-1.77,6.4
3.21,1588.0900000000001,156.9,-2.69,-2.31,0.0,377.07,-5.67,8.42
3.2199999999999998,1596.5900000000001,156.9,-3.16,-6.0,0.0,378.29,-0.48,6.4
3.23,1604.4500000000003,156.9,-2.86,-2.87,0.0,377.07,-6.77,4.45
3.2399999999999998,1612.0900000000001,156.9,-2.43,-4.75,0.0,377.62,-5.06,-1.29
3.25,1619.52,156.9,-2.09,-5.36,0.0,378.17,-2.44,-4.52
3.26,1628.27,156.9,-2.44,-1.48,0.0,375.66,-5.24,-0.31
3.27,1636.2600000000002,156.9,-3.42,1.47,0.0,371.88,-9.76,-1.16
3.28,1643.6,156.9,0.44,-4.74,0.0,370.48,-0.48,7.87
3.29,1651.3899999999999,156.9,-3.9,-3.37,0.0,369.01,-0.06,11.23
3.3,1659.0700000000002,156.9,-3.62,-0.67,0.0,366.02,-10.49,9.82
3.3099999999999996,1667.3000000000002,156.9,0.63,-9.74,0.0,369.68,3.18,10.62
3.32,1674.8899999999999,156.9,-4.75,-3.51,0.0,370.78,0.37,1.46
3.3299999999999996,1683.35,156.9,-4.19,1.35,0.0,369.19,-10.19,-4.77
3.34,1691.06,156.9,0.47,-7.81,0.0,371.7,4.52,-2.69
3.3499999999999996,1699.21,156.9,-3.3,-2.51,0.0,370.23,0.13,-5.99
3.36,1707.7000000000003,156.9,-3.52,-1.59,0.0,366.14,-6.4,-3.79
3.3699999999999997,1715.4300000000003,156.9,1.82,-6.89,0.0,364.43,3.61,3.54
3.38,1723.6,156.9,-4.3,-2.75,0.0,361.93,-2.19,2.44
3.3899999999999997,1731.4500000000003,156.9,-1.0,-3.64,0.0,359.31,-4.45,6.1
3.4,1739.08,156.9,-0.99,-5.39,0.0,358.94,-1.15,8.54
3.4099999999999997,1746.94,156.9,-4.74,-4.5,0.0,358.7,-4.76,5.12
3.42,1754.7000000000003,156.9,-1.13,-4.48,0.0,359.25,-5.0,5.98
3.4299999999999997,1762.9,156.9,-2.62,-4.58,0.0,361.38,-2.56,1.58
3.44,1770.67,156.9,-2.26,-4.92,0.0,361.93,-1.28,-2.2
3.4499999999999997,1778.56,156.9,-0.01,-5.24,0.0,362.24,-0.48,0.67
3.46,1786.8899999999999,156.9,-2.58,-6.18,0.0,362.05,1.96,0.97
3.4699999999999998,1794.9,156.9,-2.61,-2.61,0.0,360.34,-0.36,5.67
3.48,1802.7000000000003,156.9,-1.64,-3.09,0.0,358.02,-3.54,5.0
3.4899999999999998,1810.27,156.9,-0.85,-5.86,0.0,359.98,0.43,5.18
3.5,1818.6399999999999,156.9,-3.62,-4.06,0.0,359.12,-7.93,1.46
3.51,1826.9,156.9,-1.57,-5.8,0.0,360.22,-6.46,1.83
3.52,1834.5,156.9,-1.13,-6.15,0.0,360.53,-4.39,2.38
3.52,1834.5,156.9,-1.13,-6.15,0.0,360.53,-4.39,2.38
3.53,1842.3200000000002,156.9,-3.06,-4.98,0.0,359.98,-6.28,1.22
3.54,1850.04,156.9,-0.12,-7.43,0.0,359.79,-2.56,5.12
3.55,1858.44,156.9,-2.42,-8.69,0.0,361.44,7.21,1.4
3.5599999999999996,1866.17,156.9,-1.86,-4.3,0.0,359.55,2.39,4.21
3.57,1874.4700000000003,156.9,-0.61,-5.48,0.0,358.51,-2.56,5.0
3.5799999999999996,1881.9900000000002,156.9,-0.84,-9.17,0.0,360.71,7.09,4.39
3.59,1890.7600000000002,156.9,-0.45,-3.87,0.0,359.73,-3.17,6.59
3.5999999999999996,1898.7400000000002,156.9,-2.77,-5.16,0.0,360.34,0.13,5.92
3.61,1907.0700000000002,156.9,-0.39,-6.35,0.0,359.98,-8.36,7.14
3.6199999999999997,1915.9700000000003,156.9,-2.36,-7.35,0.0,361.69,-5.55,3.9
3.63,1923.52,155.21,-0.88,-5.29,0.0,362.97,-13.67,-0.55
3.6399999999999997,1931.87,149.92,-1.2,-8.67,0.0,365.41,-8.3,-1.35
3.65,1940.12,145.87,-0.04,-6.89,0.0,363.09,-5.49,-3.0
3.6599999999999997,1948.5900000000001,141.76,0.83,-5.92,0.0,361.63,-6.53,1.03
3.67,1957.19,136.84,0.7,-7.26,0.0,360.89,1.78,7.32
3.6799999999999997,1965.46,132.97,-1.85,-4.12,0.0,359.43,0.43,7.32
3.69,1973.73,129.18,0.08,-1.06,0.0,357.84,-7.01,11.04
3.6999999999999997,1983.48,124.54,-1.16,-6.59,0.0,359.49,-0.42,11.47
3.71,1991.54,120.91,-1.62,-4.3,0.0,362.97,-3.6,1.34
3.7199999999999998,2000.63,117.58,1.4,-3.62,0.0,363.46,-9.46,4.33
3.73,2009.73,113.36,-4.48,-7.26,0.0,366.87,-0.91,-7.09
3.7399999999999998,2018.27,111.15,2.11,-3.47,0.0,365.72,-10.25,-3.42
3.75,2027.62,106.99,-0.82,-8.24,0.0,366.87,-4.94,-1.47
3.76,2036.4,103.19,-0.18,-7.55,0.0,367.36,-1.95,-3.79
3.77,2045.42,99.09,4.23,-6.63,0.0,364.37,-6.71,6.65
3.78,2054.33,94.43,-0.79,-10.18,0.0,364.86,2.51,7.14
3.79,2062.4500000000003,91.33,1.95,-4.68,0.0,362.85,-4.82,11.47
3.8,2071.61,86.64,0.46,-7.58,0.0,363.09,-2.62,14.03
3.8099999999999996,2080.77,83.06,-2.13,-7.02,0.0,366.69,0.01,7.56
3.82,2090.4100000000003,78.75,0.15,-5.7,0.0,369.13,-6.65,7.44
3.8299999999999996,2099.13,73.7,-2.42,-8.58,0.0,372.8,-0.42,-2.02
3.84,2108.9,70.26,0.48,-5.75,0.0,373.89,-3.35,-4.09
3.84,2108.9,70.26,0.48,-5.75,0.0,373.89,-3.35,-4.09
3.8499999999999996,2118.33,66.15,0.57,-6.91,0.0,373.22,-2.62,-3.97
3.86,2127.77,63.23,0.98,-7.63,0.0,373.53,-0.12,-2.69
3.8699999999999997,2137.57,60.16,2.25,-6.39,0.0,370.96,-4.39,4.51
3.88,2146.1,57.85,1.81,-7.26,0.0,369.87,-4.15,6.22
3.8899999999999997,2155.11,55.27,1.76,-6.83,0.0,369.01,-5.85,9.82
3.9,2164.12,52.68,0.84,-7.01,0.0,369.62,-6.89,9.94
3.9099999999999997,2174.77,36.1,5.59,-9.17,0.0,370.11,-4.02,8.36
3.92,2182.9900000000002,63.38,-4.28,-7.11,0.0,374.02,-5.79,0.54
3.9299999999999997,2192.26,51.54,2.99,-7.11,0.0,374.14,-3.78,5.18
3.94,2201.19,42.19,-1.01,-8.74,0.0,375.97,-0.54,0.06
3.9499999999999997,2211.1800000000003,36.37,2.1,-6.99,0.0,375.48,-0.85,1.83
3.96,2219.9,32.29,1.34,-9.53,0.0,375.18,0.31,4.63
3.9699999999999998,2228.7400000000002,29.9,-0.18,-8.03,0.0,375.42,2.45,1.83
3.98,2238.1800000000003,28.46,2.3,-7.0,0.0,373.59,-2.62,8.23
3.9899999999999998,2248.4300000000003,26.62,-0.97,-8.24,0.0,374.69,-0.91,-0.01
4.0,2257.42,25.43,1.78,-6.07,0.0,374.63,-5.31,3.11
4.01,2266.88,23.4,0.2,-11.08,0.0,375.79,-2.92,-0.25
4.0200000000000005,2275.42,22.46,2.93,-6.28,0.0,374.02,-6.65,4.69
4.03,2285.25,20.17,0.08,-6.93,0.0,374.99,-5.31,1.09
4.04,2294.15,17.77,3.39,-8.31,0.0,375.6,2.45,6.46
4.05,2303.76,16.58,0.64,-6.3,0.0,374.2,-2.86,8.72
4.06,2312.2200000000003,14.14,1.49,-9.15,0.0,375.42,0.62,7.44
4.07,2321.26,11.83,1.22,-7.76,0.0,376.46,-4.57,5.73
4.08,2330.79,9.57,0.38,-8.34,0.0,376.82,-3.54,0.97
4.09,2339.9700000000003,6.94,1.53,-7.84,0.0,377.56,-3.41,3.05
4.1,2348.33,3.63,0.5,-7.95,0.0,378.35,-2.74,0.91
4.11,2356.7000000000003,0.55,2.74,-8.09,0.0,378.72,-0.61,2.31
4.12,2366.26,-2.89,1.38,-7.35,0.0,377.92,-2.56,3.23
4.13,2375.0,-6.26,1.04,-6.88,0.0,377.43,-3.41,3.29
4.14,2383.04,-10.58,1.03,-7.64,0.0,376.46,-5.55,4.27
4.15,2391.21,-15.93,2.02,-8.26,0.0,377.07,-4.57,3.9
4.16,2399.26,-21.25,1.04,-7.68,0.0,377.92,-5.98,3.54
4.16,2399.26,-21.25,1.04,-7.68,0.0,377.92,-5.98,3.54
4.16,2399.26,-21.25,1.04,-7.68,0.0,377.92,-5.98,3.54
4.17,2406.14,-26.79,1.96,-9.06,0.0,379.33,-1.77,3.9
4.18,2412.9,-31.61,1.57,-7.07,0.0,379.45,-2.56,4.63
4.19,2423.7000000000003,-36.3,2.17,-7.11,0.0,379.33,-1.28,4.94
4.2,2435.11,-42.63,2.14,-7.13,0.0,380.49,-0.79,5.06
4.21,2445.4700000000003,-48.76,1.21,-6.55,0.0,381.22,-2.86,4.02
4.22,2454.4,-54.64,1.46,-7.02,0.0,380.73,-3.11,4.63
4.23,2462.51,-60.87,0.99,-6.56,0.0,380.0,-4.57,1.95
4.24,2471.34,-65.56,1.56,-6.55,0.0,380.12,-6.65,2.44
4.25,2479.34,-70.18,0.9,-7.43,0.0,380.97,-5.24,1.28
4.26,2488.1800000000003,-74.35,1.59,-7.02,0.0,381.83,-3.47,-0.07
4.2700000000000005,2496.32,-76.88,1.88,-7.57,0.0,381.34,-2.62,1.28
4.28,2504.94,-78.3,1.92,-7.09,0.0,381.4,-0.36,2.01
4.29,2513.21,-79.51,2.16,-5.94,0.0,380.79,-0.18,3.17
4.3,2520.77,-81.0,1.97,-6.3,0.0,380.3,-1.4,4.33
4.31,2528.4500000000003,-82.88,1.47,-5.49,0.0,378.84,-3.72,4.94
4.319999999999999,2535.78,-84.68,1.64,-6.21,0.0,378.35,-6.1,4.76
4.33,2543.84,-86.23,1.51,-6.48,0.0,378.96,-6.34,2.25
4.34,2551.1800000000003,-87.49,1.95,-6.69,0.0,379.2,-5.73,1.52
4.35,2559.13,-88.62,2.36,-6.97,0.0,378.96,-2.68,0.91
4.359999999999999,2565.27,-90.2,2.55,-6.79,0.0,378.47,-0.79,2.13
4.37,2572.27,-91.64,2.67,-6.62,0.0,378.9,1.23,3.05
4.38,2579.03,-92.76,2.45,-6.29,0.0,377.5,0.31,4.76
4.39,2585.9100000000003,-95.18,3.28,-5.39,0.0,376.88,0.25,5.49
4.3999999999999995,2592.2000000000003,-98.48,1.31,-6.16,0.0,376.64,-0.67,2.56
4.41,2599.82,-99.69,2.7,-5.18,0.0,376.7,-2.13,4.76
4.42,2605.38,-100.87,1.81,-6.02,0.0,375.66,-4.33,3.84
4.43,2612.89,-101.33,2.04,-6.02,0.0,374.63,-4.76,3.84
4.4399999999999995,2618.71,-101.36,2.02,-5.84,0.0,373.89,-5.0,3.96
4.45,2625.38,-101.51,2.08,-6.34,0.0,374.32,-3.05,3.29
4.46,2630.84,-101.28,2.36,-5.92,0.0,374.2,-1.4,2.92
4.47,2636.06,-101.61,1.89,-6.32,0.0,373.65,-0.3,3.54
4.4799999999999995,2642.75,-101.31,2.19,-5.87,0.0,373.65,-0.12,4.63
4.4799999999999995,2642.75,-101.31,2.19,-5.87,0.0,373.65,-0.12,4.63
4.49,2648.58,-101.31,1.78,-5.51,0.0,372.61,-1.46,4.33
4.5,2652.6,-101.11,1.94,-5.62,0.0,371.82,-1.7,4.51
4.51,2659.78,-100.67,1.68,-5.37,0.0,371.21,-3.17,3.47
4.52,2667.4500000000003,-100.72,1.46,-5.55,0.0,371.39,-3.35,2.07
4.53,2673.1800000000003,-100.64,1.72,-5.82,0.0,371.39,-3.96,2.31
4.54,2679.28,-100.2,1.46,-5.66,0.0,371.51,-3.84,0.79
4.55,2683.67,-100.45,1.7,-5.91,0.0,371.82,-3.05,0.42
4.56,2689.4100000000003,-99.67,2.04,-5.76,0.0,371.45,-2.56,0.36
4.569999999999999,2693.56,-99.2,2.04,-5.43,0.0,370.96,-1.7,1.83
4.58,2700.4100000000003,-99.49,2.07,-5.6,0.0,369.8,-1.09,3.47
4.59,2704.57,-99.16,1.9,-5.49,0.0,368.71,-1.58,5.12
4.6,2710.69,-98.67,1.81,-5.25,0.0,368.03,-2.25,5.73
4.609999999999999,2716.81,-98.36,1.36,-5.72,0.0,368.52,-2.44,5.12
4.62,2722.32,-98.14,1.54,-5.58,0.0,369.32,-2.5,3.9
4.63,2729.19,-97.95,1.61,-5.34,0.0,370.05,-2.62,1.58
4.64,2734.34,-97.8,1.56,-5.7,0.0,371.09,-1.58,1.15
4.6499999999999995,2739.87,-97.5,1.84,-5.34,0.0,371.45,-1.58,1.03
4.66,2745.27,-97.31,1.48,-5.64,0.0,371.51,-0.73,0.97
4.67,2750.56,-97.01,2.2,-4.89,0.0,371.09,-1.4,2.38
4.68,2755.84,-96.59,1.64,-4.98,0.0,370.42,-1.34,2.38
4.6899999999999995,2761.63,-96.65,1.89,-4.13,0.0,370.05,-2.07,4.39
4.7,2767.4100000000003,-96.18,1.96,-4.54,0.0,369.13,-3.66,3.84
4.71,2773.08,-96.15,0.97,-5.35,0.0,369.01,-2.86,5.06
4.72,2779.2400000000002,-95.61,1.57,-4.66,0.0,368.83,-4.94,4.88
4.7299999999999995,2784.17,-95.44,0.99,-5.97,0.0,369.13,-5.18,2.62
4.74,2790.34,-95.01,1.49,-4.86,0.0,370.54,-3.05,1.03
4.75,2795.1600000000003,-95.08,1.54,-4.69,0.0,369.99,-2.92,1.28
4.76,2800.9700000000003,-94.98,1.82,-5.3,0.0,370.54,-0.54,1.7
4.77,2806.65,-94.61,1.46,-4.61,0.0,369.74,-2.5,2.44
4.78,2812.34,-94.34,2.16,-4.52,0.0,368.95,-1.22,3.84
4.79,2817.79,-93.93,1.21,-5.31,0.0,369.07,-0.61,2.68
4.8,2823.36,-93.96,1.76,-4.87,0.0,369.13,-1.89,4.45
4.8,2823.36,-93.96,1.76,-4.87,0.0,369.13,-1.89,4.45
4.81,2828.81,-93.5,0.93,-4.98,0.0,369.19,-3.35,3.35
4.819999999999999,2834.52,-93.26,1.61,-4.27,0.0,369.07,-5.06,3.17
4.83,2840.84,-92.64,1.45,-4.27,0.0,369.38,-5.79,2.19
4.84,2845.69,-92.59,1.45,-4.91,0.0,370.54,-3.9,0.48
4.85,2851.4,-91.96,1.58,-3.88,0.0,369.44,-5.12,1.64
4.859999999999999,2856.87,-92.27,1.87,-4.7,0.0,369.56,-1.89,1.58
4.87,2862.09,-92.41,2.16,-4.15,0.0,368.58,-2.13,4.69
4.88,2867.94,-91.56,1.37,-4.26,0.0,367.97,-2.99,3.47
4.89,2873.79,-91.28,2.08,-4.23,0.0,367.97,-3.84,6.46
4.8999999999999995,2878.15,-90.97,0.97,-4.47,0.0,367.79,-4.21,3.23
4.91,2883.88,-90.76,1.94,-4.5,0.0,368.58,-3.9,4.33
4.92,2890.12,-90.88,0.91,-4.49,0.0,369.68,-3.78,1.76
4.93,2894.2400000000002,-90.65,1.56,-4.67,0.0,369.99,-2.44,1.09
4.9399999999999995,2900.35,-90.38,1.49,-4.46,0.0,370.05,-2.01,1.09
4.95,2906.2200000000003,-90.21,1.67,-4.89,0.0,369.87,-0.97,0.79
4.96,2911.7200000000003,-89.74,1.85,-4.43,0.0,369.26,-1.09,3.6
4.97,2916.73,-89.34,1.54,-4.34,0.0,369.01,-1.22,3.41
4.9799999999999995,2922.11,-89.48,1.78,-4.28,0.0,369.26,-1.22,5.24
4.99,2927.87,-89.07,0.96,-3.81,0.0,368.83,-3.05,4.63
5.0,2932.25,-88.71,1.86,-3.85,0.0,369.26,-4.21,4.82
5.01,2938.64,-88.24,1.05,-4.01,0.0,369.62,-4.57,2.56
5.02,2944.1600000000003,-88.28,1.33,-4.26,0.0,370.48,-4.02,1.95
5.03,2949.69,-87.85,1.7,-3.73,0.0,371.57,-4.08,2.07
5.04,2955.46,-87.75,1.63,-4.64,0.0,373.16,-2.01,2.19
5.05,2960.4900000000002,-87.39,1.46,-3.91,0.0,372.61,-2.25,2.68
5.06,2965.39,-87.66,1.36,-4.81,0.0,372.31,-1.83,3.54
5.069999999999999,2971.2999999999997,-87.44,1.37,-4.02,0.0,372.55,-1.58,2.68
5.08,2976.8399999999997,-87.09,1.76,-4.42,0.0,373.16,-2.13,3.66
5.09,2981.3700000000003,-86.85,1.28,-4.34,0.0,373.1,-2.19,2.99
5.1,2987.5499999999997,-86.49,1.69,-4.03,0.0,372.49,-3.6,2.38
5.109999999999999,2992.0899999999997,-86.4,1.13,-4.42,0.0,372.55,-2.74,2.68
5.12,2998.02,-85.82,1.43,-3.84,0.0,372.98,-3.72,3.66
5.12,2998.02,-85.82,1.43,-3.84,0.0,372.98,-3.72,3.66
5.13,3003.57,-85.51,1.39,-4.3,0.0,373.77,-2.44,2.86
5.14,3009.6299999999997,-85.39,1.27,-3.73,0.0,373.59,-2.92,2.44
5.1499999999999995,3014.31,-85.37,1.51,-4.1,0.0,373.47,-2.38,3.54
5.16,3019.36,-84.98,1.26,-3.64,0.0,373.59,-2.8,3.35
5.17,3024.93,-85.07,1.39,-3.82,0.0,374.2,-2.99,3.66
5.18,3030.3700000000003,-84.73,1.16,-3.94,0.0,374.69,-2.5,3.66
5.1899999999999995,3035.69,-84.1,1.39,-3.52,0.0,374.87,-3.72,3.35
5.2,3041.4,-84.32,1.05,-4.05,0.0,375.73,-2.56,2.86
5.21,3046.5899999999997,-83.76,1.43,-3.38,0.0,376.09,-3.05,2.38
5.22,3052.43,-83.65,0.65,-3.83,0.0,375.97,-1.7,1.76
5.2299999999999995,3057.2500000000005,-83.63,1.45,-4.24,0.0,376.09,-0.91,2.62
5.24,3062.5899999999997,-83.33,1.31,-3.63,0.0,376.03,-1.83,3.6
5.25,3068.43,-83.0,1.24,-3.92,0.0,376.27,-1.46,3.41
5.26,3073.52,-82.88,1.05,-3.54,0.0,376.64,-1.52,1.95
5.27,3079.8799999999997,-82.59,1.2,-3.49,0.0,377.25,-1.64,2.07
5.28,3083.8300000000004,-82.35,1.09,-3.65,0.0,378.41,-1.64,1.34
5.29,3089.43,-82.14,1.5,-3.28,0.0,378.66,-2.68,1.89
5.3,3094.6600000000003,-81.82,1.19,-3.67,0.0,378.59,-1.89,1.95
5.31,3100.27,-81.69,1.34,-3.24,0.0,378.59,-3.41,3.29
5.319999999999999,3106.14,-81.61,1.55,-3.82,0.0,378.11,-2.92,3.35
5.33,3110.9900000000002,-81.36,1.13,-3.5,0.0,378.04,-4.21,3.29
5.34,3116.36,-80.94,1.25,-3.68,0.0,378.23,-3.54,3.41
5.35,3121.85,-80.98,1.15,-3.6,0.0,378.17,-2.92,3.11
5.359999999999999,3127.48,-80.81,1.01,-3.56,0.0,378.41,-2.38,2.56
5.37,3132.0899999999997,-80.37,1.15,-3.57,0.0,379.27,-1.4,2.19
5.38,3137.97,-80.37,0.91,-3.5,0.0,379.51,-1.34,1.46
5.39,3143.7400000000002,-80.12,1.23,-3.33,0.0,379.75,-0.97,1.03
5.3999999999999995,3148.1,-79.96,1.05,-3.11,0.0,379.75,-2.62,1.4
5.41,3153.7400000000002,-79.61,1.16,-3.28,0.0,379.81,-2.86,1.58
5.42,3158.7400000000002,-79.27,1.06,-3.06,0.0,379.75,-4.21,1.22
5.43,3163.8799999999997,-79.19,1.3,-3.34,0.0,379.57,-4.45,2.56
5.4399999999999995,3170.0499999999997,-78.93,1.03,-3.17,0.0,379.51,-4.57,1.22
5.4399999999999995,3170.0499999999997,-78.93,1.03,-3.17,0.0,379.51,-4.57,1.22
5.45,3175.57,-78.72,1.23,-3.36,0.0,379.57,-3.84,1.83
5.46,3180.5899999999997,-78.48,1.27,-3.21,0.0,379.88,-3.17,2.25
5.47,3184.8399999999997,-78.22,1.33,-3.39,0.0,379.88,-1.4,2.62
5.4799999999999995,3190.5000000000005,-77.9,1.28,-3.12,0.0,379.2,-1.34,3.96
5.49,3195.9100000000003,-77.85,1.28,-3.45,0.0,379.75,-0.54,4.33
5.5,3201.8399999999997,-77.71,1.24,-3.14,0.0,380.18,-1.15,5.06
5.51,3206.7400000000002,-77.49,1.06,-3.27,0.0,381.34,-1.77,4.51
5.52,3212.1600000000003,-77.14,1.4,-3.29,0.0,381.95,-1.95,4.69
5.53,3217.07,-77.01,0.78,-3.29,0.0,382.2,-2.56,3.23
5.54,3222.6200000000003,-76.89,1.09,-3.24,0.0,382.01,-2.62,3.17
5.55,3228.18,-76.59,0.91,-3.36,0.0,382.62,-1.64,1.83
5.56,3233.36,-76.41,1.32,-3.19,0.0,383.42,-2.13,1.46
5.569999999999999,3239.0499999999997,-76.52,0.99,-3.27,0.0,383.84,-1.58,2.07
5.58,3244.1,-76.14,1.05,-3.27,0.0,383.72,-2.07,1.95
5.59,3249.93,-75.96,1.17,-3.3,0.0,384.45,-1.34,2.56
5.6,3253.9500000000003,-75.59,0.88,-3.47,0.0,385.06,-0.79,2.56
5.609999999999999,3259.53,-75.52,0.8,-2.99,0.0,384.33,-2.13,2.38
5.62,3264.2000000000003,-75.32,1.2,-3.39,0.0,384.58,-0.97,2.92
5.63,3270.56,-75.09,0.75,-2.91,0.0,385.31,-1.77,2.19
5.64,3276.5400000000004,-74.98,1.55,-2.76,0.0,385.19,-1.77,2.74
5.6499999999999995,3281.22,-74.52,0.79,-2.38,0.0,385.86,-2.31,2.62
5.66,3286.1600000000003,-74.53,0.94,-3.23,0.0,386.04,-2.86,1.76
5.67,3291.89,-74.19,1.17,-2.7,0.0,386.16,-2.56,2.56
5.68,3296.57,-74.28,0.96,-3.13,0.0,386.35,-2.38,2.07
5.6899999999999995,3302.31,-73.92,1.36,-2.93,0.0,386.77,-1.4,3.35
5.7,3307.0000000000005,-73.57,0.87,-2.88,0.0,387.32,-2.01,2.99
5.71,3311.9500000000003,-73.57,1.4,-3.08,0.0,387.63,-2.31,4.69
5.72,3317.7000000000003,-73.21,0.9,-2.77,0.0,387.99,-3.29,4.15
5.7299999999999995,3322.6600000000003,-73.06,1.17,-2.78,0.0,388.05,-3.41,4.69
5.74,3327.4900000000002,-72.91,0.89,-2.92,0.0,388.3,-3.41,4.15
5.75,3332.5899999999997,-72.61,1.2,-2.69,0.0,388.79,-3.54,3.47
5.76,3338.61,-72.52,0.77,-2.82,0.0,389.28,-2.13,3.17
5.76,3338.61,-72.52,0.77,-2.82,0.0,389.28,-2.13,3.17
5.77,3343.5800000000004,-72.34,0.96,-2.89,0.0,390.25,-1.4,2.74
5.78,3349.2100000000005,-72.2,1.15,-2.85,0.0,390.37,-1.34,2.92
5.79,3354.32,-71.92,0.83,-2.68,0.0,390.44,-0.85,2.19
5.8,3359.2999999999997,-71.87,1.32,-2.77,0.0,390.56,-1.34,3.29
5.81,3364.68,-71.45,0.83,-2.6,0.0,391.05,-1.7,2.19
5.819999999999999,3369.4,-71.42,1.2,-2.57,0.0,391.17,-2.62,3.96
5.83,3375.44,-71.13,1.15,-2.73,0.0,391.17,-2.5,3.72
5.84,3379.9100000000003,-70.95,1.03,-2.17,0.0,390.56,-2.86,4.69
5.85,3385.1700000000005,-70.97,1.08,-3.53,0.0,391.17,-2.13,4.76
5.859999999999999,3390.1700000000005,-70.87,0.8,-2.1,0.0,391.66,-3.47,4.63
5.87,3395.56,-70.57,0.99,-3.02,0.0,392.27,-3.41,4.94
5.88,3400.57,-70.27,1.05,-2.19,0.0,392.94,-2.8,3.84
5.89,3405.8399999999997,-69.97,1.13,-2.53,0.0,393.18,-2.68,3.72
5.8999999999999995,3410.8399999999997,-69.86,1.01,-2.54,0.0,393.24,-1.34,3.17
5.91,3416.78,-69.64,0.74,-1.75,0.0,393.61,-2.68,2.25
5.92,3421.1299999999997,-69.49,1.14,-2.8,0.0,394.77,-1.58,3.41
5.93,3426.4100000000003,-69.34,0.68,-1.9,0.0,394.77,-3.05,2.07
5.9399999999999995,3431.9600000000005,-69.27,1.14,-2.74,0.0,395.01,-2.13,2.74
5.95,3437.52,-69.04,0.58,-2.49,0.0,395.56,-3.78,1.95
5.96,3442.28,-68.77,1.11,-2.66,0.0,395.62,-3.29,2.13
5.97,3446.64,-68.83,0.71,-2.47,0.0,395.44,-3.66,2.07
5.9799999999999995,3452.73,-68.4,1.04,-2.53,0.0,395.68,-3.35,2.38
5.99,3457.9,-68.29,1.06,-2.81,0.0,396.05,-2.74,3.17
6.0,3462.27,-68.31,1.07,-2.36,0.0,395.81,-2.8,3.47
6.01,3467.7100000000005,-68.23,1.01,-2.54,0.0,396.11,-2.68,3.84
6.02,3472.6200000000003,-67.65,1.01,-2.25,0.0,396.72,-2.5,3.29
6.03,3477.7999999999997,-67.42,0.96,-2.39,0.0,396.6,-2.92,4.08
6.04,3482.5800000000004,-67.59,0.82,-2.31,0.0,397.33,-2.44,3.9
6.05,3488.03,-67.46,0.92,-2.41,0.0,397.45,-2.56,2.74
6.06,3493.48,-67.16,0.92,-2.26,0.0,397.52,-2.56,2.31
6.069999999999999,3497.8700000000003,-66.88,0.66,-2.24,0.0,397.94,-2.19,1.64
6.08,3503.73,-66.71,1.06,-2.32,0.0,398.25,-2.25,2.19
6.08,3503.73,-66.71,1.06,-2.32,0.0,398.25,-2.25,2.19
6.09,3507.86,-66.52,0.85,-1.93,0.0,398.49,-2.44,1.83
6.1,3513.32,-66.35,0.8,-1.82,0.0,398.43,-3.11,2.31
6.109999999999999,3518.6600000000003,-66.09,1.02,-2.22,0.0,398.74,-2.38,2.31
6.12,3523.73,-66.26,0.77,-1.97,0.0,398.31,-3.6,2.68
6.13,3527.6,-66.2,0.8,-2.22,0.0,398.13,-3.54,3.72
6.14,3533.3399999999997,-65.86,0.96,-2.2,0.0,398.49,-3.17,3.47
6.1499999999999995,3539.35,-65.64,0.8,-2.1,0.0,398.49,-3.23,3.29
6.16,3542.9600000000005,-65.43,0.86,-2.08,0.0,398.86,-2.56,3.29
6.17,3548.4500000000003,-65.3,0.92,-2.24,0.0,399.16,-2.8,3.9
6.18,3553.53,-64.96,0.8,-2.36,0.0,400.2,-1.7,2.99
6.1899999999999995,3558.22,-64.94,0.99,-1.83,0.0,400.32,-1.95,3.47
6.2,3563.31,-64.55,0.86,-2.28,0.0,400.32,-1.52,2.19
6.21,3568.14,-64.39,0.95,-2.12,0.0,400.75,-1.58,3.05
6.22,3573.23,-64.44,0.72,-2.24,0.0,401.3,-1.4,1.52
6.2299999999999995,3578.7400000000002,-64.3,0.94,-2.17,0.0,401.6,-2.19,2.13
6.24,3583.57,-64.21,0.89,-2.44,0.0,402.09,-2.68,1.46
6.25,3588.4100000000003,-64.0,0.86,-1.93,0.0,402.28,-3.05,1.58
6.26,3593.78,-63.7,0.88,-2.15,0.0,402.64,-2.74,1.64
6.27,3598.36,-63.35,0.91,-2.0,0.0,402.95,-3.17,2.8
6.28,3603.07,-63.58,0.72,-2.01,0.0,403.31,-2.92,2.62
6.29,3607.9100000000003,-63.31,0.98,-1.96,0.0,403.31,-2.99,3.66
6.3,3613.03,-63.05,0.65,-2.15,0.0,404.17,-3.41,2.92
6.31,3617.8799999999997,-62.65,0.92,-1.72,0.0,404.53,-3.6,3.47
6.319999999999999,3622.2000000000003,-62.57,0.62,-1.7,0.0,405.08,-3.29,3.05
6.33,3627.73,-62.46,0.91,-1.91,0.0,405.15,-3.41,2.5
6.34,3632.86,-62.52,0.88,-1.96,0.0,405.94,-2.92,2.01
6.35,3637.86,-62.33,0.62,-1.83,0.0,406.24,-3.11,1.76
6.359999999999999,3642.32,-61.99,0.87,-1.98,0.0,406.92,-2.19,2.31
6.37,3647.86,-61.91,0.65,-1.75,0.0,407.71,-2.92,2.25
6.38,3651.5099999999998,-61.8,0.97,-1.94,0.0,407.77,-2.99,2.62
6.39,3656.9200000000005,-61.78,0.77,-1.91,0.0,408.2,-3.23,2.86
6.3999999999999995,3661.7999999999997,-61.45,0.99,-1.95,0.0,407.71,-3.66,2.68
6.3999999999999995,3661.7999999999997,-61.45,0.99,-1.95,0.0,407.71,-3.66,2.68
6.41,3666.27,-61.4,0.78,-2.13,0.0,408.44,-3.29,3.29
6.42,3671.4200000000005,-61.25,1.01,-1.84,0.0,408.2,-3.47,3.35
6.43,3676.03,-60.94,0.61,-2.15,0.0,408.62,-3.17,2.92
6.4399999999999995,3681.0499999999997,-60.69,0.95,-1.77,0.0,408.87,-3.35,3.29
6.45,3686.0800000000004,-60.58,0.59,-2.1,0.0,409.42,-1.4,2.19
6.46,3691.1,-60.45,0.94,-1.9,0.0,409.84,-1.28,2.07
6.47,3695.5899999999997,-60.25,0.8,-1.9,0.0,409.91,-0.42,2.92
6.4799999999999995,3700.2100000000005,-60.33,0.81,-1.79,0.0,410.21,-0.42,3.05
6.49,3705.2400000000002,-60.21,0.85,-2.0,0.0,410.27,-1.64,3.96
6.5,3709.6,-60.1,0.7,-1.81,0.0,410.76,-1.89,3.54
6.51,3714.9100000000003,-59.89,0.87,-1.73,0.0,411.37,-3.66,3.6
6.52,3719.1299999999997,-59.43,0.78,-1.64,0.0,411.19,-3.96,3.23
6.53,3724.0400000000004,-59.29,0.78,-1.74,0.0,411.55,-4.45,3.29
6.54,3728.68,-59.22,0.66,-1.7,0.0,411.92,-4.21,3.41
6.55,3733.73,-59.18,0.96,-1.66,0.0,412.04,-3.6,3.6
6.56,3738.3700000000003,-59.25,0.73,-2.22,0.0,412.41,-2.31,3.11
6.569999999999999,3742.61,-58.93,0.96,-1.68,0.0,412.96,-1.95,3.9
6.58,3747.6600000000003,-58.86,0.71,-2.04,0.0,413.02,0.01,3.96
6.59,3753.4100000000003,-58.51,0.89,-1.64,0.0,413.02,-0.42,3.9
6.6,3757.5099999999998,-58.48,0.76,-1.82,0.0,413.32,-0.24,3.78
6.609999999999999,3762.44,-58.1,0.82,-1.53,0.0,413.87,-0.67,3.78
6.62,3766.82,-58.17,0.75,-1.73,0.0,414.12,-1.95,3.35
6.63,3771.7500000000005,-57.98,0.77,-1.63,0.0,414.79,-2.74,2.92
6.64,3776.8300000000004,-58.03,0.84,-1.69,0.0,414.79,-3.78,2.44
6.6499999999999995,3781.0800000000004,-57.77,0.66,-1.43,0.0,415.03,-4.02,1.76
6.66,3786.57,-57.61,0.83,-1.74,0.0,415.34,-4.02,2.44
6.67,3790.4100000000003,-57.41,0.66,-1.67,0.0,415.03,-4.02,2.5
6.68,3795.0800000000004,-57.25,0.88,-1.58,0.0,415.22,-3.84,2.99
6.6899999999999995,3799.6200000000003,-57.03,0.82,-1.73,0.0,415.7,-2.99,3.54
6.7,3804.7100000000005,-57.18,0.64,-1.51,0.0,415.77,-3.17,3.96
6.71,3808.7000000000003,-56.72,1.08,-1.82,0.0,416.31,-2.07,4.39
6.72,3813.93,-56.71,0.29,-1.21,0.0,416.62,-3.54,3.11
6.72,3813.93,-56.71,0.29,-1.21,0.0,416.62,-3.54,3.11
6.7299999999999995,3818.89,-56.69,1.14,-1.81,0.0,416.93,-2.56,2.92
6.74,3822.61,-56.38,0.52,-1.43,0.0,417.35,-4.57,1.83
6.75,3827.2900000000004,-56.16,0.81,-1.78,0.0,417.72,-4.51,1.15
6.76,3831.7100000000005,-56.03,0.54,-1.48,0.0,418.15,-5.06,0.85
6.77,3835.85,-55.77,0.65,-1.81,0.0,418.63,-4.51,-0.07
6.78,3841.9200000000005,-55.78,0.72,-1.69,0.0,418.82,-4.27,0.67
6.79,3846.2000000000003,-55.79,0.76,-1.37,0.0,418.45,-3.9,0.73
6.8,3850.2100000000005,-55.74,0.91,-1.71,0.0,418.7,-3.05,2.25
6.81,3854.36,-55.32,1.1,-1.19,0.0,418.33,-2.92,3.6
6.819999999999999,3859.7500000000005,-55.32,0.35,-1.44,0.0,418.15,-3.17,4.69
6.83,3863.77,-55.38,0.65,-1.99,0.0,418.63,-1.95,5.55
6.84,3868.61,-54.82,0.83,-0.57,0.0,419.12,-5.18,5.85
6.85,3873.4600000000005,-54.89,0.77,-1.94,0.0,419.92,-3.84,3.9
6.859999999999999,3878.5899999999997,-54.62,0.6,-0.82,0.0,421.01,-2.56,1.7
6.87,3883.44,-54.51,0.59,-1.11,0.0,422.42,-2.62,0.12
6.88,3887.61,-54.48,0.7,-1.57,0.0,423.58,1.29,0.12
6.89,3892.0499999999997,-54.22,-0.33,-0.79,0.0,424.07,0.68,-1.47
6.8999999999999995,3897.19,-54.49,1.36,-2.43,0.0,425.29,3.79,1.64
6.91,3901.5000000000005,-54.03,-0.07,-0.9,0.0,424.62,-0.18,1.64
6.92,3905.6700000000005,-53.95,1.1,-1.62,0.0,424.19,-1.52,3.66
6.93,3910.68,-53.83,0.43,-1.3,0.0,424.01,-1.89,4.69
6.9399999999999995,3914.2900000000004,-53.55,0.71,-1.05,0.0,423.09,-5.79,5.24
6.95,3919.03,-53.57,0.82,-0.61,0.0,423.03,-6.22,5.85
6.96,3924.18,-53.6,0.39,-1.43,0.0,423.46,-6.28,4.15
6.97,3927.7999999999997,-53.31,0.9,-1.23,0.0,425.04,-3.47,3.9
6.9799999999999995,3932.68,-53.01,0.43,-1.38,0.0,426.02,-3.29,2.5
6.99,3936.5899999999997,-53.06,1.16,-1.66,0.0,426.75,-0.12,2.5
7.0,3941.89,-52.89,0.3,-1.48,0.0,427.12,0.13,-0.01
7.01,3946.5000000000005,-52.73,1.08,-1.75,0.0,427.61,1.84,1.4
7.02,3950.8300000000004,-52.68,0.25,-1.4,0.0,428.03,0.74,0.48
7.03,3956.0099999999998,-52.89,1.16,-1.71,0.0,429.01,0.07,1.34
7.04,3959.64,-52.52,0.37,-1.43,0.0,429.32,-2.13,0.85
7.04,3959.64,-52.52,0.37,-1.43,0.0,429.32,-2.13,0.85
7.05,3964.1200000000003,-52.41,0.86,-1.9,0.0,428.95,-3.66,1.95
7.06,3968.6,-52.37,0.23,-1.48,0.0,428.46,-5.31,2.74
7.069999999999999,3972.52,-52.0,1.54,-2.43,0.0,428.1,-5.0,4.39
7.08,3977.0000000000005,-52.05,0.51,-2.1,0.0,428.16,-4.27,4.76
7.09,3980.5099999999998,-51.77,1.45,-1.86,0.0,428.83,-3.05,5.85
7.1,3985.27,-51.74,0.72,-2.33,0.0,429.5,-0.73,7.14
7.109999999999999,3988.9200000000005,-51.65,0.72,-1.76,0.0,429.56,-0.48,6.89
7.12,3994.4,-51.21,0.99,-1.34,0.0,429.38,0.01,7.99
7.13,3999.1700000000005,-51.18,0.73,-1.31,0.0,429.62,0.07,6.4
7.14,4002.82,-51.08,1.05,-0.89,0.0,430.17,-1.09,6.04
7.1499999999999995,4007.7400000000002,-50.86,0.64,-1.21,0.0,431.09,-1.09,3.23
7.16,4012.9500000000003,-50.96,0.88,-1.27,0.0,432.0,-0.79,2.68
7.17,4016.47,-50.51,0.7,-0.87,0.0,432.18,-2.68,1.28
7.18,4020.69,-50.69,0.69,-1.68,0.0,432.79,-2.56,0.79
7.1899999999999995,4026.18,-50.33,0.59,-1.02,0.0,432.61,-4.51,0.36
7.2,4029.9900000000002,-50.62,0.81,-1.55,0.0,432.67,-4.02,0.97
7.21,4034.78,-50.24,0.68,-1.05,0.0,432.86,-4.21,1.95
7.22,4038.5899999999997,-50.38,0.59,-1.35,0.0,432.92,-3.96,2.99
7.2299999999999995,4043.9500000000003,-49.83,0.79,-1.15,0.0,432.86,-3.84,4.39
7.24,4047.3399999999997,-49.74,0.77,-1.19,0.0,432.43,-2.19,5.85
7.25,4052.57,-49.9,0.88,-1.18,0.0,432.25,-2.5,7.08
7.26,4056.2400000000002,-49.77,0.67,-1.2,0.0,432.92,-2.13,7.32
7.27,4060.2000000000003,-49.4,0.85,-1.37,0.0,433.34,-2.25,7.08
7.28,4065.72,-49.43,0.91,-1.24,0.0,433.83,-2.44,6.71
7.29,4069.68,-49.21,0.8,-1.26,0.0,434.26,-2.13,4.51
7.3,4074.64,-49.24,0.98,-1.29,0.0,434.69,-1.46,3.78
7.31,4079.03,-48.93,0.55,-1.01,0.0,435.3,-1.58,2.01
7.319999999999999,4083.14,-48.82,0.82,-1.22,0.0,435.91,-1.89,1.95
7.33,4087.6700000000005,-48.97,0.54,-1.09,0.0,436.27,-1.95,1.89
7.34,4091.7900000000004,-48.67,0.79,-1.06,0.0,436.27,-2.86,2.01
7.35,4096.76,-48.4,0.55,-1.11,0.0,436.27,-2.92,2.07
7.359999999999999,4100.73,-48.39,0.62,-1.12,0.0,436.21,-3.78,1.76
7.359999999999999,4100.73,-48.39,0.62,-1.12,0.0,436.21,-3.78,1.76
7.37,4104.43,-48.26,0.69,-1.1,0.0,436.58,-3.72,2.19
7.38,4108.969999999999,-48.09,0.63,-0.94,0.0,436.46,-3.84,2.8
7.39,4113.24,-48.08,0.81,-1.06,0.0,436.46,-3.11,3.78
7.3999999999999995,4117.65,-48.19,0.66,-0.98,0.0,436.52,-2.62,4.08
7.41,4122.35,-47.69,0.77,-0.96,0.0,436.7,-2.68,5.0
7.42,4126.48,-47.72,0.79,-1.26,0.0,436.88,-2.56,5.55
7.43,4129.9,-47.65,0.86,-0.95,0.0,437.19,-3.11,5.79
7.4399999999999995,4134.6,-47.59,0.74,-1.02,0.0,437.25,-3.47,5.06
7.45,4138.879999999999,-47.23,0.84,-0.95,0.0,437.8,-3.78,3.96
7.46,4144.01,-47.13,0.71,-0.93,0.0,437.98,-4.76,3.41
7.47,4147.4400000000005,-46.94,0.78,-1.12,0.0,438.59,-4.45,2.19
7.4799999999999995,4151.58,-46.72,0.62,-0.89,0.0,438.78,-5.0,1.34
7.49,4157.01,-46.84,0.73,-0.92,0.0,439.33,-4.57,1.28
7.5,4160.299999999999,-46.73,0.59,-1.05,0.0,439.14,-4.39,1.09
7.51,4164.870000000001,-46.61,0.7,-1.02,0.0,439.51,-3.96,1.46
7.52,4168.59,-46.64,0.57,-1.06,0.0,439.39,-3.35,2.38
7.53,4173.32,-46.23,0.63,-0.99,0.0,439.2,-2.5,3.84
7.54,4177.75,-46.3,0.61,-0.97,0.0,439.14,-2.38,4.76
7.55,4181.34,-46.21,0.73,-1.04,0.0,439.57,-2.25,5.0
7.56,4185.35,-45.81,0.69,-1.02,0.0,439.51,-2.68,5.18
7.569999999999999,4189.360000000001,-45.78,0.77,-1.0,0.0,439.75,-2.62,4.88
7.58,4194.82,-45.95,0.76,-1.03,0.0,440.18,-2.74,4.27
7.59,4198.4,-45.74,0.79,-1.05,0.0,440.36,-2.8,3.6
7.6,4202.710000000001,-45.81,0.84,-1.09,0.0,440.91,-2.68,3.05
7.609999999999999,4207.02,-45.45,0.69,-0.88,0.0,440.91,-2.62,2.25
7.62,4210.040000000001,-45.41,0.79,-1.26,0.0,441.16,-2.19,2.31
7.63,4215.5,-45.22,0.54,-0.98,0.0,441.16,-2.07,2.31
7.64,4219.389999999999,-45.36,0.73,-1.09,0.0,441.28,-2.31,3.11
7.6499999999999995,4223.27,-45.13,0.83,-1.05,0.0,441.4,-2.25,3.72
7.66,4227.59,-45.1,0.58,-0.99,0.0,441.34,-2.86,3.96
7.67,4231.48,-45.08,0.92,-0.95,0.0,441.4,-3.23,4.63
7.68,4236.09,-44.71,0.57,-0.98,0.0,441.58,-3.6,4.63
7.68,4236.09,-44.71,0.57,-0.98,0.0,441.58,-3.6,4.63
7.6899999999999995,4239.120000000001,-44.7,0.9,-0.79,0.0,441.28,-3.66,4.69
7.7,4244.75,-44.61,0.59,-0.87,0.0,441.34,-3.78,3.84
7.71,4248.210000000001,-44.36,0.8,-1.02,0.0,441.58,-2.99,3.78
7.72,4253.120000000001,-44.19,0.57,-0.78,0.0,441.46,-3.11,3.23
7.7299999999999995,4257.02,-44.36,0.88,-1.06,0.0,441.46,-2.13,3.47
7.74,4260.92,-44.08,0.58,-0.76,0.0,441.52,-1.95,2.92
7.75,4264.82,-43.95,0.79,-1.01,0.0,441.65,-1.4,3.54
7.76,4269.16,-43.67,0.68,-0.9,0.0,442.01,-1.52,3.6
7.77,4272.93,-43.91,0.71,-1.0,0.0,441.95,-1.77,3.47
7.78,4277.27,-43.87,0.71,-1.05,0.0,442.13,-2.25,3.96
7.79,4281.76,-43.62,0.78,-0.95,0.0,441.89,-2.86,3.78
7.8,4286.969999999999,-43.4,0.63,-0.93,0.0,441.95,-3.17,3.96
7.81,4289.58,-43.31,0.75,-0.85,0.0,442.38,-3.6,3.66
7.819999999999999,4293.9400000000005,-43.45,0.79,-0.88,0.0,442.19,-3.6,3.47
7.83,4298.139999999999,-43.14,0.69,-0.79,0.0,442.8,-3.72,3.11
7.84,4302.35,-42.85,0.69,-0.77,0.0,442.93,-3.54,3.17
7.85,4305.98,-43.15,0.68,-0.99,0.0,442.8,-3.11,3.23
7.859999999999999,4309.76,-42.93,0.78,-0.82,0.0,442.74,-2.99,3.78
7.87,4314.5599999999995,-42.65,0.64,-0.87,0.0,442.74,-2.68,3.6
7.88,4318.34,-42.83,0.79,-0.82,0.0,442.68,-2.01,4.08
7.89,4322.5599999999995,-42.79,0.68,-0.71,0.0,442.8,-1.77,3.78
7.8999999999999995,4326.49,-42.66,0.79,-0.84,0.0,443.05,-1.58,3.54
7.91,4331.73,-42.4,0.53,-0.8,0.0,443.11,-1.83,2.8
7.92,4335.370000000001,-42.22,0.96,-0.93,0.0,443.17,-2.13,3.05
7.93,4338.58,-42.19,0.59,-0.85,0.0,443.54,-2.8,2.5
7.9399999999999995,4343.540000000001,-41.96,0.68,-0.97,0.0,443.6,-3.35,2.31
7.95,4346.450000000001,-41.8,0.65,-0.79,0.0,443.42,-3.17,2.01
7.96,4350.25,-41.64,0.84,-0.69,0.0,443.42,-2.92,1.95
7.97,4355.65,-41.91,0.58,-0.97,0.0,443.48,-1.34,3.05
7.9799999999999995,4359.59,-41.72,0.57,-0.49,0.0,443.42,-1.15,3.41
7.99,4363.25,-41.64,0.64,-0.85,0.0,442.62,-0.3,4.76
8.0,4367.629999999999,-41.52,0.54,-0.8,0.0,442.68,-0.61,6.53
8.0,4367.629999999999,-41.52,0.54,-0.8,0.0,442.68,-0.61,6.53
8.01,4370.41,-41.35,0.92,-0.71,0.0,442.19,-1.58,7.44
8.02,4374.950000000001,-41.13,0.63,-0.67,0.0,442.19,-2.68,7.01
8.030000000000001,4378.75,-41.28,0.91,-0.64,0.0,442.19,-3.84,6.89
8.040000000000001,4382.5599999999995,-41.16,0.64,-0.71,0.0,442.19,-4.39,5.24
8.05,4386.960000000001,-40.83,0.94,-0.58,0.0,442.44,-5.12,3.41
8.06,4390.620000000001,-40.78,0.71,-0.72,0.0,442.62,-4.21,1.58
8.07,4394.43,-41.02,0.69,-0.68,0.0,442.87,-3.78,0.67
8.08,4399.280000000001,-40.79,0.62,-0.73,0.0,442.93,-3.11,0.85
8.09,4403.530000000001,-40.63,0.7,-0.94,0.0,442.87,-2.31,0.85
8.1,4407.35,-40.53,0.46,-0.62,0.0,442.8,-2.13,2.19
8.11,4411.610000000001,-40.45,0.62,-0.96,0.0,442.68,-2.19,2.86
8.120000000000001,4414.84,-40.15,0.57,-0.74,0.0,441.89,-2.62,4.51
8.13,4418.52,-40.31,0.58,-0.88,0.0,441.46,-3.29,5.12
8.14,4421.76,-39.94,0.83,-0.47,0.0,441.34,-4.51,5.61
8.15,4427.639999999999,-40.18,0.7,-0.79,0.0,441.16,-4.33,5.06
8.16,4430.73,-39.74,0.6,-0.22,0.0,441.4,-5.12,4.76
8.17,4435.15,-39.77,1.32,-0.78,0.0,441.28,-4.21,4.15
8.18,4438.98,-39.74,0.43,-0.3,0.0,441.52,-5.31,1.64
8.19,4442.67,-39.6,0.88,-1.09,0.0,441.95,-4.02,1.7
8.200000000000001,4447.540000000001,-39.41,0.52,-0.38,0.0,441.34,-4.63,0.42
8.21,4450.49,-39.52,0.72,-0.96,0.0,442.01,-3.23,0.85
8.22,4454.92,-39.31,0.47,-0.58,0.0,441.71,-2.8,1.22
8.23,4458.3099999999995,-39.25,0.46,-0.89,0.0,441.52,-2.44,2.13
8.24,4462.299999999999,-38.95,0.86,-0.69,0.0,440.97,-2.31,3.9
8.25,4466.0,-39.01,0.55,-0.7,0.0,440.55,-2.44,3.78
8.26,4470.280000000001,-39.03,0.91,-0.8,0.0,440.24,-2.68,5.0
8.27,4474.43,-38.84,0.45,-0.61,0.0,440.06,-4.15,3.6
8.280000000000001,4477.389999999999,-38.73,0.79,-0.57,0.0,440.24,-4.15,3.96
8.290000000000001,4481.530000000001,-38.73,0.68,-0.56,0.0,440.24,-4.76,2.74
8.3,4485.68,-38.57,0.65,-0.57,0.0,440.49,-3.96,1.46
8.31,4490.120000000001,-38.34,0.76,-0.6,0.0,440.18,-3.35,1.09
8.32,4493.09,-38.48,0.58,-0.72,0.0,440.79,-2.13,0.73
8.32,4493.09,-38.48,0.58,-0.72,0.0,440.79,-2.13,0.73
8.33,4497.6900000000005,-38.05,0.65,-0.63,0.0,440.61,-1.7,0.91
8.34,4501.1,-38.11,0.65,-0.77,0.0,440.55,-0.85,1.95
8.350000000000001,4504.960000000001,-37.96,0.48,-0.69,0.0,440.24,-0.85,2.92
8.360000000000001,4509.41,-38.06,0.78,-0.79,0.0,439.57,-1.03,4.27
8.370000000000001,4513.42,-37.78,0.58,-0.7,0.0,439.2,-1.95,4.88
8.38,4516.84,-37.57,0.82,-0.66,0.0,439.45,-2.86,4.88
8.39,4520.26,-37.56,0.72,-0.68,0.0,439.02,-3.54,4.82
8.4,4524.43,-37.76,0.85,-0.7,0.0,438.9,-4.45,4.27
8.41,4528.59,-37.44,0.75,-0.46,0.0,438.72,-5.0,3.84
8.42,4532.610000000001,-37.37,0.75,-0.61,0.0,438.78,-4.88,2.99
8.430000000000001,4536.040000000001,-37.47,0.69,-0.53,0.0,438.65,-4.76,2.56
8.440000000000001,4539.610000000001,-37.34,0.58,-0.54,0.0,438.65,-3.84,2.44
8.450000000000001,4543.34,-37.19,0.74,-0.52,0.0,438.11,-3.17,2.38
8.46,4547.07,-37.31,0.63,-0.61,0.0,438.04,-2.44,2.56
8.47,4550.799999999999,-36.97,0.56,-0.53,0.0,438.04,-2.44,3.17
8.48,4554.98,-37.07,0.65,-0.65,0.0,437.86,-2.25,3.72
8.49,4559.9,-36.87,0.7,-0.57,0.0,437.68,-2.5,3.84
8.5,4562.15,-36.63,0.57,-0.55,0.0,437.37,-3.05,4.21
8.510000000000002,4566.93,-36.6,0.88,-0.59,0.0,437.43,-3.78,4.15
8.520000000000001,4570.219999999999,-36.61,0.68,-0.58,0.0,437.13,-4.33,3.41
8.530000000000001,4572.91,-36.46,0.68,-0.68,0.0,437.13,-4.63,2.5
8.540000000000001,4576.799999999999,-36.38,0.73,-0.53,0.0,437.25,-4.82,1.89
8.55,4581.889999999999,-36.21,0.57,-0.59,0.0,437.37,-4.51,1.22
8.56,4585.93,-36.33,0.69,-0.63,0.0,437.19,-3.9,1.28
8.57,4589.530000000001,-36.13,0.35,-0.54,0.0,437.31,-3.23,1.28
8.58,4593.42,-36.12,0.92,-0.98,0.0,437.19,-1.89,1.52
8.59,4597.17,-36.15,0.55,-0.57,0.0,437.07,-2.8,1.34
8.600000000000001,4601.370000000001,-36.13,0.72,-0.72,0.0,436.88,-2.13,1.46
8.610000000000001,4604.67,-36.0,0.63,-0.58,0.0,436.76,-2.25,1.89
8.620000000000001,4608.43,-35.73,0.58,-0.57,0.0,436.21,-2.25,1.95
8.63,4613.379999999999,-35.78,0.61,-0.57,0.0,436.15,-2.38,2.5
8.64,4615.639999999999,-35.45,0.55,-0.56,0.0,435.79,-2.44,2.99
8.64,4615.639999999999,-35.45,0.55,-0.56,0.0,435.79,-2.44,2.99
8.65,4618.9400000000005,-35.76,0.68,-0.67,0.0,435.11,-2.56,3.54
8.66,4623.0,-35.45,0.59,-0.51,0.0,435.11,-3.05,3.66
8.67,4627.219999999999,-35.32,0.64,-0.68,0.0,435.11,-2.92,3.96
8.680000000000001,4629.93,-35.27,0.82,-0.57,0.0,434.81,-2.56,3.9
8.690000000000001,4634.59,-35.23,0.72,-0.4,0.0,434.38,-2.62,3.47
8.700000000000001,4638.66,-35.21,0.66,-0.61,0.0,434.63,-1.64,3.05
8.71,4641.969999999999,-34.93,0.74,-0.4,0.0,434.26,-1.4,2.92
8.72,4645.59,-34.93,0.56,-0.62,0.0,434.2,-0.91,2.62
8.73,4648.460000000001,-34.87,0.77,-0.56,0.0,434.38,-0.91,2.86
8.74,4653.290000000001,-34.94,0.58,-0.76,0.0,434.38,-0.85,2.01
8.75,4657.51,-34.53,0.78,-0.49,0.0,434.32,-1.15,2.19
8.760000000000002,4660.83,-34.62,0.66,-0.81,0.0,434.26,-0.97,1.4
8.770000000000001,4664.01,-34.47,0.66,-0.52,0.0,434.08,-1.15,1.52
8.780000000000001,4667.780000000001,-34.38,0.62,-0.53,0.0,433.71,-1.46,1.89
8.790000000000001,4672.17,-34.37,0.66,-0.54,0.0,433.47,-1.46,2.38
8.8,4675.65,-34.11,0.56,-0.39,0.0,433.16,-2.19,2.31
8.81,4679.43,-34.29,0.64,-0.63,0.0,432.86,-1.83,2.68
8.82,4682.610000000001,-34.01,0.67,-0.53,0.0,432.37,-2.68,3.66
8.83,4686.700000000001,-34.04,0.56,-0.73,0.0,432.12,-2.56,3.54
8.84,4689.58,-34.22,0.71,-0.45,0.0,431.82,-3.11,4.08
8.850000000000001,4693.82,-34.02,0.7,-0.76,0.0,431.64,-2.99,3.84
8.860000000000001,4697.3099999999995,-33.79,0.65,-0.39,0.0,431.7,-3.05,4.08
8.870000000000001,4700.639999999999,-33.6,0.71,-0.42,0.0,431.21,-2.56,3.41
8.88,4705.040000000001,-33.68,0.74,-0.42,0.0,430.9,-1.64,3.35
8.89,4707.93,-33.48,0.73,-0.35,0.0,430.84,-1.28,2.92
8.9,4712.48,-33.55,0.69,-0.51,0.0,430.9,-0.42,3.11
8.91,4716.43,-33.36,0.61,-0.49,0.0,430.6,-0.61,3.29
8.92,4720.08,-33.25,0.84,-0.6,0.0,429.93,-0.3,2.99
8.930000000000001,4723.58,-33.37,0.66,-0.54,0.0,429.8,-0.79,2.62
8.940000000000001,4726.92,-33.32,0.73,-0.53,0.0,429.74,-0.85,2.38
8.950000000000001,4730.120000000001,-33.32,0.64,-0.55,0.0,429.44,-1.28,2.44
8.96,4734.6900000000005,-33.39,0.67,-0.6,0.0,428.64,-2.25,2.07
8.96,4734.6900000000005,-33.39,0.67,-0.6,0.0,428.64,-2.25,2.07
8.97,4737.58,-32.92,0.66,-0.54,0.0,428.46,-3.17,2.5
8.98,4742.15,-32.94,0.58,-0.55,0.0,427.91,-3.96,2.56
8.99,4744.889999999999,-32.89,0.59,-0.46,0.0,427.55,-4.57,2.25
9.0,4748.549999999999,-32.74,0.75,-0.52,0.0,427.18,-4.94,2.44
9.010000000000002,4751.76,-32.55,0.57,-0.39,0.0,426.94,-4.76,1.95
9.020000000000001,4755.879999999999,-32.5,0.65,-0.36,0.0,426.87,-4.21,2.13
9.030000000000001,4759.24,-32.5,0.68,-0.41,0.0,426.63,-3.41,2.68
9.040000000000001,4763.360000000001,-32.52,0.63,-0.43,0.0,426.14,-2.8,2.8
9.05,4767.33,-32.51,0.57,-0.46,0.0,425.59,-2.19,2.92
9.06,4770.389999999999,-32.47,0.64,-0.42,0.0,425.23,-1.46,3.6
9.07,4773.91,-32.37,0.66,-0.53,0.0,424.55,-1.34,3.72
9.08,4777.120000000001,-32.25,0.72,-0.41,0.0,424.01,-1.15,4.15
9.09,4781.25,-32.24,0.62,-0.48,0.0,423.64,-1.4,4.08
9.100000000000001,4784.92,-31.91,0.72,-0.52,0.0,423.27,-1.58,3.84
9.110000000000001,4787.530000000001,-31.97,0.73,-0.49,0.0,422.85,-2.31,3.54
9.120000000000001,4791.200000000001,-31.83,0.73,-0.57,0.0,422.54,-2.31,2.68
9.13,4795.1900000000005,-31.92,0.76,-0.47,0.0,422.24,-2.38,2.68
9.14,4797.950000000001,-31.71,0.66,-0.42,0.0,421.93,-2.25,2.56
9.15,4802.700000000001,-31.52,0.61,-0.45,0.0,421.56,-1.95,2.31
9.16,4806.08,-31.59,0.72,-0.52,0.0,420.95,-1.89,2.56
9.17,4809.76,-31.53,0.44,-0.37,0.0,420.59,-1.83,3.05
9.180000000000001,4813.76,-31.44,0.68,-0.58,0.0,420.04,-1.83,3.05
9.190000000000001,4816.83,-31.26,0.61,-0.41,0.0,419.43,-2.13,3.9
