time,baro_altitude,accl_x,accl_y,accl_z,gps_altitude,gyro_roll,gyro_pitch,gyro_yaw
0.0,0.0,9.9,0.26,0.27,0.0,-0.05,0.01,0.05
0.010000000000000009,-0.3299999999999983,9.87,0.25,0.28,0.0,-0.05,-0.05,-0.07
0.019999999999999962,-0.0799999999999983,9.87,0.22,0.32,0.0,0.01,0.07,-0.07
0.02999999999999997,-0.25,9.91,0.25,0.3,0.0,-0.11,0.01,-0.01
0.03999999999999998,-0.0799999999999983,9.89,0.25,0.31,0.0,-0.17,0.07,-0.01
0.04999999999999999,0.1700000000000017,9.96,0.35,0.28,0.0,0.01,0.01,-0.01
0.06,-0.4200000000000017,9.86,0.24,0.29,0.0,0.07,0.01,-0.07
0.06999999999999998,-0.0799999999999983,9.86,0.26,0.26,0.0,0.01,0.07,0.05
0.07999999999999999,-0.25,9.9,0.34,0.35,0.0,-0.11,-0.05,-0.01
0.09,-0.5,9.91,0.42,0.29,0.0,0.01,-0.05,0.11
0.09999999999999998,-0.4200000000000017,9.98,0.37,0.25,0.0,0.19,-0.11,0.05
0.10999999999999999,-0.3299999999999983,10.27,0.15,0.28,0.0,-0.05,0.07,0.05
0.12,-0.4200000000000017,10.97,0.36,0.29,0.0,-0.11,0.07,0.05
0.12999999999999998,-1.6000000000000085,20.94,0.21,1.98,0.0,-0.36,0.19,0.42
0.13999999999999999,-0.9200000000000017,24.74,-1.28,2.64,0.0,-0.97,0.8,0.17
0.15,-0.5900000000000034,32.33,1.36,-2.5,0.0,-0.36,4.34,1.27
0.15999999999999998,-0.75,37.3,0.98,-1.4,0.0,-1.52,4.46,0.72
0.16999999999999998,-1.2600000000000051,40.38,3.89,-0.76,0.0,-2.19,2.75,0.29
0.18,-0.5,49.46,2.47,-3.38,0.0,1.72,3.06,0.11
0.19,-0.6700000000000017,54.2,-0.24,0.0,0.0,6.6,-0.3,1.03
0.19999999999999998,-0.5,59.47,2.52,-3.3,0.0,7.4,1.96,-0.8
0.21,-0.9200000000000017,64.54,2.91,-4.43,0.0,6.79,5.68,-1.96
0.21999999999999997,-0.3299999999999983,73.72,0.06,-2.31,0.0,5.63,2.63,-2.33
0.22999999999999998,-1.0900000000000034,78.2,-1.15,0.63,0.0,8.43,0.5,-2.94
0.24,-0.9200000000000017,83.73,-0.46,0.08,0.0,10.45,0.31,-2.57
0.25,-0.75,84.39,-1.67,-1.8,0.0,10.08,0.19,-2.45
0.26,0.3400000000000034,89.26,-1.81,-7.41,0.0,12.22,10.32,-4.04
0.27,-0.0799999999999983,92.14,0.08,2.67,0.0,12.58,2.33,-1.29
0.27999999999999997,-0.9200000000000017,93.19,2.16,0.02,0.0,13.68,1.41,0.72
0.29,-0.3299999999999983,93.1,0.68,0.86,0.0,12.71,-0.17,-0.5
0.3,-0.1599999999999966,95.08,0.98,-4.76,0.0,12.64,-1.33,-0.56
0.3,-0.1599999999999966,95.08,0.98,-4.76,0.0,12.64,-1.33,-0.56
0.3,-0.1599999999999966,95.08,0.98,-4.76,0.0,12.64,-1.33,-0.56
0.3,-0.1599999999999966,95.08,0.98,-4.76,0.0,12.64,-1.33,-0.56
0.3,-0.1599999999999966,95.08,0.98,-4.76,0.0,12.64,-1.33,-0.56
0.3,-0.1599999999999966,95.08,0.98,-4.76,0.0,12.64,-1.33,-0.56
0.3,-0.1599999999999966,95.08,0.98,-4.76,0.0,12.64,-1.33,-0.56
0.3,-0.1599999999999966,95.08,0.98,-4.76,0.0,12.64,-1.33,-0.56
0.3,-0.1599999999999966,95.08,0.98,-4.76,0.0,12.64,-1.33,-0.56
0.3,-0.1599999999999966,95.08,0.98,-4.76,0.0,12.64,-1.33,-0.56
0.3,-0.1599999999999966,95.08,0.98,-4.76,0.0,12.64,-1.33,-0.56
0.3,-0.1599999999999966,95.08,0.98,-4.76,0.0,12.64,-1.33,-0.56
0.3,-0.1599999999999966,95.08,0.98,-4.76,0.0,12.64,-1.33,-0.56
0.3,-0.1599999999999966,95.08,0.98,-4.76,0.0,12.64,-1.33,-0.56
0.3,-0.1599999999999966,95.08,0.98,-4.76,0.0,12.64,-1.33,-0.56
0.3,-0.1599999999999966,95.08,0.98,-4.76,0.0,12.64,-1.33,-0.56
0.3,-0.1599999999999966,95.08,0.98,-4.76,0.0,12.64,-1.33,-0.56
0.3,-0.1599999999999966,95.08,0.98,-4.76,0.0,12.64,-1.33,-0.56
0.3,-0.1599999999999966,95.08,0.98,-4.76,0.0,12.64,-1.33,-0.56
0.3,-0.1599999999999966,95.08,0.98,-4.76,0.0,12.64,-1.33,-0.56
0.3,-0.1599999999999966,95.08,0.98,-4.76,0.0,12.64,-1.33,-0.56
0.3,-0.1599999999999966,95.08,0.98,-4.76,0.0,12.64,-1.33,-0.56
0.3,-0.1599999999999966,95.08,0.98,-4.76,0.0,12.64,-1.33,-0.56
0.3,-0.1599999999999966,95.08,0.98,-4.76,0.0,12.64,-1.33,-0.56
0.3,-0.1599999999999966,95.08,0.98,-4.76,0.0,12.64,-1.33,-0.56
0.3,-0.1599999999999966,95.08,0.98,-4.76,0.0,12.64,-1.33,-0.56
0.3,-0.1599999999999966,95.08,0.98,-4.76,0.0,12.64,-1.33,-0.56
0.3,-0.1599999999999966,95.08,0.98,-4.76,0.0,12.64,-1.33,-0.56
0.3,-0.1599999999999966,95.08,0.98,-4.76,0.0,12.64,-1.33,-0.56
0.3,-0.1599999999999966,95.08,0.98,-4.76,0.0,12.64,-1.33,-0.56
0.3,-0.1599999999999966,95.08,0.98,-4.76,0.0,12.64,-1.33,-0.56
0.3,-0.1599999999999966,95.08,0.98,-4.76,0.0,12.64,-1.33,-0.56
0.3,-0.1599999999999966,95.08,0.98,-4.76,0.0,12.64,-1.33,-0.56
0.31,0.8499999999999943,94.62,3.92,1.87,0.0,9.47,-5.18,-2.39
0.31,0.8499999999999943,94.62,3.92,1.87,0.0,9.47,-5.18,-2.39
0.32,0.2600000000000051,97.84,-0.99,9.91,0.0,12.77,1.17,-3.37
0.32,0.2600000000000051,97.84,-0.99,9.91,0.0,12.77,1.17,-3.37
0.32999999999999996,2.019999999999996,100.63,-0.66,3.55,0.0,13.62,6.6,-3.61
0.33999999999999997,-0.0799999999999983,103.19,-0.81,1.52,0.0,17.71,9.77,-3.12
0.35,4.549999999999997,104.94,-0.5,-2.59,0.0,24.67,16.24,-1.41
0.36,4.719999999999999,103.05,2.03,-6.13,0.0,24.85,14.05,0.6
0.37,2.6099999999999994,104.69,1.85,5.47,0.0,10.14,5.2,-0.32
0.38,-1.8500000000000085,108.51,0.59,-2.82,0.0,0.13,8.8,-1.66
0.39,-0.4200000000000017,107.75,1.23,-2.64,0.0,-1.27,1.9,-3.25
0.4,3.1200000000000045,105.95,-2.15,2.51,0.0,-2.19,-0.66,-4.83
0.41,-0.75,108.27,-1.64,-2.17,0.0,0.93,5.2,-1.41
0.42,2.3599999999999994,109.71,-0.35,0.82,0.0,0.5,-0.3,-3.98
0.43,3.289999999999992,112.8,1.48,-1.91,0.0,4.1,6.72,-1.17
0.44,1.9399999999999977,112.8,1.48,-1.91,0.0,4.1,6.72,-1.17
0.44999999999999996,3.030000000000001,112.28,0.17,-2.17,0.0,5.38,3.49,-1.66
0.45999999999999996,3.8799999999999955,112.67,-1.2,-1.24,0.0,6.66,4.46,-1.29
0.47,2.950000000000003,113.17,-1.54,-1.01,0.0,8.37,6.36,-0.26
0.48,4.6299999999999955,114.37,-0.17,-3.16,0.0,10.14,7.09,0.54
0.49,5.049999999999997,116.09,-0.98,-2.44,0.0,10.75,6.23,1.27
0.5,6.3999999999999915,117.19,-0.9,-2.7,0.0,10.81,5.26,2.0
0.51,5.560000000000002,117.95,-1.0,-0.98,0.0,11.61,4.65,2.74
0.52,4.799999999999997,121.77,-0.5,-1.66,0.0,12.64,6.42,3.9
0.53,5.8999999999999915,121.11,-0.59,-3.64,0.0,11.0,6.6,4.63
0.54,6.569999999999993,125.16,0.87,-3.92,0.0,9.23,6.78,6.34
0.55,6.989999999999995,126.09,-0.12,-2.57,0.0,8.49,6.17,6.7
0.56,6.909999999999997,128.54,-0.16,-2.15,0.0,6.42,4.71,7.5
0.5700000000000001,8.590000000000003,127.65,-1.07,-2.86,0.0,3.61,6.36,8.23
0.5800000000000001,7.079999999999998,129.25,-1.07,-2.78,0.0,1.17,6.3,9.33
0.59,7.670000000000002,129.83,-1.77,-2.87,0.0,-0.66,5.5,10.43
0.6,8.760000000000005,130.48,-0.95,-2.47,0.0,-2.98,3.79,11.95
0.61,9.010000000000005,131.91,-1.4,-1.93,0.0,-6.03,3.3,12.75
0.62,10.780000000000001,132.24,-0.77,-1.98,0.0,-12.5,3.0,13.66
0.63,10.36,131.83,-1.11,-2.25,0.0,-18.12,3.43,13.72
0.64,10.11,132.44,-0.57,-2.88,0.0,-23.24,2.82,13.91
0.64,10.11,132.44,-0.57,-2.88,0.0,-23.24,2.82,13.91
0.6499999999999999,10.019999999999996,133.05,-1.5,-1.39,0.0,-34.11,-0.3,14.76
0.6599999999999999,11.459999999999994,131.92,-0.67,-1.88,0.0,-37.77,1.05,15.19
0.6699999999999999,12.89,133.19,-1.17,-1.53,0.0,-44.36,1.9,16.04
0.6799999999999999,15.16000000000001,132.26,-1.08,-1.6,0.0,-51.57,3.67,16.59
0.69,14.66000000000001,131.18,-0.79,-1.64,0.0,-59.32,3.61,17.02
0.7,15.499999999999986,130.91,-1.42,-1.59,0.0,-67.31,2.08,17.45
0.71,15.58999999999999,132.74,-0.8,-0.98,0.0,-74.82,1.47,18.12
0.72,17.10000000000001,132.26,-1.21,-0.53,0.0,-80.8,2.45,18.85
0.73,17.86,132.54,-1.14,-0.42,0.0,-84.77,4.46,19.64
0.74,18.11999999999999,132.75,-0.76,-0.81,0.0,-90.39,5.93,20.19
0.75,18.959999999999994,133.38,-0.96,-1.61,0.0,-96.18,5.81,20.5
0.76,19.459999999999994,131.05,-0.77,-1.13,0.0,-107.05,3.43,20.56
0.77,20.14,131.25,-1.0,-0.88,0.0,-111.08,3.43,20.19
0.78,20.980000000000004,131.35,-0.49,-0.22,0.0,-118.77,3.49,20.56
0.79,21.989999999999995,131.02,-0.95,-0.37,0.0,-126.82,5.2,20.92
0.8,21.489999999999995,131.53,-0.29,-0.84,0.0,-134.09,6.23,21.35
0.81,21.66000000000001,132.56,-0.79,-1.0,0.0,-142.39,6.05,21.54
0.8200000000000001,21.83,131.67,0.12,-1.04,0.0,-151.0,5.2,21.96
0.8300000000000001,21.91000000000001,132.97,-0.32,-0.96,0.0,-158.62,4.65,22.08
0.8400000000000001,23.08999999999999,129.98,-0.36,-0.32,0.0,-165.22,5.44,22.08
0.8500000000000001,24.10000000000001,133.32,-0.74,-1.13,0.0,-172.79,7.33,21.29
0.8600000000000001,24.690000000000012,130.24,-1.13,-0.57,0.0,-180.05,7.33,20.8
0.8699999999999999,25.450000000000003,129.98,-0.69,-1.6,0.0,-187.62,7.33,21.84
0.8799999999999999,25.88000000000001,131.17,-0.92,0.2,0.0,-189.94,7.52,22.39
0.8899999999999999,26.799999999999997,126.05,0.02,-0.52,0.0,-195.55,8.92,22.08
0.8999999999999999,27.64999999999999,127.56,-0.44,-1.04,0.0,-201.53,10.26,20.8
0.9099999999999999,28.66000000000001,128.09,-0.61,-1.11,0.0,-207.76,11.48,19.89
0.9199999999999999,29.249999999999986,127.98,-0.39,-1.03,0.0,-212.76,10.87,20.19
0.9299999999999999,30.08999999999999,127.94,-0.79,-0.03,0.0,-216.67,11.48,20.86
0.94,32.11999999999999,126.38,-0.03,-0.64,0.0,-220.82,13.25,21.35
0.95,33.219999999999985,127.45,-0.57,-0.37,0.0,-225.64,14.47,20.19
0.96,34.39999999999999,126.75,-0.66,-0.08,0.0,-230.83,15.21,18.79
0.96,34.39999999999999,126.75,-0.66,-0.08,0.0,-230.83,15.21,18.79
0.97,35.67,124.09,-1.58,-0.45,0.0,-234.68,15.82,18.24
0.98,36.92999999999999,121.19,-0.42,0.04,0.0,-239.56,16.67,18.91
0.99,38.45,121.19,-0.79,0.98,0.0,-241.21,17.28,18.79
1.0,38.45,120.83,-0.11,1.67,0.0,-244.57,19.11,17.57
1.01,40.39999999999999,120.67,-0.35,0.57,0.0,-247.98,19.91,16.47
1.02,42.08999999999999,121.96,-0.48,0.0,0.0,-250.3,20.27,16.47
1.03,43.36,121.01,0.06,1.7,0.0,-253.48,20.15,16.65
1.04,44.959999999999994,117.5,-0.06,1.14,0.0,-256.96,20.09,16.53
1.05,44.790000000000006,118.47,0.68,1.34,0.0,-259.82,20.52,15.68
1.06,45.55,118.38,-0.13,1.78,0.0,-263.67,21.62,14.27
1.07,46.739999999999995,120.47,0.9,2.2,0.0,-265.81,21.86,14.15
1.08,47.83999999999999,118.27,0.14,2.18,0.0,-269.96,20.94,13.84
1.09,48.94000000000001,120.4,1.73,3.87,0.0,-276.12,20.46,13.66
1.1,50.02999999999999,117.43,0.44,0.88,0.0,-278.68,20.76,13.42
1.11,51.219999999999985,117.75,1.3,1.91,0.0,-284.12,21.62,12.5
1.1199999999999999,52.14999999999999,116.14,0.82,1.63,0.0,-290.95,22.04,11.53
1.13,52.83,117.44,0.02,2.32,0.0,-297.24,22.1,11.16
1.14,53.58999999999999,110.12,-1.24,-0.92,0.0,-303.22,21.31,11.71
1.15,54.260000000000005,111.55,0.56,0.78,0.0,-309.2,22.65,10.98
1.16,54.69000000000001,110.91,0.69,1.53,0.0,-315.67,22.65,10.37
1.17,54.94000000000001,110.7,2.19,2.06,0.0,-320.5,22.04,10.55
1.18,55.27999999999999,112.93,2.88,1.52,0.0,-323.61,22.53,9.51
1.19,56.38000000000001,111.62,3.08,2.02,0.0,-322.08,22.35,8.66
1.2,56.63000000000001,110.55,2.27,1.43,0.0,-315.61,22.53,8.47
1.21,58.07000000000001,110.31,4.28,0.64,0.0,-311.83,22.78,9.14
1.22,58.83,110.81,4.0,0.69,0.0,-303.34,23.08,8.17
1.23,61.11999999999999,110.75,4.56,1.36,0.0,-292.48,22.84,7.62
1.24,61.290000000000006,110.68,5.18,1.37,0.0,-280.21,22.59,6.7
1.25,63.239999999999995,110.8,4.87,1.77,0.0,-264.04,22.78,6.28
1.26,64.17,111.06,5.33,1.31,0.0,-248.96,22.23,6.89
1.27,64.76,110.55,4.33,2.43,0.0,-235.41,22.84,7.01
1.28,65.77999999999999,110.6,5.74,1.28,0.0,-220.94,23.93,6.58
1.28,65.77999999999999,110.6,5.74,1.28,0.0,-220.94,23.93,6.58
1.29,66.61999999999999,111.25,5.35,1.61,0.0,-205.62,23.2,7.07
1.3,67.3,112.54,6.23,1.76,0.0,-191.65,22.47,7.25
1.31,68.32000000000001,109.48,5.84,1.55,0.0,-167.11,22.41,7.74
1.32,69.42,109.1,5.12,2.23,0.0,-158.08,21.98,8.05
1.33,70.86,108.93,5.71,2.12,0.0,-140.13,23.02,9.08
1.34,71.45,108.4,6.8,1.55,0.0,-122.25,22.23,10.55
1.35,73.91000000000001,108.37,6.57,2.67,0.0,-105.4,21.37,10.3
1.36,75.10000000000001,108.08,6.21,2.31,0.0,-89.71,21.68,10.49
1.37,77.64,107.86,6.02,2.9,0.0,-73.3,22.29,11.1
1.3800000000000001,78.91000000000001,107.73,5.58,2.48,0.0,-55.9,22.59,12.14
1.3900000000000001,79.67999999999999,107.96,5.42,3.18,0.0,-39.42,21.98,13.11
1.4000000000000001,81.29,108.72,4.55,2.76,0.0,-27.4,21.43,14.58
1.4100000000000001,83.83,108.92,4.68,3.69,0.0,-22.57,21.07,14.94
1.4200000000000002,85.11,108.04,4.61,4.3,0.0,-21.47,19.54,15.37
1.43,88.58999999999999,108.74,3.46,4.78,0.0,-21.66,19.42,14.94
1.44,91.05,111.08,3.6,3.81,0.0,-23.55,18.56,15.43
1.45,92.66000000000001,109.2,3.98,4.48,0.0,-25.38,18.69,16.84
1.46,95.21,105.67,3.51,4.69,0.0,-31.3,18.5,17.45
1.47,96.23,104.53,3.39,4.97,0.0,-40.58,17.65,17.63
1.48,98.35000000000001,103.91,3.39,5.2,0.0,-50.77,15.76,17.57
1.49,99.54,104.09,2.76,4.44,0.0,-60.11,14.72,17.32
1.5,101.49999999999999,104.24,2.57,5.69,0.0,-67.86,13.68,17.38
1.51,105.07000000000001,104.23,1.94,5.24,0.0,-73.84,12.83,18.06
1.52,106.51,104.34,1.78,7.13,0.0,-81.9,11.67,18.24
1.53,107.61999999999999,104.45,1.52,5.87,0.0,-93.25,9.84,17.81
1.54,109.24,104.59,2.25,5.75,0.0,-96.86,9.1,18.18
1.55,112.38000000000001,103.76,1.08,5.67,0.0,-104.42,8.31,17.69
1.56,112.13000000000001,104.47,1.85,6.53,0.0,-108.45,6.54,17.93
1.57,113.57000000000001,103.46,1.13,5.24,0.0,-110.34,5.99,18.12
1.58,115.52999999999999,104.55,0.28,4.45,0.0,-114.19,5.81,17.87
1.59,116.80999999999999,105.05,0.4,5.43,0.0,-116.39,4.77,17.08
1.6,116.64,104.05,1.62,5.3,0.0,-117.61,2.45,16.96
1.6,116.64,104.05,1.62,5.3,0.0,-117.61,2.45,16.96
1.61,118.08999999999999,103.06,1.36,5.77,0.0,-119.44,0.31,17.14
1.62,118.67999999999999,103.26,0.59,4.63,0.0,-120.48,0.44,16.53
1.6300000000000001,120.55,103.18,1.44,4.32,0.0,-121.15,0.01,16.41
1.6400000000000001,122.51,102.51,1.79,5.56,0.0,-120.17,-2.19,15.92
1.6500000000000001,122.26,102.94,0.91,5.09,0.0,-118.95,-2.92,15.92
1.6600000000000001,123.54,102.1,1.18,5.02,0.0,-116.57,-3.96,16.22
1.6700000000000002,122.94000000000001,101.82,0.94,5.14,0.0,-117.18,-4.02,15.68
1.68,124.64,101.41,1.72,4.06,0.0,-116.69,-3.84,15.68
1.69,125.14999999999999,101.2,0.66,3.85,0.0,-117.24,-4.69,15.49
1.7,126.52,100.75,0.49,4.11,0.0,-116.94,-5.97,15.92
1.71,127.02999999999999,101.62,0.27,3.64,0.0,-118.77,-6.64,15.68
1.72,127.96999999999998,101.0,0.48,4.13,0.0,-118.28,-6.71,15.92
1.73,128.56,101.87,0.57,2.79,0.0,-119.68,-5.24,14.82
1.74,129.32999999999998,104.23,-0.27,2.54,0.0,-119.87,-5.97,14.58
1.75,130.01,102.44,1.14,2.31,0.0,-118.89,-6.77,14.88
1.76,130.69,98.67,0.49,1.93,0.0,-117.36,-6.34,15.55
1.77,133.25,96.42,0.37,2.4,0.0,-114.43,-6.03,15.8
1.78,132.99,92.51,0.75,3.66,0.0,-112.48,-5.24,14.64
1.79,133.76,91.76,-1.18,1.41,0.0,-110.59,-5.73,13.05
1.8,135.13,91.49,-0.68,1.59,0.0,-109.8,-5.06,11.53
1.81,136.32,88.06,-1.49,2.11,0.0,-104.36,-5.97,12.07
1.82,138.02999999999997,86.33,-1.15,2.28,0.0,-100.27,-4.75,12.5
1.83,139.89999999999998,85.02,-0.1,2.31,0.0,-97.53,-4.81,12.62
1.84,140.83999999999997,83.75,-0.28,2.51,0.0,-93.56,-3.53,11.65
1.85,142.12,83.69,-0.78,1.47,0.0,-90.02,-2.86,10.61
1.86,143.74,80.52,-1.58,1.52,0.0,-86.66,-2.07,8.96
1.87,144.07999999999998,80.63,-0.91,1.78,0.0,-85.5,-3.84,9.27
1.8800000000000001,146.05,80.63,-1.38,1.48,0.0,-79.15,-2.13,9.39
1.8900000000000001,146.72999999999996,79.9,-0.67,0.74,0.0,-76.65,-0.24,7.86
1.9000000000000001,148.60999999999996,78.89,-1.27,1.41,0.0,-74.64,0.37,6.46
1.9100000000000001,150.22999999999996,79.31,-2.03,1.17,0.0,-69.14,-0.3,6.28
1.9200000000000002,151.94,77.77,-2.13,1.01,0.0,-65.85,0.5,4.69
1.9200000000000002,151.94,77.77,-2.13,1.01,0.0,-65.85,0.5,4.69
1.93,153.64999999999998,77.29,-2.46,1.84,0.0,-61.94,0.62,4.75
1.94,155.77999999999997,76.49,-1.5,1.64,0.0,-58.28,1.72,4.57
1.95,157.75,76.75,-1.82,2.04,0.0,-54.8,2.14,3.96
1.96,159.2,75.4,-1.29,1.21,0.0,-52.48,3.37,2.49
1.97,161.41999999999996,75.47,-1.47,1.6,0.0,-44.36,3.12,2.37
1.98,163.13,74.43,-1.84,1.52,0.0,-42.29,3.55,1.94
1.99,165.52999999999997,73.29,-2.13,3.0,0.0,-41.43,3.85,0.84
2.0,167.24,73.61,-1.55,3.01,0.0,-38.14,5.07,-0.44
2.01,168.60999999999996,72.77,-2.15,2.67,0.0,-33.5,5.01,-1.05
2.02,170.57,73.24,-1.75,2.49,0.0,-26.85,4.4,-0.32
2.03,172.37,71.6,-1.34,2.77,0.0,-26.6,4.22,-1.41
2.04,175.10999999999996,70.54,-0.77,2.59,0.0,-22.33,4.28,-1.05
2.05,176.74,70.08,-1.07,3.71,0.0,-20.44,4.65,-2.45
2.06,179.39,69.68,-1.21,3.29,0.0,-15.43,5.5,-2.51
2.07,180.66999999999996,69.6,-1.41,3.75,0.0,-11.22,5.87,-3.49
2.08,183.41999999999996,68.85,-0.58,3.18,0.0,-5.06,5.14,-2.82
2.09,186.15999999999997,68.59,-0.35,3.97,0.0,-4.45,3.98,-3.25
2.1,187.35999999999996,68.13,0.14,4.07,0.0,-0.05,4.52,-2.15
2.11,189.93,67.85,1.1,3.93,0.0,2.45,5.14,-2.82
2.12,192.93,66.98,-0.56,5.23,0.0,3.49,4.22,-4.65
2.13,194.99,66.62,-1.03,5.8,0.0,8.8,4.65,-4.22
2.14,196.62,66.08,-0.16,5.37,0.0,10.94,3.91,-3.92
2.15,197.05,65.59,-0.17,5.09,0.0,15.09,3.98,-3.98
2.16,198.93,67.44,0.48,4.03,0.0,18.57,4.52,-4.04
2.17,200.05,65.98,-0.91,5.12,0.0,19.11,3.06,-4.65
2.1799999999999997,201.76999999999998,64.75,-0.37,3.86,0.0,21.19,3.06,-4.41
2.19,203.74,64.06,-0.91,4.22,0.0,28.21,2.75,-3.25
2.1999999999999997,205.27999999999997,63.73,-0.33,4.62,0.0,26.87,2.82,-3.8
2.21,207.51999999999998,63.25,0.39,4.49,0.0,31.2,1.84,-3.18
2.2199999999999998,209.32,63.1,0.27,4.22,0.0,33.76,4.34,-4.41
2.23,210.69,62.95,-0.95,4.0,0.0,34.62,2.51,-3.98
2.2399999999999998,211.89999999999998,62.26,-1.03,3.96,0.0,35.47,2.21,-4.1
2.2399999999999998,211.89999999999998,62.26,-1.03,3.96,0.0,35.47,2.21,-4.1
2.25,213.95999999999998,62.33,-1.96,3.57,0.0,39.81,2.63,-3.43
2.26,215.07999999999998,61.94,-0.99,3.48,0.0,38.16,1.96,-3.37
2.27,217.90999999999997,61.63,-2.01,4.49,0.0,40.48,2.57,-3.98
2.28,219.8,60.76,-1.4,4.68,0.0,41.09,1.9,-4.41
2.29,221.95,60.76,-2.56,4.57,0.0,45.24,1.78,-4.22
2.3,224.35999999999996,60.04,-0.81,4.58,0.0,51.46,3.61,-4.28
2.3099999999999996,226.51,59.79,-1.4,4.22,0.0,52.62,3.79,-4.53
2.32,228.75,59.49,-1.37,4.22,0.0,56.84,3.3,-4.47
2.3299999999999996,230.13,59.21,-1.75,5.43,0.0,58.0,2.27,-4.95
2.34,232.01999999999998,59.09,-2.19,5.3,0.0,60.8,2.88,-5.08
2.3499999999999996,234.76999999999998,58.79,-1.63,5.23,0.0,63.98,3.49,-5.44
2.36,237.18,58.68,-1.52,5.32,0.0,67.27,2.69,-4.53
2.3699999999999997,237.87,57.88,-1.02,5.98,0.0,69.53,2.63,-4.41
2.38,239.16999999999996,58.91,-1.16,5.04,0.0,70.87,2.63,-5.57
2.3899999999999997,241.75,57.35,-0.96,4.57,0.0,70.45,1.41,-6.24
2.4,242.95999999999998,57.32,-1.49,5.05,0.0,70.87,2.69,-6.11
2.4099999999999997,245.45,57.31,-1.2,5.41,0.0,75.33,2.39,-5.32
2.42,247.34999999999997,56.85,-1.72,5.15,0.0,73.38,2.39,-5.57
2.4299999999999997,248.99,56.94,-0.76,4.8,0.0,77.34,3.06,-5.14
2.44,251.06,56.24,-1.33,5.43,0.0,78.56,2.94,-5.69
2.4499999999999997,253.13,56.64,-0.58,5.32,0.0,76.86,2.88,-6.18
2.46,255.10999999999996,55.79,-1.2,5.59,0.0,76.37,2.21,-6.48
2.4699999999999998,257.27,56.68,-0.12,5.53,0.0,79.11,3.37,-5.69
2.48,259.34,55.55,-0.21,6.15,0.0,78.5,3.06,-4.95
2.4899999999999998,261.58,55.17,0.54,4.79,0.0,77.59,3.55,-5.87
2.5,263.4,54.78,-0.9,6.18,0.0,76.37,3.73,-6.54
2.51,264.69,54.7,0.43,4.66,0.0,76.61,2.21,-4.89
2.52,267.63,54.73,-0.36,5.43,0.0,77.22,2.57,-3.86
2.53,269.09999999999997,54.09,0.16,5.35,0.0,77.77,2.57,-4.28
2.54,271.95,53.85,-0.38,5.97,0.0,76.06,3.37,-4.41
2.55,273.15999999999997,53.8,0.73,5.08,0.0,73.25,3.49,-4.89
2.5599999999999996,274.96999999999997,53.82,-0.91,5.54,0.0,72.58,3.49,-5.57
2.5599999999999996,274.96999999999997,53.82,-0.91,5.54,0.0,72.58,3.49,-5.57
2.57,276.96,53.63,-0.18,5.52,0.0,72.46,1.66,-4.04
2.5799999999999996,279.12,53.3,-0.29,5.25,0.0,71.06,1.66,-3.8
2.59,281.53999999999996,53.04,-0.44,5.99,0.0,68.86,2.94,-4.95
2.5999999999999996,283.09999999999997,52.71,0.2,5.88,0.0,68.13,2.39,-4.1
2.61,285.18,52.89,-0.6,5.76,0.0,67.76,2.75,-4.77
2.6199999999999997,287.69,52.27,-0.31,5.4,0.0,67.46,4.04,-5.14
2.63,289.33,51.45,-0.72,6.5,0.0,66.78,3.67,-4.28
2.6399999999999997,291.49,51.44,-0.78,6.11,0.0,68.74,2.51,-2.76
2.65,293.91999999999996,51.56,-1.24,6.39,0.0,69.17,3.18,-2.7
2.6599999999999997,295.90999999999997,51.03,0.42,6.06,0.0,68.68,3.61,-3.73
2.67,298.68,50.64,-0.84,6.37,0.0,66.72,1.78,-2.76
2.6799999999999997,300.15,51.06,-0.62,5.66,0.0,66.72,2.27,-3.31
2.69,301.89,50.54,-1.12,6.66,0.0,66.24,2.82,-3.43
2.6999999999999997,303.27,50.13,-1.35,5.56,0.0,67.4,3.91,-4.28
2.71,304.91999999999996,50.56,-0.83,6.01,0.0,65.14,0.8,-1.96
2.7199999999999998,307.0,50.58,-0.6,4.75,0.0,67.46,1.9,-2.51
2.73,309.59999999999997,49.78,-0.55,5.43,0.0,67.46,2.63,-2.57
2.7399999999999998,311.51,49.17,-1.0,6.05,0.0,67.21,2.08,-2.39
2.75,312.71999999999997,49.33,-1.52,5.93,0.0,68.92,3.37,-2.64
2.76,314.97999999999996,49.38,-1.13,5.45,0.0,68.31,3.06,-2.33
2.77,317.32,49.23,-0.18,5.01,0.0,68.31,2.14,-2.03
2.78,320.35999999999996,49.35,-0.25,4.79,0.0,69.35,4.04,-2.82
2.79,322.09999999999997,48.57,-1.57,6.38,0.0,67.15,3.3,-3.49
2.8,325.47999999999996,47.67,-1.13,6.54,0.0,70.02,2.51,-1.66
2.8099999999999996,327.31,48.39,-2.04,7.11,0.0,71.97,3.61,-1.9
2.82,329.39,47.42,-0.41,6.1,0.0,68.19,4.1,-4.1
2.8299999999999996,331.90999999999997,47.48,-1.65,6.0,0.0,73.25,3.79,-1.6
2.84,334.16999999999996,46.61,-0.33,6.86,0.0,73.99,3.91,-3.12
2.8499999999999996,336.26,47.17,-1.52,6.11,0.0,74.48,4.83,-3.12
2.86,337.65,47.0,-1.07,6.29,0.0,75.51,3.18,-2.15
2.8699999999999997,340.09,47.39,-1.62,5.45,0.0,75.21,2.88,-2.64
2.88,342.16999999999996,46.63,-1.97,6.36,0.0,74.96,1.41,-1.96
2.88,342.16999999999996,46.63,-1.97,6.36,0.0,74.96,1.41,-1.96
2.8899999999999997,345.05,46.26,-2.06,6.28,0.0,75.02,1.6,-2.09
2.9,346.96,45.74,-2.45,7.51,0.0,74.23,0.07,-2.7
2.9099999999999997,348.96,47.54,-1.6,6.84,0.0,74.41,1.6,-3.55
2.92,351.4,45.77,-2.56,6.82,0.0,81.37,2.94,-3.25
2.9299999999999997,352.96999999999997,45.57,-0.8,6.27,0.0,79.24,1.35,-2.76
2.94,355.15,45.6,-1.56,5.63,0.0,82.78,1.96,-2.27
2.9499999999999997,356.45,44.53,-0.7,5.88,0.0,79.18,0.68,-4.1
2.96,359.07,44.78,-2.21,7.33,0.0,80.82,0.07,-3.49
2.9699999999999998,360.55,44.51,-2.05,6.97,0.0,83.69,1.41,-3.49
2.98,361.84999999999997,44.12,-1.67,5.55,0.0,82.47,1.47,-3.12
2.9899999999999998,364.38,45.02,-1.59,6.8,0.0,82.23,0.86,-3.06
3.0,366.65,44.52,-1.26,5.79,0.0,84.73,2.33,-4.16
3.01,368.13,43.62,-1.49,6.41,0.0,81.56,0.44,-3.73
3.02,369.96,43.4,-1.82,5.98,0.0,82.53,1.66,-3.73
3.03,372.14,43.83,-1.24,6.54,0.0,80.88,0.68,-4.04
3.04,373.89,43.94,-1.22,5.24,0.0,80.33,0.92,-3.37
3.05,376.59999999999997,42.74,-2.14,6.14,0.0,81.01,2.88,-4.16
3.0599999999999996,378.25,42.31,-1.49,5.3,0.0,79.36,3.3,-4.41
3.07,380.52,42.8,-1.99,6.15,0.0,80.58,4.28,-4.65
3.0799999999999996,382.96999999999997,42.51,-2.08,6.04,0.0,82.29,2.75,-3.43
3.09,384.89,41.84,-2.27,6.28,0.0,80.09,3.43,-3.12
3.0999999999999996,386.81,42.53,-1.55,5.58,0.0,80.4,3.61,-3.49
3.11,390.31,42.25,-2.6,6.0,0.0,79.36,3.3,-3.43
3.1199999999999997,392.76,41.91,-0.78,5.87,0.0,79.3,4.52,-3.98
3.13,395.2,41.95,-2.01,6.37,0.0,79.54,3.3,-3.18
3.1399999999999997,397.92,40.94,-1.14,7.21,0.0,77.65,3.3,-4.59
3.15,399.84,40.65,-1.8,7.07,0.0,77.95,3.85,-4.41
3.1599999999999997,402.10999999999996,40.69,-0.46,7.08,0.0,77.04,4.52,-4.41
3.17,404.21999999999997,40.56,-2.28,8.0,0.0,79.24,5.26,-4.47
3.1799999999999997,406.05,40.01,-0.51,6.5,0.0,77.65,4.28,-3.61
3.19,408.59,40.2,-2.13,6.35,0.0,79.66,3.79,-3.31
3.1999999999999997,410.69,39.58,-1.16,7.19,0.0,80.82,4.46,-2.51
3.1999999999999997,410.69,39.58,-1.16,7.19,0.0,80.82,4.46,-2.51
3.21,413.67,40.25,-0.07,6.91,0.0,77.22,3.55,-2.82
3.2199999999999998,415.69,39.8,0.36,6.75,0.0,74.78,2.88,-3.67
3.23,416.99999999999994,39.27,-0.13,6.32,0.0,75.21,3.37,-2.64
3.2399999999999998,419.88999999999993,38.72,-0.72,6.73,0.0,74.6,4.77,-3.37
3.25,422.25999999999993,39.11,-0.46,7.24,0.0,71.0,4.22,-4.1
3.26,424.54,38.34,-0.59,7.7,0.0,73.07,2.75,-1.35
3.27,426.91,38.76,0.38,6.43,0.0,70.08,4.16,-2.7
3.28,429.71999999999997,38.66,0.02,7.16,0.0,70.63,4.77,-3.06
3.29,431.3,37.85,0.98,7.01,0.0,69.47,4.89,-2.82
3.3,434.19,37.43,0.62,6.8,0.0,70.51,1.9,-1.23
3.3099999999999996,436.3,37.53,-0.07,7.78,0.0,72.09,3.12,-1.23
3.32,439.28000000000003,37.09,-1.11,7.79,0.0,68.74,2.57,-2.15
3.3299999999999996,440.69,37.21,0.08,7.65,0.0,68.19,3.67,-0.93
3.34,443.23999999999995,37.12,-0.89,7.92,0.0,70.51,3.12,0.42
3.3499999999999996,445.86999999999995,36.69,0.42,7.73,0.0,70.81,2.82,-0.32
3.36,448.42,36.73,-0.66,7.97,0.0,68.19,1.84,0.23
3.3699999999999997,450.87999999999994,36.03,-1.22,7.72,0.0,68.31,4.28,-0.68
3.38,453.17,36.29,-1.0,7.81,0.0,73.25,1.72,0.97
3.3899999999999997,454.58,36.97,-0.65,7.17,0.0,68.43,2.69,-0.5
3.4,456.85999999999996,35.97,-1.58,7.27,0.0,66.97,2.94,-0.99
3.4099999999999997,459.23999999999995,35.41,-1.53,7.21,0.0,67.64,1.17,-1.23
3.42,462.22999999999996,35.65,-1.26,8.0,0.0,67.09,0.44,-1.29
3.4299999999999997,464.7,35.6,-0.81,8.19,0.0,70.45,0.31,-0.87
3.44,467.24999999999994,36.2,-1.6,7.69,0.0,68.43,-0.97,-0.44
3.4499999999999997,467.95,35.26,-1.99,7.42,0.0,69.29,1.35,-1.96
3.46,470.68,34.27,-1.49,6.34,0.0,73.25,1.17,0.29
3.4699999999999998,471.99999999999994,34.5,-1.47,6.86,0.0,69.96,0.56,-1.48
3.48,474.3,34.25,-2.69,5.79,0.0,69.23,1.05,-3.49
3.4899999999999998,476.75999999999993,34.03,-2.29,7.88,0.0,67.21,-0.3,-3.43
3.5,479.32,34.02,-3.17,6.62,0.0,66.3,1.23,-2.76
3.51,481.17,34.17,-1.24,7.26,0.0,60.99,0.98,-3.25
3.52,484.79,34.24,-1.61,6.41,0.0,63.18,1.72,-3.98
3.52,484.79,34.24,-1.61,6.41,0.0,63.18,1.72,-3.98
3.53,485.67,33.01,-1.67,6.57,0.0,63.31,3.06,-5.69
3.54,487.17,32.75,-2.62,5.79,0.0,66.66,1.78,-5.2
3.55,489.2,33.24,-1.85,6.84,0.0,63.98,0.92,-5.2
3.5599999999999996,490.52000000000004,33.61,-3.81,6.0,0.0,66.91,2.14,-5.2
3.57,492.37999999999994,32.93,-2.38,6.68,0.0,66.3,2.27,-4.65
3.5799999999999996,493.52000000000004,32.6,-2.92,5.87,0.0,65.2,1.96,-4.04
3.59,495.91,32.53,-1.38,5.8,0.0,59.22,5.26,-7.95
3.5999999999999996,498.2,32.17,-1.79,5.34,0.0,60.99,4.83,-6.42
3.61,500.77000000000004,31.66,-1.61,5.62,0.0,57.75,4.77,-5.75
3.6199999999999997,502.88999999999993,31.41,-1.62,5.31,0.0,53.54,4.95,-4.89
3.63,505.62999999999994,31.64,-1.53,6.19,0.0,52.26,7.58,-6.36
3.6399999999999997,508.28000000000003,31.0,-0.04,6.64,0.0,48.84,6.11,-5.93
3.65,511.2,30.31,-1.05,6.03,0.0,48.29,8.13,-6.48
3.6599999999999997,513.23,30.44,-0.15,6.99,0.0,47.19,9.65,-6.66
3.67,516.4200000000001,30.48,-0.69,6.68,0.0,51.22,10.57,-6.6
3.6799999999999997,519.07,30.77,0.09,6.82,0.0,48.66,9.71,-6.36
3.69,520.9300000000001,29.92,0.66,6.84,0.0,50.3,7.21,-2.94
3.6999999999999997,523.58,30.0,1.56,6.69,0.0,46.58,8.98,-5.32
3.71,526.33,29.88,-0.22,6.26,0.0,53.42,8.25,-2.39
3.7199999999999998,529.5200000000001,29.53,-0.32,7.5,0.0,50.3,9.53,-3.61
3.73,533.33,29.26,-0.31,7.14,0.0,50.67,8.61,-2.15
3.7399999999999998,536.4300000000001,29.25,-0.37,7.79,0.0,50.73,11.79,-3.61
3.75,538.74,28.75,-0.64,7.91,0.0,52.69,8.31,-1.6
3.76,541.13,28.66,-0.12,8.53,0.0,45.73,7.94,-4.89
3.77,543.7900000000001,28.2,0.45,8.43,0.0,51.65,8.19,-3.31
3.78,547.4300000000001,27.81,-0.7,9.2,0.0,51.1,7.58,-3.06
3.79,550.36,26.75,1.06,9.82,0.0,53.84,8.43,-1.96
3.8,553.0200000000001,27.15,0.43,8.58,0.0,53.54,6.23,-1.11
3.8099999999999996,555.6,26.16,-0.56,9.64,0.0,49.33,5.5,-1.35
3.82,555.7800000000001,25.48,1.08,8.64,0.0,49.21,5.01,-0.26
3.8299999999999996,558.5300000000001,24.86,-1.02,8.11,0.0,52.99,2.63,-0.13
3.84,561.2,23.92,1.47,8.44,0.0,57.93,2.63,-0.5
3.84,561.2,23.92,1.47,8.44,0.0,57.93,2.63,-0.5
3.8499999999999996,560.75,23.69,0.73,8.43,0.0,54.27,4.28,-1.66
3.86,563.86,22.59,0.84,8.73,0.0,54.33,2.33,-0.13
3.8699999999999997,566.26,21.83,0.65,8.46,0.0,54.88,-0.36,1.82
3.88,570.0,21.18,-0.55,9.15,0.0,56.1,1.9,1.51
3.8899999999999997,572.6700000000001,21.15,1.67,8.44,0.0,55.19,2.14,1.82
3.9,574.36,19.88,1.89,8.44,0.0,56.77,1.6,2.25
3.9099999999999997,577.5600000000001,19.91,1.83,7.9,0.0,58.3,-0.85,4.26
3.92,580.14,20.0,1.71,9.01,0.0,52.2,0.74,2.13
3.9299999999999997,581.9200000000001,19.02,0.27,8.58,0.0,50.73,-0.6,2.0
3.94,583.7900000000001,18.52,0.59,9.36,0.0,49.33,-0.72,2.61
3.9499999999999997,586.73,18.9,-0.29,9.83,0.0,51.04,-1.46,4.08
3.96,588.34,18.64,0.6,9.28,0.0,46.4,-1.46,2.8
3.9699999999999998,590.9200000000001,17.22,-0.23,8.27,0.0,49.27,-0.17,4.02
3.98,593.24,16.75,-0.15,9.02,0.0,49.57,-0.24,3.9
3.9899999999999998,595.2900000000001,16.71,0.35,7.79,0.0,44.57,-1.82,4.08
4.0,597.96,16.18,-0.84,9.36,0.0,42.86,-0.91,2.13
4.01,600.19,16.11,-1.13,8.38,0.0,41.7,-0.36,1.94
4.0200000000000005,602.87,17.28,-0.91,8.85,0.0,41.82,-0.79,2.25
4.03,604.6600000000001,16.52,-1.14,8.87,0.0,40.36,-0.54,1.39
4.04,606.98,16.13,-0.92,9.0,0.0,37.91,-1.88,2.98
4.05,609.9200000000001,15.79,-1.3,8.97,0.0,43.83,-2.31,3.96
4.06,609.83,18.35,-0.97,8.09,0.0,37.55,-2.49,0.6
4.07,612.1600000000001,17.44,-1.53,7.57,0.0,37.67,-1.4,0.36
4.08,614.3000000000001,16.62,-1.26,7.93,0.0,36.21,-2.25,0.6
4.09,616.98,14.98,-1.25,7.62,0.0,37.61,0.25,-0.87
4.1,618.6800000000001,13.89,-0.83,6.87,0.0,40.42,-1.82,1.64
4.11,620.9100000000001,14.03,-1.7,7.7,0.0,35.35,-2.8,0.6
4.12,623.0600000000001,13.2,-0.67,6.96,0.0,34.68,-0.11,0.36
4.13,625.2900000000001,12.82,-1.68,7.33,0.0,33.28,0.86,-1.96
4.14,627.26,12.71,-0.81,7.02,0.0,35.47,1.47,-1.6
4.15,629.5,12.07,-1.56,7.3,0.0,31.14,0.19,-1.05
4.16,631.5500000000001,12.3,-0.5,6.74,0.0,28.76,1.53,-3.55
4.16,631.5500000000001,12.3,-0.5,6.74,0.0,28.76,1.53,-3.55
4.17,634.51,11.32,-0.56,7.37,0.0,25.4,3.24,-4.77
4.18,636.48,11.25,-0.29,7.69,0.0,26.93,3.3,-3.61
4.19,639.25,10.44,-0.92,7.1,0.0,26.2,2.39,-4.34
4.2,640.7800000000001,10.67,-0.16,6.59,0.0,27.9,5.01,-4.71
4.21,643.46,9.92,-1.31,6.9,0.0,24.0,4.83,-4.71
4.22,645.7,10.23,0.58,7.12,0.0,24.79,2.45,-2.94
4.23,648.84,9.29,0.2,7.2,0.0,23.63,4.4,-4.22
4.24,651.26,9.41,1.31,6.96,0.0,24.3,5.56,-3.67
4.25,652.7800000000001,8.93,0.26,6.87,0.0,22.17,5.07,-4.59
4.26,655.83,8.13,0.38,6.74,0.0,24.67,4.95,-4.22
4.2700000000000005,658.88,8.27,0.46,6.8,0.0,24.0,5.56,-3.86
4.28,661.57,7.7,1.29,7.99,0.0,23.94,6.6,-3.37
4.29,664.1800000000001,7.45,1.09,7.96,0.0,27.9,4.04,-1.29
4.3,667.14,7.7,0.88,7.54,0.0,26.07,7.21,-4.1
4.31,669.6500000000001,7.13,-0.28,9.18,0.0,25.4,7.7,-4.16
4.319999999999999,672.71,6.9,0.3,7.64,0.0,27.35,7.45,-3.49
4.33,675.0500000000001,7.02,1.67,8.21,0.0,28.88,6.6,-2.51
4.34,677.2900000000001,6.47,1.52,8.04,0.0,34.13,6.36,-1.9
4.35,680.98,6.23,2.03,8.89,0.0,28.76,4.77,-2.76
4.359999999999999,683.59,5.37,1.7,8.39,0.0,32.3,4.95,-1.66
4.37,687.36,5.17,1.32,9.13,0.0,34.8,4.71,-0.62
4.38,688.89,4.76,1.21,8.79,0.0,35.78,3.73,-0.38
4.38,688.89,4.76,1.21,8.79,0.0,35.78,3.73,-0.38
4.39,691.95,4.3,1.33,9.28,0.0,35.41,1.9,0.36
4.3999999999999995,693.84,3.87,1.21,8.74,0.0,32.85,3.61,-2.7
4.41,696.1800000000001,3.41,1.02,9.17,0.0,31.38,1.96,-0.87
4.42,697.63,3.21,1.61,8.99,0.0,34.13,0.13,1.15
4.43,700.33,2.07,0.95,9.03,0.0,32.12,0.37,0.54
4.4399999999999995,702.76,1.71,1.26,8.81,0.0,33.09,-0.11,0.78
4.45,705.1,0.93,1.34,9.06,0.0,31.44,1.35,-0.44
4.46,707.1800000000001,1.26,0.52,8.29,0.0,31.38,0.92,-0.44
4.47,708.44,0.08,1.81,8.11,0.0,28.58,-1.33,1.88
4.4799999999999995,710.6,0.31,1.21,7.69,0.0,25.46,0.8,-1.05
4.4799999999999995,710.6,0.31,1.21,7.69,0.0,25.46,0.8,-1.05
4.49,713.13,-0.41,2.38,8.05,0.0,26.56,-0.3,0.05
4.5,715.38,-0.58,1.13,8.51,0.0,24.12,-2.01,0.54
4.51,718.09,-0.93,1.14,8.92,0.0,25.28,-0.24,0.48
4.52,719.89,-1.41,1.15,7.65,0.0,31.26,2.14,0.54
4.53,722.24,-1.62,1.14,8.44,0.0,31.32,1.6,-0.38
4.54,725.85,-1.88,1.12,8.4,0.0,29.86,-0.3,0.84
4.55,727.57,-2.11,1.07,9.11,0.0,27.84,-0.3,0.48
4.56,730.19,-2.26,0.57,8.97,0.0,30.1,0.25,-0.44
4.569999999999999,731.63,-2.56,1.4,7.99,0.0,27.42,2.57,-0.99
4.58,733.8000000000001,-2.79,1.73,7.76,0.0,27.17,3.91,-2.64
4.59,736.61,-2.84,0.72,7.85,0.0,27.9,0.92,0.05
4.6,739.0500000000001,-2.65,0.7,8.93,0.0,25.16,0.68,-1.05
4.609999999999999,741.94,-2.59,1.61,8.68,0.0,23.08,0.5,-0.32
4.62,743.75,-2.62,0.81,8.08,0.0,25.58,1.84,-0.26
4.63,745.6500000000001,-2.89,1.08,7.65,0.0,22.96,2.14,-0.87
4.64,746.9200000000001,-2.96,0.29,7.69,0.0,24.73,1.41,0.05
4.6499999999999995,748.46,-3.56,0.67,7.25,0.0,19.91,2.39,-1.78
4.66,751.26,-3.64,0.73,7.39,0.0,17.47,2.69,-2.15
4.67,753.8000000000001,-3.54,-0.38,7.25,0.0,17.59,2.51,-0.99
4.68,755.97,-4.02,0.96,7.41,0.0,18.69,3.3,-0.07
4.6899999999999995,758.24,-3.49,-0.46,7.92,0.0,18.57,3.61,-1.23
4.7,761.32,-3.22,0.92,7.55,0.0,15.51,3.85,-1.35
4.71,764.3100000000001,-3.07,1.31,7.59,0.0,14.78,2.63,0.17
4.72,767.57,-2.06,1.3,7.89,0.0,22.9,5.81,0.17
4.7299999999999995,769.6600000000001,-1.25,0.91,8.86,0.0,22.53,4.46,-0.44
4.74,772.38,0.94,1.47,7.49,0.0,21.5,5.38,-0.13
4.75,774.1,0.38,1.9,8.98,0.0,26.01,4.59,-1.11
4.76,777.5500000000001,0.39,2.58,7.28,0.0,21.56,4.95,-3.18
4.77,779.37,0.56,1.13,8.82,0.0,24.36,3.98,-2.76
4.78,782.82,-0.17,1.02,8.79,0.0,27.35,4.52,-3.49
4.79,786.0,-1.36,1.74,9.32,0.0,32.79,5.26,-3.73
4.8,788.72,-2.38,2.0,8.5,0.0,31.08,5.26,-4.34
4.8,788.72,-2.38,2.0,8.5,0.0,31.08,5.26,-4.34
4.81,791.63,-3.1,1.44,9.93,0.0,31.87,3.43,-3.37
4.819999999999999,793.8100000000001,-3.61,-0.45,9.2,0.0,32.54,2.63,-3.61
4.83,795.9000000000001,-3.91,1.46,9.39,0.0,29.74,1.6,-3.98
4.84,796.99,-3.95,0.01,9.39,0.0,32.42,0.98,-1.84
4.85,798.5400000000001,-3.96,0.75,7.48,0.0,32.79,-0.11,-1.54
4.859999999999999,800.45,-4.3,1.98,9.1,0.0,31.2,1.11,-1.96
4.87,803.2700000000001,-4.48,1.47,7.56,0.0,33.03,0.31,-1.05
4.88,805.82,-4.62,2.82,8.7,0.0,27.84,-2.01,-1.48
4.89,808.19,-4.74,1.83,8.97,0.0,30.89,-0.24,-2.88
4.8999999999999995,810.1,-4.9,2.39,8.08,0.0,31.2,-0.85,-2.64
4.91,812.37,-4.9,1.4,8.67,0.0,33.7,1.41,-2.64
4.92,814.47,-5.22,2.0,8.3,0.0,31.44,1.11,-3.18
4.93,816.6600000000001,-5.27,1.17,8.29,0.0,31.32,3.12,-4.65
4.9399999999999995,819.0300000000001,-5.21,1.53,8.57,0.0,36.94,2.75,-2.21
4.95,821.76,-5.53,1.53,8.08,0.0,37.49,0.74,-0.99
4.96,823.86,-5.33,1.64,8.51,0.0,39.99,0.31,1.58
4.97,826.59,-5.59,2.37,7.69,0.0,39.32,0.44,0.11
4.9799999999999995,828.51,-5.77,1.13,8.12,0.0,41.39,-0.6,1.33
4.99,830.33,-5.84,1.49,7.61,0.0,43.47,-1.88,3.04
5.0,832.5200000000001,-6.06,1.17,7.81,0.0,39.01,-2.68,2.49
5.01,834.26,-6.16,2.42,7.64,0.0,35.41,-0.48,0.6
5.02,837.09,-6.31,1.47,8.1,0.0,37.12,-0.66,0.72
5.03,838.73,-6.23,1.29,7.72,0.0,37.85,0.74,0.54
5.04,841.74,-6.6,1.48,7.73,0.0,38.89,-0.66,2.31
5.05,843.21,-6.23,1.8,7.81,0.0,43.71,0.25,1.94
5.06,845.6700000000001,-6.34,1.85,7.35,0.0,41.76,-0.05,1.45
5.069999999999999,847.96,-6.54,1.24,7.66,0.0,41.21,0.98,1.09
5.08,850.0600000000001,-6.35,1.7,7.22,0.0,41.15,0.86,0.23
5.09,852.44,-6.63,0.47,7.56,0.0,43.53,2.14,0.78
5.1,854.8100000000001,-6.67,0.77,8.15,0.0,43.59,0.19,1.39
5.109999999999999,856.74,-6.3,0.62,7.27,0.0,43.47,2.51,-0.26
5.12,859.0200000000001,-6.86,0.81,7.89,0.0,43.04,3.06,-0.8
5.12,859.0200000000001,-6.86,0.81,7.89,0.0,43.04,3.06,-0.8
5.13,861.22,-6.46,0.32,7.33,0.0,42.8,2.02,-0.32
5.14,863.69,-6.74,0.93,7.33,0.0,42.06,1.41,-0.01
5.1499999999999995,866.71,-6.47,0.5,7.48,0.0,41.82,2.51,-1.05
5.16,868.9100000000001,-6.7,0.5,7.45,0.0,44.57,2.69,-0.01
5.17,870.74,-6.78,0.28,7.39,0.0,39.93,3.55,-2.45
5.18,872.48,-7.03,0.95,7.74,0.0,40.66,4.34,-2.03
5.1899999999999995,875.32,-6.68,0.55,7.21,0.0,41.45,3.06,-1.23
5.2,877.4300000000001,-7.16,-0.07,7.72,0.0,38.52,3.43,-2.76
5.21,880.09,-6.95,0.2,7.46,0.0,38.4,3.79,-3.8
5.22,882.84,-6.74,0.65,7.06,0.0,36.08,1.96,-2.45
5.2299999999999995,884.95,-7.0,0.45,8.05,0.0,39.62,2.82,-2.03
5.24,887.24,-6.77,0.07,7.7,0.0,40.36,4.1,-2.76
5.25,889.9000000000001,-7.07,0.8,7.87,0.0,36.02,2.75,-3.61
5.26,891.9200000000001,-7.15,0.96,7.24,0.0,38.34,3.85,-1.11
5.27,894.6800000000001,-6.85,0.83,7.95,0.0,37.0,1.9,-2.09
5.28,896.51,-7.06,0.67,8.1,0.0,38.34,2.21,-1.11
5.29,899.36,-7.06,0.68,7.9,0.0,36.33,0.19,-1.29
5.3,901.57,-7.17,0.96,7.76,0.0,34.62,3.0,-3.49
5.31,904.23,-7.13,1.04,8.03,0.0,36.27,2.45,-2.76
5.319999999999999,906.1600000000001,-6.83,0.4,7.91,0.0,33.34,2.69,-4.1
5.33,908.5500000000001,-7.13,0.89,8.01,0.0,36.27,1.84,-1.72
5.34,910.85,-7.1,0.93,7.71,0.0,33.15,2.33,-3.06
5.35,912.6899999999999,-7.35,0.67,7.89,0.0,34.37,1.84,-3.18
5.359999999999999,915.5400000000001,-7.33,0.54,8.16,0.0,34.5,2.21,-3.06
5.37,917.38,-7.3,1.6,7.38,0.0,32.97,1.41,-3.37
5.38,919.41,-7.28,0.47,8.12,0.0,35.53,1.53,-2.51
5.39,921.7100000000002,-7.02,0.96,7.42,0.0,39.81,1.96,-2.76
5.3999999999999995,923.64,-7.6,1.08,7.45,0.0,37.12,0.31,-1.54
5.41,925.4800000000001,-7.25,1.79,7.29,0.0,35.78,0.01,-2.15
5.42,927.6,-7.45,1.17,7.6,0.0,37.49,2.45,-2.64
5.43,930.18,-6.98,0.73,6.83,0.0,35.53,1.41,-2.76
5.4399999999999995,932.2100000000002,-7.42,1.31,7.44,0.0,39.75,-0.97,-1.41
5.4399999999999995,932.2100000000002,-7.42,1.31,7.44,0.0,39.75,-0.97,-1.41
5.45,934.6,-7.06,1.21,7.33,0.0,42.8,0.25,-0.62
5.46,936.63,-7.46,1.36,7.35,0.0,42.19,1.47,-1.78
5.47,938.7500000000001,-7.05,1.01,6.97,0.0,40.29,1.53,-2.64
5.4799999999999995,941.0600000000001,-7.54,1.04,7.16,0.0,42.13,1.41,-1.6
5.49,943.09,-7.65,0.77,7.18,0.0,40.91,0.86,-2.39
5.5,945.2100000000002,-7.28,0.4,7.74,0.0,41.21,1.47,-1.9
5.51,947.0600000000001,-7.19,0.84,6.75,0.0,41.58,2.27,-2.15
5.52,950.4700000000001,-7.47,0.76,7.3,0.0,44.26,0.56,-0.87
5.53,951.7600000000001,-7.16,0.93,6.8,0.0,39.62,0.8,-3.18
5.54,954.2600000000001,-7.66,1.24,7.54,0.0,45.06,-0.11,-0.62
5.55,956.2900000000001,-7.15,1.1,7.29,0.0,46.4,2.27,-1.48
5.56,958.2300000000001,-7.35,1.34,6.6,0.0,42.86,0.62,-0.93
5.569999999999999,960.5400000000001,-7.66,0.21,7.62,0.0,44.93,0.13,-0.5
5.58,962.39,-7.52,1.17,6.62,0.0,43.47,2.21,-2.39
5.59,964.6999999999999,-7.95,1.14,6.95,0.0,44.08,1.05,-1.54
5.6,966.92,-7.82,1.17,6.4,0.0,44.63,1.6,-1.78
5.609999999999999,969.2300000000001,-7.91,0.6,7.21,0.0,44.99,2.33,-1.96
5.62,971.63,-7.71,0.34,7.31,0.0,46.76,0.98,0.05
5.63,973.39,-7.79,0.84,6.99,0.0,46.76,0.62,-0.26
5.64,975.9800000000001,-7.58,1.28,6.74,0.0,44.45,1.84,-1.41
5.6499999999999995,978.0200000000001,-7.67,0.76,7.1,0.0,45.54,2.51,-0.74
5.66,980.43,-7.32,0.63,7.05,0.0,44.99,2.08,-1.96
5.67,983.0200000000001,-7.39,1.28,7.21,0.0,45.06,2.08,-1.96
5.68,985.15,-7.23,0.66,7.1,0.0,45.54,1.84,-0.26
5.6899999999999995,987.1,-7.63,0.73,7.41,0.0,45.91,1.47,-1.29
5.7,989.5100000000001,-7.31,0.78,6.87,0.0,46.76,1.96,-1.48
5.71,991.4499999999999,-7.41,0.8,6.91,0.0,48.05,2.21,-0.44
5.72,993.4900000000001,-7.66,0.22,6.86,0.0,45.48,1.47,-1.05
5.7299999999999995,995.35,-7.82,1.38,6.88,0.0,45.54,2.14,-1.78
5.74,997.39,-7.67,1.3,6.79,0.0,43.96,0.92,-1.78
5.75,999.8000000000001,-7.26,0.68,6.83,0.0,45.36,0.62,-1.41
5.76,1002.2100000000002,-7.55,0.3,6.94,0.0,43.83,2.08,-2.27
5.76,1002.2100000000002,-7.55,0.3,6.94,0.0,43.83,2.08,-2.27
5.77,1004.5300000000001,-7.57,1.3,6.71,0.0,45.67,0.37,-1.35
5.78,1006.67,-7.17,1.24,6.4,0.0,44.51,1.29,-2.03
5.79,1008.5200000000001,-7.34,0.85,6.76,0.0,45.24,1.72,-2.21
5.8,1011.0300000000001,-7.15,1.03,6.82,0.0,44.99,1.9,-2.15
5.81,1013.35,-7.48,0.64,6.68,0.0,45.3,2.33,-2.09
5.819999999999999,1016.32,-7.08,0.46,7.5,0.0,44.2,1.11,-0.56
5.83,1017.63,-7.38,1.38,7.23,0.0,42.25,1.6,-2.76
5.84,1020.41,-7.26,1.44,6.31,0.0,45.67,1.17,-0.99
5.85,1022.37,-7.38,1.2,6.79,0.0,44.02,2.08,-2.39
5.859999999999999,1024.6,-7.65,0.62,7.13,0.0,44.2,1.47,-1.78
5.87,1027.3,-7.49,0.45,7.35,0.0,44.93,0.19,-1.54
5.88,1028.97,-7.15,0.38,7.28,0.0,41.09,0.92,-3.0
5.89,1030.83,-7.47,1.46,6.47,0.0,45.48,1.17,-1.78
5.8999999999999995,1033.4399999999998,-7.25,1.92,6.82,0.0,43.65,1.11,-1.72
5.91,1035.21,-7.41,0.52,7.09,0.0,41.45,1.05,-2.33
5.92,1037.72,-7.65,0.57,7.21,0.0,42.25,0.92,-2.64
5.93,1040.4199999999998,-7.37,1.31,6.82,0.0,42.98,0.25,-2.33
5.9399999999999995,1042.3799999999999,-7.04,1.57,6.99,0.0,43.16,1.17,-2.57
5.95,1043.77,-7.12,0.7,7.39,0.0,45.6,-0.91,-1.29
5.96,1046.48,-7.35,1.05,6.78,0.0,43.71,1.84,-3.49
5.97,1047.78,-7.31,0.65,6.8,0.0,45.91,1.23,-2.15
5.9799999999999995,1049.55,-7.36,1.05,6.57,0.0,40.66,-1.88,-2.15
5.99,1052.35,-7.64,1.1,6.9,0.0,43.96,-1.03,-1.11
6.0,1052.4399999999998,10.55,1.49,6.57,0.0,46.52,0.31,-1.35
6.01,1058.04,156.88,6.75,1.93,0.0,46.28,9.96,-0.87
6.02,1058.1299999999999,14.13,-1.41,0.42,0.0,49.45,11.12,-0.74
6.03,1065.79,-3.59,-0.34,11.51,0.0,39.13,0.19,-1.48
6.04,1070.1799999999998,-4.73,-0.03,4.22,0.0,21.43,0.92,-0.13
6.05,1072.1399999999999,-5.11,0.25,7.93,0.0,15.94,-3.23,-0.19
6.06,1074.75,-5.22,0.6,4.64,0.0,6.91,-3.72,2.06
6.069999999999999,1077.0,-5.7,-0.82,7.73,0.0,-4.38,-9.57,2.61
6.08,1077.84,-5.66,0.26,3.6,0.0,-13.97,-9.33,2.86
6.08,1077.84,-5.66,0.26,3.6,0.0,-13.97,-9.33,2.86
6.09,1079.62,-5.68,-0.46,5.98,0.0,-28.01,-13.18,3.83
6.1,1081.58,-5.85,-0.28,4.49,0.0,-40.15,-12.75,4.44
6.109999999999999,1083.08,-5.94,-0.3,3.24,0.0,-54.13,-13.3,4.02
6.12,1084.57,-6.04,0.16,4.88,0.0,-65.12,-14.95,4.99
6.13,1085.6999999999998,-6.1,0.34,2.27,0.0,-77.08,-12.75,5.24
6.14,1087.3799999999999,-6.12,-0.96,3.54,0.0,-90.02,-13.85,6.52
6.1499999999999995,1089.6299999999999,-6.13,-0.26,2.9,0.0,-106.32,-11.89,7.19
6.16,1091.5,-5.92,0.14,2.49,0.0,-111.32,-10.31,6.03
6.17,1093.09,-5.94,-1.26,1.92,0.0,-117.3,-10.0,7.19
6.18,1095.06,-6.05,-0.45,0.69,0.0,-126.58,-7.93,6.7
6.1899999999999995,1096.74,-6.32,-0.34,1.75,0.0,-130.24,-5.79,6.7
6.2,1098.4299999999998,-5.88,-0.26,1.26,0.0,-141.35,-4.08,5.18
6.21,1099.9299999999998,-6.02,-1.08,1.24,0.0,-144.16,-1.33,5.6
6.22,1102.08,-6.26,-0.99,0.93,0.0,-151.67,0.62,3.59
6.2299999999999995,1104.8,-6.04,-0.95,1.18,0.0,-154.54,3.06,3.77
6.24,1107.24,-5.88,-0.71,0.63,0.0,-161.49,4.22,3.9
6.25,1109.02,-5.85,-0.5,1.43,0.0,-169.67,4.22,3.29
6.26,1111.6399999999999,-5.84,-1.06,1.24,0.0,-175.59,7.76,0.29
6.27,1113.61,-5.7,-1.18,1.38,0.0,-177.18,8.07,0.97
6.28,1115.77,-5.9,0.82,2.28,0.0,-182.55,9.04,1.15
6.29,1119.06,-5.95,-0.11,2.1,0.0,-188.11,9.04,-0.56
6.3,1120.84,-5.88,0.83,1.91,0.0,-189.69,9.96,0.42
6.31,1123.75,-5.58,0.05,2.63,0.0,-194.39,11.18,0.36
6.319999999999999,1126.57,-5.9,0.14,3.11,0.0,-201.41,9.22,1.88
6.33,1128.73,-5.77,0.85,2.66,0.0,-207.21,10.32,1.21
6.34,1131.27,-5.68,0.74,3.89,0.0,-213.56,8.31,2.31
6.35,1133.8999999999999,-5.66,1.45,2.94,0.0,-213.56,9.29,3.59
6.359999999999999,1135.97,-5.6,1.11,3.62,0.0,-213.99,8.98,3.22
6.37,1138.51,-5.8,0.98,3.68,0.0,-217.28,7.03,3.9
6.38,1140.01,-5.72,2.26,4.63,0.0,-216.73,6.05,4.14
6.39,1142.74,-5.74,1.7,3.21,0.0,-213.62,4.52,6.95
6.3999999999999995,1145.0,-5.8,1.89,3.73,0.0,-214.41,4.83,7.13
6.3999999999999995,1145.0,-5.8,1.89,3.73,0.0,-214.41,4.83,7.13
6.41,1147.4499999999998,-5.48,2.18,3.39,0.0,-212.52,3.37,8.23
6.42,1149.8,-5.65,1.64,3.66,0.0,-214.05,3.0,9.57
6.43,1150.55,-5.46,1.41,3.24,0.0,-206.91,0.56,13.05
6.4399999999999995,1153.6599999999999,-5.42,1.01,3.14,0.0,-207.58,1.47,13.23
6.45,1155.83,-5.7,1.07,3.42,0.0,-207.58,-0.05,14.82
6.46,1156.96,-5.65,1.17,3.22,0.0,-208.74,-0.17,14.52
6.47,1158.6499999999999,-5.64,0.93,3.02,0.0,-208.0,-0.42,16.9
6.4799999999999995,1160.07,-5.68,0.89,3.35,0.0,-212.28,-1.64,18.48
6.49,1162.61,-5.66,-0.06,2.57,0.0,-210.2,-0.66,19.09
6.5,1163.74,-5.65,0.01,3.61,0.0,-211.91,-0.48,18.97
6.51,1166.48,-5.56,-0.86,1.81,0.0,-210.63,0.86,18.42
6.52,1168.46,-5.64,-0.23,3.53,0.0,-207.52,1.11,18.06
6.53,1170.1599999999999,-5.66,-0.73,2.53,0.0,-214.66,0.98,15.8
6.54,1171.57,-5.73,-2.23,2.27,0.0,-214.41,2.69,15.61
6.55,1174.59,-5.59,-0.75,3.11,0.0,-220.39,2.08,13.97
6.56,1175.6299999999999,-5.72,-1.22,2.12,0.0,-212.89,2.02,13.42
6.569999999999999,1178.27,-5.51,-1.19,2.76,0.0,-213.13,1.41,9.45
6.58,1180.26,-5.68,-0.7,2.58,0.0,-208.55,3.0,7.86
6.59,1182.62,-5.43,-1.25,2.47,0.0,-198.91,3.61,6.03
6.6,1184.32,-5.52,-0.73,3.23,0.0,-198.6,3.06,4.75
6.609999999999999,1186.49,-5.56,-1.72,2.45,0.0,-202.33,3.55,2.74
6.62,1188.76,-5.43,-0.9,3.32,0.0,-205.62,3.61,1.27
6.63,1190.84,-5.5,-1.61,2.07,0.0,-208.31,4.46,-0.07
6.64,1192.9199999999998,-5.32,-0.27,2.84,0.0,-209.84,2.75,0.05
6.6499999999999995,1195.76,-5.37,-0.09,2.84,0.0,-210.63,2.75,-0.8
6.66,1197.08,-5.52,0.43,2.84,0.0,-208.8,2.45,-1.05
6.67,1199.35,-5.48,-0.42,3.56,0.0,-203.12,2.39,-1.41
6.68,1201.4299999999998,-5.41,0.57,3.03,0.0,-203.18,1.96,-1.54
6.6899999999999995,1204.08,-5.24,0.77,3.08,0.0,-202.02,2.21,-0.62
6.7,1205.6899999999998,-5.1,0.36,2.93,0.0,-200.07,2.14,0.97
6.71,1207.3999999999999,-5.27,0.96,3.26,0.0,-198.97,1.6,1.76
6.72,1209.58,-5.48,0.45,2.45,0.0,-198.3,1.29,1.94
6.72,1209.58,-5.48,0.45,2.45,0.0,-198.3,1.29,1.94
6.7299999999999995,1211.85,-5.18,1.61,2.35,0.0,-198.91,2.63,2.43
6.74,1213.6499999999999,-5.38,0.07,2.94,0.0,-200.86,1.41,4.08
6.75,1215.6399999999999,-5.39,1.76,2.87,0.0,-203.79,1.6,5.54
6.76,1217.4399999999998,-5.35,0.17,2.48,0.0,-202.69,2.51,6.21
6.77,1219.05,-5.45,1.11,2.82,0.0,-204.28,3.37,5.97
6.78,1221.04,-5.29,1.52,1.45,0.0,-202.88,3.18,8.23
6.79,1222.6499999999999,-5.32,1.08,2.57,0.0,-204.28,3.0,8.96
6.8,1224.6499999999999,-5.14,1.7,1.02,0.0,-207.58,3.79,10.37
6.81,1227.3999999999999,-5.38,0.99,1.5,0.0,-207.09,4.77,11.4
6.819999999999999,1228.6299999999999,-5.36,1.76,1.88,0.0,-207.64,5.2,12.81
6.83,1231.0,-5.22,0.11,2.03,0.0,-208.31,6.6,12.01
6.84,1233.57,-5.47,1.13,2.09,0.0,-209.53,6.78,12.56
6.85,1235.75,-5.09,-0.31,1.87,0.0,-209.77,8.07,13.11
6.859999999999999,1237.36,-5.48,-0.48,2.33,0.0,-212.95,6.6,13.3
6.87,1239.83,-5.36,-1.48,3.02,0.0,-211.48,8.86,12.62
6.88,1241.73,-5.3,-1.26,2.97,0.0,-212.15,9.29,10.98
6.89,1244.6799999999998,-5.19,-1.06,3.28,0.0,-209.47,8.43,10.61
6.8999999999999995,1247.1499999999999,-5.29,-1.35,4.05,0.0,-211.3,8.61,8.23
6.91,1249.53,-5.19,-1.01,3.79,0.0,-211.42,8.07,6.76
6.92,1251.81,-5.21,-0.85,4.47,0.0,-210.87,6.97,4.44
6.93,1254.47,-5.27,-1.12,4.31,0.0,-210.2,5.14,4.08
6.9399999999999995,1256.6599999999999,-5.17,-0.6,3.44,0.0,-208.25,5.81,2.86
6.95,1258.1899999999998,-5.2,-0.61,4.58,0.0,-209.59,3.3,1.09
6.96,1259.52,-5.06,0.43,4.0,0.0,-206.6,2.14,2.06
6.97,1261.4199999999998,-5.13,-0.39,3.07,0.0,-202.69,1.72,1.33
6.9799999999999995,1263.23,-5.07,0.3,2.82,0.0,-199.46,0.5,1.39
6.99,1265.52,-5.2,0.82,4.04,0.0,-195.74,-0.42,2.55
7.0,1267.33,-4.9,0.93,2.16,0.0,-194.7,1.47,2.25
7.01,1268.9499999999998,-5.18,0.73,2.76,0.0,-192.26,-0.36,3.1
7.02,1269.99,-5.04,0.85,2.71,0.0,-188.47,0.62,4.44
7.03,1273.33,-5.09,0.67,3.13,0.0,-185.3,-0.05,5.73
7.04,1275.33,-4.98,-0.49,3.14,0.0,-182.98,-0.48,5.91
7.04,1275.33,-4.98,-0.49,3.14,0.0,-182.98,-0.48,5.91
7.05,1278.0,-4.9,1.27,3.64,0.0,-182.49,-0.05,6.03
7.06,1280.3799999999999,-4.88,0.23,4.0,0.0,-179.07,-1.27,7.19
7.069999999999999,1281.4299999999998,-5.07,0.56,3.6,0.0,-173.33,-1.94,8.05
7.08,1284.3,-4.93,0.25,3.71,0.0,-171.32,-2.19,8.41
7.09,1286.59,-5.06,-0.24,3.91,0.0,-168.15,-2.86,7.92
7.1,1288.3,-5.02,1.22,3.21,0.0,-162.1,-3.84,9.21
7.109999999999999,1291.1699999999998,-5.0,-1.4,4.58,0.0,-159.54,-3.47,9.02
7.12,1292.12,-4.85,0.69,3.21,0.0,-152.09,-5.0,10.06
7.13,1293.6499999999999,-4.87,-1.28,4.3,0.0,-152.03,-6.16,9.45
7.14,1295.47,-4.99,-0.72,4.02,0.0,-148.07,-5.73,8.66
7.1499999999999995,1296.8999999999999,-4.73,-0.57,2.94,0.0,-148.86,-5.0,8.53
7.16,1298.52,-4.88,-0.94,2.75,0.0,-146.97,-5.24,8.11
7.17,1299.76,-4.96,-0.35,2.17,0.0,-153.44,-5.49,6.28
7.18,1301.87,-4.95,-0.89,3.05,0.0,-148.43,-6.58,7.13
7.1899999999999995,1303.78,-4.98,-1.34,2.19,0.0,-148.68,-5.18,4.57
7.2,1305.6899999999998,-4.81,-1.4,2.1,0.0,-146.3,-3.96,3.65
7.21,1307.6999999999998,-4.78,0.01,3.23,0.0,-144.22,-4.81,2.86
7.22,1308.9399999999998,-4.88,-1.54,1.99,0.0,-141.6,-3.84,0.42
7.2299999999999995,1310.76,-4.84,-0.2,2.1,0.0,-145.93,-3.96,-0.01
7.24,1312.87,-4.78,-0.88,2.68,0.0,-147.21,-3.29,-1.29
7.25,1314.59,-4.53,-0.54,2.01,0.0,-150.51,-2.62,-2.15
7.26,1316.8899999999999,-4.59,0.17,2.22,0.0,-149.59,-2.98,-1.41
7.27,1318.99,-4.94,-0.71,2.17,0.0,-148.74,-2.37,-2.03
7.28,1321.6699999999998,-4.71,0.23,2.23,0.0,-145.44,-2.49,-1.48
7.29,1322.9199999999998,-4.84,-0.26,2.52,0.0,-144.04,-1.88,-1.66
7.3,1324.83,-4.73,0.8,1.66,0.0,-144.95,-0.85,-1.29
7.31,1326.56,-4.82,0.22,2.12,0.0,-144.16,-1.46,-0.44
7.319999999999999,1328.6699999999998,-4.77,0.86,1.67,0.0,-145.62,-0.48,-1.05
7.33,1330.6799999999998,-4.75,0.99,2.46,0.0,-141.84,0.98,-0.32
7.34,1331.9299999999998,-4.67,1.18,0.98,0.0,-140.68,1.11,1.51
7.35,1334.4199999999998,-4.92,0.26,1.59,0.0,-141.72,1.53,1.94
7.359999999999999,1336.62,-4.49,1.05,2.5,0.0,-142.76,2.94,2.98
7.359999999999999,1336.62,-4.49,1.05,2.5,0.0,-142.76,2.94,2.98
7.37,1338.35,-4.83,1.1,1.52,0.0,-140.99,3.49,4.02
7.38,1340.46,-4.64,0.58,2.28,0.0,-139.95,3.98,4.99
7.39,1342.76,-4.59,0.66,1.73,0.0,-142.76,4.16,5.12
7.3999999999999995,1344.6799999999998,-4.74,1.02,2.68,0.0,-137.75,4.16,7.44
7.41,1346.99,-4.64,0.4,2.04,0.0,-137.14,4.89,7.25
7.42,1348.62,-4.65,0.53,2.38,0.0,-134.76,5.75,7.19
7.43,1350.83,-4.71,0.7,2.95,0.0,-135.49,4.04,6.95
7.4399999999999995,1352.85,-4.74,0.16,2.91,0.0,-129.94,4.46,7.8
7.45,1355.4399999999998,-4.71,1.03,3.36,0.0,-128.47,4.95,7.5
7.46,1357.84,-4.59,0.71,2.33,0.0,-125.24,4.77,8.29
7.47,1359.48,-4.56,0.14,2.82,0.0,-120.29,4.71,8.6
7.4799999999999995,1362.75,-4.7,-0.01,2.93,0.0,-120.54,4.65,9.21
7.49,1365.1499999999999,-4.71,0.41,4.26,0.0,-117.91,3.98,8.05
7.5,1365.9199999999998,-4.47,-0.77,4.06,0.0,-113.64,2.08,8.53
7.51,1368.32,-4.65,-0.45,3.14,0.0,-113.15,2.21,7.92
7.52,1370.35,-4.75,-0.84,4.18,0.0,-108.51,-0.54,8.9
7.53,1372.27,-4.49,-0.09,3.15,0.0,-110.53,0.56,6.4
7.54,1374.1,-4.57,-1.0,4.61,0.0,-104.73,-1.64,6.09
7.55,1375.9299999999998,-4.75,-0.71,3.25,0.0,-101.8,-1.46,4.69
7.56,1377.57,-4.38,-0.97,3.47,0.0,-98.87,-3.41,2.67
7.569999999999999,1379.78,-4.62,0.41,3.51,0.0,-95.7,-3.96,0.66
7.58,1381.23,-4.63,-0.51,2.95,0.0,-94.23,-5.61,-0.32
7.59,1383.06,-4.64,-0.36,3.0,0.0,-93.25,-4.69,-1.05
7.6,1384.12,-4.59,0.72,3.35,0.0,-91.73,-6.34,-0.32
7.609999999999999,1385.27,-4.64,-0.42,3.25,0.0,-92.34,-7.5,-0.38
7.62,1387.3899999999999,-4.64,-0.05,1.62,0.0,-90.26,-6.03,-0.13
7.63,1389.4199999999998,-4.4,0.18,3.01,0.0,-91.91,-6.46,-0.07
7.64,1391.06,-4.56,-0.3,2.72,0.0,-92.03,-5.91,-0.74
7.6499999999999995,1393.1799999999998,-4.63,0.58,1.81,0.0,-92.46,-4.57,0.29
7.66,1395.01,-4.57,0.68,2.51,0.0,-95.57,-5.55,0.9
7.67,1396.36,-4.6,0.39,1.36,0.0,-96.31,-4.69,0.84
7.68,1397.81,-4.47,-0.18,1.32,0.0,-93.74,-3.9,2.06
7.68,1397.81,-4.47,-0.18,1.32,0.0,-93.74,-3.9,2.06
7.6899999999999995,1399.4499999999998,-4.61,0.26,1.54,0.0,-91.48,-2.62,2.19
7.7,1401.77,-4.41,0.9,1.3,0.0,-94.35,-1.27,1.45
7.71,1403.22,-4.58,0.44,0.56,0.0,-90.2,-0.42,2.55
7.72,1405.53,-4.61,0.61,1.83,0.0,-89.84,0.92,2.92
7.7299999999999995,1406.8799999999999,-4.37,0.33,1.08,0.0,-87.21,1.41,3.41
7.74,1408.72,-4.52,1.36,1.06,0.0,-86.91,2.39,3.65
7.75,1410.6499999999999,-4.45,0.41,0.85,0.0,-87.03,3.67,2.98
7.76,1412.0,-4.33,0.55,0.86,0.0,-85.01,4.52,4.81
7.77,1413.9399999999998,-4.44,0.38,1.03,0.0,-82.27,5.44,5.3
7.78,1416.06,-4.48,0.37,1.49,0.0,-82.45,7.45,4.57
7.79,1417.8,-4.49,0.18,1.54,0.0,-81.17,8.86,4.81
7.8,1419.84,-4.37,-0.15,1.24,0.0,-78.73,10.81,4.14
7.81,1421.96,-4.43,-0.11,1.51,0.0,-79.52,10.14,3.96
7.819999999999999,1424.1899999999998,-4.42,-0.07,2.09,0.0,-76.1,11.24,4.26
7.83,1426.12,-4.47,0.41,2.54,0.0,-77.63,10.99,3.77
7.84,1428.83,-4.49,0.29,2.7,0.0,-74.39,11.79,3.41
7.85,1430.77,-4.32,-0.07,3.02,0.0,-75.43,11.36,3.47
7.859999999999999,1433.29,-4.34,-0.02,3.28,0.0,-75.37,10.99,3.83
7.87,1435.22,-4.39,0.51,3.31,0.0,-74.45,9.84,3.83
7.88,1438.1299999999999,-4.46,0.41,3.81,0.0,-73.42,10.38,3.22
7.89,1440.26,-4.05,-0.2,3.7,0.0,-69.57,9.47,4.57
7.8999999999999995,1442.3899999999999,-4.37,0.53,4.0,0.0,-69.82,8.61,3.9
7.91,1443.75,-4.05,-0.61,4.45,0.0,-69.27,6.6,3.96
7.92,1446.47,-4.29,0.02,4.33,0.0,-68.9,5.99,3.29
7.93,1448.5,-3.96,-0.37,4.16,0.0,-66.4,4.46,2.61
7.9399999999999995,1450.54,-4.22,0.49,3.66,0.0,-67.86,3.55,2.19
7.95,1452.87,-4.28,0.14,4.36,0.0,-65.6,0.86,2.74
7.96,1454.8999999999999,-4.44,0.91,4.74,0.0,-64.99,1.66,2.19
7.97,1456.46,-4.14,0.09,4.53,0.0,-63.04,-0.91,2.37
7.9799999999999995,1458.21,-4.28,0.35,4.06,0.0,-62.61,-3.17,2.25
7.99,1460.24,-4.35,-0.01,3.95,0.0,-60.97,-5.0,2.92
8.0,1461.99,-4.23,0.71,4.17,0.0,-58.34,-4.39,2.92
8.0,1461.99,-4.23,0.71,4.17,0.0,-58.34,-4.39,2.92
8.01,1463.25,-4.26,-0.41,4.16,0.0,-58.83,-6.16,3.04
8.02,1465.59,-4.22,-0.84,3.91,0.0,-57.67,-7.38,2.98
8.030000000000001,1466.75,-4.32,-0.23,3.53,0.0,-56.39,-7.56,2.8
8.040000000000001,1468.21,-4.31,-0.6,4.1,0.0,-53.76,-9.21,1.82
8.05,1469.76,-4.25,-0.23,2.93,0.0,-49.49,-9.39,1.33
8.06,1470.6399999999999,-4.37,0.41,3.44,0.0,-47.66,-10.73,0.23
8.07,1472.1899999999998,-4.28,0.18,2.63,0.0,-45.58,-10.55,0.48
8.08,1473.75,-4.23,0.13,2.09,0.0,-45.46,-10.55,0.97
8.09,1475.6899999999998,-4.09,0.16,2.55,0.0,-47.54,-11.04,1.03
8.1,1476.6699999999998,-4.28,-0.18,1.18,0.0,-45.46,-9.7,1.45
8.11,1478.61,-4.25,0.3,1.88,0.0,-49.31,-9.33,0.36
8.120000000000001,1479.49,-4.24,0.66,0.97,0.0,-47.84,-7.5,0.97
8.13,1481.53,-4.37,0.06,1.16,0.0,-48.45,-6.22,1.09
8.14,1483.1899999999998,-4.39,0.53,0.4,0.0,-47.54,-4.2,1.7
8.15,1484.74,-4.25,0.02,0.79,0.0,-47.11,-3.35,2.55
8.16,1486.3999999999999,-4.37,0.35,1.1,0.0,-49.86,-1.82,2.98
8.17,1488.73,-4.23,0.47,1.04,0.0,-47.78,-0.17,3.16
8.18,1490.3899999999999,-4.21,0.58,1.12,0.0,-48.15,1.41,3.65
8.19,1492.4399999999998,-4.25,0.0,1.24,0.0,-49.06,3.3,3.1
8.200000000000001,1494.1899999999998,-4.48,0.14,0.96,0.0,-48.09,4.46,3.29
8.21,1495.75,-4.29,0.33,0.82,0.0,-45.83,5.14,3.29
8.22,1497.79,-4.2,-0.44,1.16,0.0,-44.79,6.6,2.92
8.23,1499.74,-4.25,0.47,1.55,0.0,-44.61,7.94,2.74
8.24,1501.99,-4.23,0.89,1.68,0.0,-43.26,8.43,3.04
8.25,1504.03,-3.9,0.55,1.87,0.0,-43.69,8.86,2.31
8.26,1506.57,-4.26,0.22,2.74,0.0,-44.18,8.43,2.8
8.27,1508.62,-4.19,-0.14,2.5,0.0,-45.65,10.08,2.92
8.280000000000001,1510.37,-4.11,0.82,2.81,0.0,-47.54,9.35,2.92
8.290000000000001,1512.9099999999999,-4.01,0.23,2.11,0.0,-46.93,9.9,2.8
8.3,1514.08,-4.09,0.79,2.6,0.0,-48.27,9.53,2.8
8.31,1516.1299999999999,-3.88,0.88,2.64,0.0,-46.87,9.77,3.71
8.32,1518.3799999999999,-4.0,0.24,3.27,0.0,-46.93,8.37,4.02
8.32,1518.3799999999999,-4.0,0.24,3.27,0.0,-46.93,8.37,4.02
8.33,1521.11,-3.96,1.0,2.94,0.0,-45.46,8.13,5.06
8.34,1523.46,-4.03,0.0,3.38,0.0,-44.55,7.33,4.99
8.350000000000001,1525.02,-3.9,0.44,3.8,0.0,-42.35,5.68,5.73
8.360000000000001,1526.6799999999998,-4.16,-0.11,3.77,0.0,-43.63,5.87,4.99
8.370000000000001,1529.52,-4.21,0.59,3.75,0.0,-43.2,4.22,5.6
8.38,1531.08,-3.91,0.38,4.01,0.0,-44.06,2.75,5.18
8.39,1533.24,-4.04,-0.06,3.24,0.0,-39.85,1.11,4.87
8.4,1534.51,-3.93,0.24,3.69,0.0,-36.98,0.44,3.96
8.41,1536.85,-4.08,-0.68,3.91,0.0,-34.72,0.07,2.43
8.42,1539.1999999999998,-3.92,0.79,4.3,0.0,-30.87,-1.33,3.53
8.430000000000001,1541.55,-3.78,0.3,3.9,0.0,-27.46,-2.8,2.25
8.440000000000001,1542.53,-3.87,0.9,4.42,0.0,-27.21,-4.33,1.88
8.450000000000001,1543.71,-4.0,0.79,2.9,0.0,-26.3,-6.4,3.29
8.46,1545.1699999999998,-3.98,-0.26,3.68,0.0,-26.85,-7.5,3.53
8.47,1546.55,-4.01,1.09,3.27,0.0,-27.15,-7.56,3.1
8.48,1548.02,-3.9,-0.57,3.57,0.0,-24.83,-8.11,4.32
8.49,1549.1899999999998,-4.1,0.68,2.56,0.0,-25.69,-9.33,5.6
8.5,1550.86,-3.9,-1.49,2.88,0.0,-24.59,-8.54,4.63
8.510000000000002,1552.23,-3.99,0.37,2.55,0.0,-24.34,-8.78,4.2
8.520000000000001,1554.58,-4.03,-0.79,3.26,0.0,-21.54,-8.78,3.22
8.530000000000001,1555.9499999999998,-3.97,0.17,1.94,0.0,-20.25,-9.33,3.04
8.540000000000001,1556.74,-4.07,0.23,2.38,0.0,-18.3,-8.54,2.19
8.55,1558.6,-3.91,0.0,1.99,0.0,-20.01,-8.6,1.45
8.56,1559.97,-3.98,0.13,1.68,0.0,-15.55,-8.05,1.82
8.57,1561.54,-3.9,-0.67,1.96,0.0,-13.6,-7.32,0.97
8.58,1563.99,-4.08,0.58,1.82,0.0,-12.56,-6.34,0.72
8.59,1565.07,-4.02,-1.58,1.35,0.0,-11.53,-5.12,-0.74
8.600000000000001,1567.04,-3.94,0.0,1.25,0.0,-12.38,-4.02,-1.66
8.610000000000001,1568.4099999999999,-3.88,-1.51,1.08,0.0,-13.78,-3.29,-2.7
8.620000000000001,1570.37,-4.02,-0.68,1.06,0.0,-12.87,-2.01,-2.94
8.63,1572.04,-4.15,0.28,1.56,0.0,-14.03,-1.82,-3.98
8.64,1573.81,-4.01,-0.77,0.95,0.0,-10.67,0.5,-4.95
8.64,1573.81,-4.01,-0.77,0.95,0.0,-10.67,0.5,-4.95
8.65,1576.26,-4.22,0.12,2.19,0.0,-9.15,1.66,-5.2
8.66,1578.1299999999999,-3.68,-0.72,1.94,0.0,-9.08,0.74,-6.11
8.67,1579.8,-3.81,0.86,1.93,0.0,-5.67,0.86,-5.69
8.680000000000001,1581.37,-3.94,0.57,1.53,0.0,-7.31,1.72,-6.66
8.690000000000001,1583.6299999999999,-3.73,0.78,1.73,0.0,-5.61,2.33,-5.32
8.700000000000001,1585.21,-3.83,0.22,2.35,0.0,-8.84,3.0,-6.24
8.71,1586.58,-3.95,0.41,2.16,0.0,-13.05,2.33,-5.93
8.72,1588.85,-3.87,1.1,1.87,0.0,-12.62,3.0,-4.34
8.73,1590.62,-3.7,0.37,2.13,0.0,-14.94,4.1,-4.71
8.74,1593.27,-3.81,1.12,2.26,0.0,-16.53,4.77,-3.25
8.75,1594.85,-3.85,0.43,2.53,0.0,-19.03,3.79,-2.15
8.760000000000002,1596.23,-3.74,1.45,2.38,0.0,-23.49,3.91,-1.48
8.770000000000001,1597.6999999999998,-3.84,1.0,2.94,0.0,-26.85,3.37,-0.07
8.780000000000001,1599.47,-3.64,0.61,2.37,0.0,-25.38,4.1,1.94
8.790000000000001,1602.1299999999999,-3.69,1.29,2.59,0.0,-28.92,4.22,3.29
8.8,1604.0,-3.81,0.71,3.19,0.0,-31.48,4.71,3.16
8.81,1605.78,-3.81,0.95,2.81,0.0,-33.8,3.55,4.69
8.82,1607.4499999999998,-3.89,1.29,2.92,0.0,-34.66,3.85,4.69
8.83,1609.1299999999999,-3.72,1.59,2.65,0.0,-35.76,3.85,6.4
8.84,1611.3,-3.78,1.43,2.69,0.0,-39.48,3.12,7.01
8.850000000000001,1612.6799999999998,-3.74,1.35,2.26,0.0,-42.84,2.63,8.35
8.860000000000001,1614.55,-3.69,0.85,2.52,0.0,-45.22,2.69,9.94
8.870000000000001,1616.52,-3.67,0.59,2.8,0.0,-45.83,2.51,11.77
8.88,1618.1999999999998,-3.66,0.99,2.56,0.0,-46.87,2.57,12.99
8.89,1619.1799999999998,-3.71,0.06,2.48,0.0,-48.45,1.72,14.03
8.9,1621.4499999999998,-3.68,-0.56,3.25,0.0,-57.49,1.53,14.7
8.91,1623.9199999999998,-3.67,-0.45,3.57,0.0,-59.81,2.39,13.97
8.92,1625.99,-3.72,-0.45,3.02,0.0,-60.29,1.96,14.21
8.930000000000001,1627.6699999999998,-3.7,-0.45,3.17,0.0,-60.84,2.02,12.68
8.940000000000001,1628.76,-3.56,-1.02,2.47,0.0,-61.76,1.23,12.14
8.950000000000001,1630.73,-3.62,-1.13,2.74,0.0,-65.42,0.56,10.37
8.96,1632.9099999999999,-3.68,-0.77,3.61,0.0,-66.58,-0.17,9.94
8.96,1632.9099999999999,-3.68,-0.77,3.61,0.0,-66.58,-0.17,9.94
8.97,1634.29,-3.62,-1.12,3.32,0.0,-70.3,-0.79,8.23
8.98,1635.77,-3.63,-1.56,3.19,0.0,-73.36,-2.37,7.44
8.99,1638.1399999999999,-3.57,-0.86,3.27,0.0,-75.92,-2.62,6.09
9.0,1639.72,-3.64,-1.25,3.81,0.0,-77.51,-3.47,4.51
9.010000000000002,1641.11,-3.61,-1.42,2.68,0.0,-80.31,-4.51,3.04
9.020000000000001,1642.29,-3.65,-1.43,3.44,0.0,-80.99,-5.61,2.19
9.030000000000001,1643.48,-3.68,-0.82,2.21,0.0,-81.23,-5.97,1.45
9.040000000000001,1644.87,-3.61,-0.92,2.13,0.0,-82.82,-6.4,-0.13
9.05,1646.75,-3.66,-1.44,1.77,0.0,-85.38,-6.64,-1.17
9.06,1648.23,-3.56,-1.0,2.3,0.0,-89.71,-6.03,-2.76
9.07,1649.4199999999998,-3.65,-0.67,1.63,0.0,-93.5,-6.28,-3.43
9.08,1651.1999999999998,-3.65,0.22,1.45,0.0,-93.99,-6.03,-4.04
9.09,1653.57,-3.55,0.1,1.6,0.0,-92.4,-4.87,-4.34
9.100000000000001,1655.06,-3.67,0.29,1.26,0.0,-93.32,-5.24,-3.43
9.110000000000001,1656.4399999999998,-3.49,-0.01,1.9,0.0,-95.57,-4.33,-2.64
9.120000000000001,1658.4299999999998,-3.52,0.17,1.92,0.0,-97.22,-3.35,-1.6
9.13,1660.8999999999999,-3.62,0.1,1.8,0.0,-99.3,-3.47,-1.72
9.14,1661.1999999999998,-3.6,0.7,0.92,0.0,-99.42,-2.19,-1.11
9.15,1663.3799999999999,-3.53,0.69,1.06,0.0,-97.83,-1.7,-0.56
9.16,1664.96,-3.67,1.27,1.87,0.0,-98.75,-1.27,0.48
9.17,1666.6499999999999,-3.58,0.5,1.1,0.0,-96.31,0.86,1.03
9.180000000000001,1668.1399999999999,-3.5,0.61,2.28,0.0,-93.44,0.19,2.37
9.190000000000001,1670.4199999999998,-3.62,0.49,0.94,0.0,-94.35,1.11,2.13
9.200000000000001,1672.1999999999998,-3.62,1.11,2.36,0.0,-93.01,2.02,2.8
9.21,1673.8899999999999,-3.61,1.0,1.63,0.0,-92.83,2.14,3.41
9.22,1676.37,-3.51,0.31,1.86,0.0,-93.25,2.57,4.14
9.23,1677.76,-3.35,0.19,2.22,0.0,-95.7,2.82,4.81
9.24,1678.9499999999998,-3.47,0.45,1.71,0.0,-96.61,3.3,5.85
9.25,1680.73,-3.57,1.39,1.6,0.0,-99.17,3.0,6.03
9.260000000000002,1683.02,-3.56,0.14,2.1,0.0,-98.99,3.18,6.76
9.270000000000001,1684.31,-3.56,0.76,1.76,0.0,-98.02,4.1,7.68
9.280000000000001,1686.29,-3.43,0.49,2.13,0.0,-98.38,3.91,7.19
9.280000000000001,1686.29,-3.43,0.49,2.13,0.0,-98.38,3.91,7.19
9.290000000000001,1687.98,-3.5,1.16,2.13,0.0,-99.3,3.18,8.6
9.3,1688.6799999999998,-3.44,-0.79,1.61,0.0,-101.8,4.04,8.9
9.31,1690.56,-3.62,0.2,1.71,0.0,-103.63,4.04,9.08
9.32,1691.76,-3.45,-0.1,0.71,0.0,-103.75,4.28,9.51
9.33,1694.1399999999999,-3.61,0.12,1.35,0.0,-102.96,4.95,8.84
9.34,1696.23,-3.41,0.38,1.75,0.0,-103.51,6.17,7.8
9.350000000000001,1697.32,-3.44,0.26,1.87,0.0,-104.06,6.23,8.11
9.360000000000001,1699.81,-3.42,-0.04,1.82,0.0,-103.2,6.54,8.6
9.370000000000001,1701.6999999999998,-3.47,0.25,1.95,0.0,-104.67,6.42,9.08
9.38,1702.49,-3.4,0.24,2.28,0.0,-104.91,6.05,8.72
9.39,1704.58,-3.48,0.23,2.26,0.0,-104.36,5.93,8.96
9.4,1707.27,-3.31,-0.44,2.64,0.0,-105.77,5.93,8.17
9.41,1708.6599999999999,-3.52,-0.53,2.14,0.0,-105.71,5.81,7.44
9.42,1710.85,-3.39,-0.33,3.07,0.0,-104.73,5.38,7.62
9.430000000000001,1713.1399999999999,-3.32,-0.55,2.86,0.0,-104.73,4.4,6.34
9.440000000000001,1714.9399999999998,-3.47,-0.04,2.8,0.0,-103.26,3.43,5.67
9.450000000000001,1716.9299999999998,-3.53,0.14,2.92,0.0,-104.97,2.21,4.51
9.46,1718.62,-3.45,-0.23,3.04,0.0,-103.87,1.78,4.87
9.47,1719.9199999999998,-3.32,-0.38,3.75,0.0,-104.67,1.17,3.77
9.48,1721.4099999999999,-7.48,-0.97,2.78,0.0,-105.64,-0.17,3.65
9.49,1723.71,-2.8,-0.43,3.5,0.0,-106.07,-1.15,3.65
9.5,1724.6999999999998,-2.5,0.0,2.76,0.0,-108.27,-1.82,2.74
9.510000000000002,1726.3,-3.89,0.41,2.68,0.0,-108.82,-2.19,2.98
9.520000000000001,1727.79,-3.28,-0.41,2.32,0.0,-109.0,-2.98,3.1
9.530000000000001,1728.59,-3.39,-0.08,2.18,0.0,-109.73,-3.41,2.98
9.540000000000001,1730.3899999999999,-3.21,0.53,2.16,0.0,-111.69,-4.69,2.86
9.55,1732.8799999999999,-3.34,0.73,2.25,0.0,-112.36,-4.87,3.22
