time,baro_altitude,accl_x,accl_y,accl_z,gps_altitude,gyro_roll,gyro_pitch,gyro_yaw
0.0,0.0,19.67,1.75,-11.38,0.0,-32.13,26.99,-2.95
0.010000000000000009,-3.2700000000000102,19.8,1.8,-15.16,0.0,-26.14,24.24,-1.86
0.019999999999999962,-2.680000000000007,31.25,0.33,6.77,0.0,-22.85,-20.5,1.44
0.02999999999999997,-0.4200000000000017,26.99,-0.79,4.65,0.0,-27.36,-23.49,0.34
0.03999999999999998,-3.3500000000000085,29.11,0.7,0.32,0.0,-27.55,-10.61,-2.59
0.04999999999999999,-0.6700000000000017,31.72,-1.86,2.17,0.0,-35.18,-20.5,-0.88
0.06,-1.5100000000000051,31.62,0.19,7.36,0.0,-34.08,-7.86,0.04
0.06999999999999998,-2.3500000000000085,20.33,-2.48,1.47,0.0,-46.29,-10.85,-1.31
0.07999999999999999,-0.8400000000000034,31.94,-1.65,0.72,0.0,-45.31,1.42,1.07
0.09,-2.180000000000007,32.26,0.28,1.11,0.0,-56.66,8.56,2.72
0.09999999999999998,2.269999999999996,32.11,1.52,-6.45,0.0,-58.25,10.08,-3.32
0.10999999999999999,1.3499999999999943,33.85,2.01,2.1,0.0,-56.91,3.86,-3.2
0.12,-2.260000000000005,34.7,2.92,-0.48,0.0,-73.26,-8.53,-3.93
0.12999999999999998,1.509999999999991,33.1,6.11,3.57,0.0,-59.9,-3.77,0.71
0.13999999999999999,0.0,32.68,4.66,-7.66,0.0,-57.58,22.78,-0.57
0.15,-1.3400000000000034,33.69,-0.36,-5.13,0.0,-55.81,5.81,-4.97
0.15999999999999998,0.1700000000000017,35.33,-1.05,3.92,0.0,-50.07,-17.63,2.48
0.16999999999999998,-0.9200000000000017,33.4,-2.34,5.99,0.0,-35.79,-2.98,1.75
0.18,-0.5799999999999983,29.67,0.11,-4.28,0.0,-36.52,25.53,1.14
0.19,-1.2600000000000051,37.63,-8.26,-9.7,0.0,-23.34,6.54,-3.32
0.19999999999999998,1.9299999999999926,35.37,6.83,2.22,0.0,-12.29,-0.78,1.99
0.21,4.450000000000003,37.78,1.54,1.8,0.0,-16.99,1.72,0.59
0.21999999999999997,3.780000000000001,39.48,2.61,-2.19,0.0,-20.41,11.55,-0.57
0.22999999999999998,0.7599999999999909,38.96,5.0,0.86,0.0,-21.32,-7.37,2.72
0.24,1.3499999999999943,42.67,-0.61,-3.54,0.0,-30.36,-2.25,0.46
0.25,0.09000000000000341,44.17,2.03,6.98,0.0,-26.82,-12.56,3.39
0.26,0.5900000000000034,46.6,2.93,4.8,0.0,-33.35,2.88,3.03
0.27,0.09000000000000341,49.31,-1.58,-1.26,0.0,-50.01,9.11,-2.28
0.27999999999999997,1.5999999999999943,49.08,-0.83,-3.8,0.0,-51.17,-5.18,2.11
0.29,1.5999999999999943,50.52,3.14,8.15,0.0,-60.75,-25.38,11.7
0.3,2.9399999999999977,54.82,-3.13,-7.53,0.0,-70.64,11.3,-0.82
0.3,2.9399999999999977,54.82,-3.13,-7.53,0.0,-70.64,11.3,-0.82
0.3,2.9399999999999977,54.82,-3.13,-7.53,0.0,-70.64,11.3,-0.82
0.3,2.9399999999999977,54.82,-3.13,-7.53,0.0,-70.64,11.3,-0.82
0.3,2.9399999999999977,54.82,-3.13,-7.53,0.0,-70.64,11.3,-0.82
0.3,2.9399999999999977,54.82,-3.13,-7.53,0.0,-70.64,11.3,-0.82
0.3,2.9399999999999977,54.82,-3.13,-7.53,0.0,-70.64,11.3,-0.82
0.3,2.9399999999999977,54.82,-3.13,-7.53,0.0,-70.64,11.3,-0.82
0.3,2.9399999999999977,54.82,-3.13,-7.53,0.0,-70.64,11.3,-0.82
0.3,2.9399999999999977,54.82,-3.13,-7.53,0.0,-70.64,11.3,-0.82
0.3,2.9399999999999977,54.82,-3.13,-7.53,0.0,-70.64,11.3,-0.82
0.3,2.9399999999999977,54.82,-3.13,-7.53,0.0,-70.64,11.3,-0.82
0.3,2.9399999999999977,54.82,-3.13,-7.53,0.0,-70.64,11.3,-0.82
0.3,2.9399999999999977,54.82,-3.13,-7.53,0.0,-70.64,11.3,-0.82
0.3,2.9399999999999977,54.82,-3.13,-7.53,0.0,-70.64,11.3,-0.82
0.3,2.9399999999999977,54.82,-3.13,-7.53,0.0,-70.64,11.3,-0.82
0.3,2.9399999999999977,54.82,-3.13,-7.53,0.0,-70.64,11.3,-0.82
0.3,2.9399999999999977,54.82,-3.13,-7.53,0.0,-70.64,11.3,-0.82
0.3,2.9399999999999977,54.82,-3.13,-7.53,0.0,-70.64,11.3,-0.82
0.3,2.9399999999999977,54.82,-3.13,-7.53,0.0,-70.64,11.3,-0.82
0.3,2.9399999999999977,54.82,-3.13,-7.53,0.0,-70.64,11.3,-0.82
0.3,2.9399999999999977,54.82,-3.13,-7.53,0.0,-70.64,11.3,-0.82
0.3,2.9399999999999977,54.82,-3.13,-7.53,0.0,-70.64,11.3,-0.82
0.3,2.9399999999999977,54.82,-3.13,-7.53,0.0,-70.64,11.3,-0.82
0.3,2.9399999999999977,54.82,-3.13,-7.53,0.0,-70.64,11.3,-0.82
0.3,2.9399999999999977,54.82,-3.13,-7.53,0.0,-70.64,11.3,-0.82
0.3,2.9399999999999977,54.82,-3.13,-7.53,0.0,-70.64,11.3,-0.82
0.3,2.9399999999999977,54.82,-3.13,-7.53,0.0,-70.64,11.3,-0.82
0.3,2.9399999999999977,54.82,-3.13,-7.53,0.0,-70.64,11.3,-0.82
0.3,2.9399999999999977,54.82,-3.13,-7.53,0.0,-70.64,11.3,-0.82
0.3,2.9399999999999977,54.82,-3.13,-7.53,0.0,-70.64,11.3,-0.82
0.3,2.9399999999999977,54.82,-3.13,-7.53,0.0,-70.64,11.3,-0.82
0.3,2.9399999999999977,54.82,-3.13,-7.53,0.0,-70.64,11.3,-0.82
0.3,2.9399999999999977,54.82,-3.13,-7.53,0.0,-70.64,11.3,-0.82
0.3,2.9399999999999977,54.82,-3.13,-7.53,0.0,-70.64,11.3,-0.82
0.31,2.6899999999999977,59.77,-5.46,11.48,0.0,-78.51,-8.9,-3.44
0.31,2.6899999999999977,59.77,-5.46,11.48,0.0,-78.51,-8.9,-3.44
0.32,1.8499999999999943,63.41,-3.87,-0.42,0.0,-69.66,-3.34,4.0
0.32,1.8499999999999943,63.41,-3.87,-0.42,0.0,-69.66,-3.34,4.0
0.32999999999999996,2.519999999999996,67.84,0.45,-1.12,0.0,-67.65,-7.07,14.93
0.33999999999999997,2.269999999999996,72.38,-6.51,-4.15,0.0,-68.5,6.24,-0.15
0.35,1.009999999999991,78.15,-6.28,4.58,0.0,-64.17,13.99,-13.09
0.36,0.5900000000000034,80.09,0.71,-5.56,0.0,-63.68,4.1,8.22
0.37,1.6799999999999926,84.29,-7.25,-10.38,0.0,-58.74,17.41,-6.37
0.38,3.1899999999999977,87.68,2.24,2.83,0.0,-53.12,-12.07,4.13
0.39,5.11999999999999,94.06,2.04,5.17,0.0,-53.12,0.87,-0.51
0.4,5.209999999999994,95.76,2.26,-5.64,0.0,-50.19,15.82,-3.63
0.41,4.959999999999994,101.36,-0.21,-5.02,0.0,-47.63,3.19,-2.22
0.42,4.789999999999992,102.55,3.49,8.19,0.0,-44.27,-6.52,-1.73
0.43,4.539999999999992,108.34,1.18,2.21,0.0,-44.94,0.26,-7.17
0.44,3.950000000000003,106.94,0.31,-4.7,0.0,-44.03,3.43,-4.05
0.44999999999999996,5.3799999999999955,113.72,2.83,0.55,0.0,-40.0,-3.47,-7.53
0.45999999999999996,6.219999999999999,118.94,2.65,2.67,0.0,-38.72,-6.52,-7.1
0.47,5.6299999999999955,125.14,2.98,4.16,0.0,-37.5,-2.92,-8.81
0.48,6.3799999999999955,132.46,0.37,2.66,0.0,-35.06,9.35,-11.25
0.49,7.72999999999999,137.82,4.12,3.21,0.0,-34.26,9.29,-5.64
0.5,7.390000000000001,138.41,6.08,6.94,0.0,-30.17,-0.17,-15.59
0.51,6.969999999999999,138.72,1.81,5.73,0.0,-27.85,5.75,-18.03
0.52,7.640000000000001,138.1,-0.23,5.58,0.0,-27.0,14.05,-18.58
0.53,9.069999999999993,141.38,5.86,5.14,0.0,-27.98,16.19,-17.79
0.54,8.899999999999991,140.64,4.88,1.4,0.0,-27.85,12.83,-20.65
0.55,10.159999999999997,141.98,0.34,1.7,0.0,-26.27,17.71,-27.06
0.56,12.009999999999991,150.76,2.87,7.51,0.0,-20.04,23.69,-22.24
0.5700000000000001,11.840000000000003,155.41,7.5,1.31,0.0,-18.58,24.85,-26.03
0.5800000000000001,12.679999999999993,156.76,2.18,2.77,0.0,-16.32,20.22,-35.67
0.59,14.11,156.78,1.04,11.31,0.0,-14.91,29.68,-32.56
0.6,12.939999999999998,156.84,0.09,6.28,0.0,-13.33,39.69,-32.5
0.61,15.36999999999999,156.83,4.81,-0.72,0.0,-11.92,37.43,-29.75
0.62,11.759999999999991,156.74,3.49,1.81,0.0,-8.14,37.55,-34.88
0.63,13.36,156.6,-2.88,3.89,0.0,-6.43,43.17,-37.01
0.64,13.939999999999998,154.21,-0.31,2.04,0.0,-5.88,44.75,-33.35
0.64,13.939999999999998,154.21,-0.31,2.04,0.0,-5.88,44.75,-33.35
0.6499999999999999,16.47,153.9,4.18,-0.07,0.0,-5.21,38.28,-30.91
0.6599999999999999,16.049999999999997,155.11,0.69,5.24,0.0,-4.35,39.2,-35.0
0.6699999999999999,17.310000000000002,155.98,-2.66,5.64,0.0,-3.07,44.39,-36.1
0.6799999999999999,18.89999999999999,155.5,0.4,0.31,0.0,-2.71,41.15,-32.92
0.69,19.319999999999993,156.48,2.98,4.11,0.0,-1.3,35.66,-32.37
0.7,19.409999999999997,156.73,0.95,7.31,0.0,-0.33,40.6,-33.11
0.71,20.33,156.88,-1.37,2.71,0.0,0.35,43.29,-33.53
0.72,22.86,150.78,4.43,-0.44,0.0,0.9,36.76,-27.61
0.73,23.450000000000003,156.87,-0.49,2.19,0.0,2.05,40.72,-34.02
0.74,25.039999999999992,156.48,-0.39,-0.46,0.0,2.67,46.89,-30.48
0.75,25.629999999999995,156.74,1.09,0.87,0.0,3.28,43.9,-28.41
0.76,27.64999999999999,155.6,2.7,3.81,0.0,3.76,41.21,-27.19
0.77,27.14999999999999,154.77,0.1,2.47,0.0,3.46,39.01,-27.8
0.78,30.679999999999993,155.45,-2.44,-1.83,0.0,1.99,42.68,-26.15
0.79,28.83,156.87,-1.1,-0.77,0.0,0.65,45.73,-24.19
0.8,32.2,156.17,1.91,1.02,0.0,0.16,44.33,-22.3
0.81,32.61999999999999,155.43,-0.35,9.69,0.0,-1.12,27.42,-22.85
0.8200000000000001,34.05,156.75,0.53,3.65,0.0,-4.23,33.89,-18.76
0.8300000000000001,33.8,155.45,1.83,0.2,0.0,-8.14,36.21,-14.18
0.8400000000000001,36.58,156.86,-1.16,3.61,0.0,-10.76,29.86,-19.68
0.8500000000000001,37.75999999999999,156.68,-3.25,5.71,0.0,-13.14,27.78,-13.51
0.8600000000000001,38.09,156.82,-1.18,-5.2,0.0,-16.07,34.44,-6.98
0.8699999999999999,40.45,156.85,1.94,-0.86,0.0,-15.46,31.39,-10.58
0.8799999999999999,41.459999999999994,156.88,-2.17,7.78,0.0,-16.2,14.97,-4.85
0.8899999999999999,43.91,156.88,-3.36,4.81,0.0,-17.05,15.21,-2.22
0.8999999999999999,44.329999999999984,156.88,0.76,-1.12,0.0,-16.38,25.46,4.61
0.9099999999999999,43.99000000000001,156.87,0.12,1.47,0.0,-11.5,15.7,3.27
0.9199999999999999,45.16999999999999,156.88,-8.07,-0.2,0.0,-7.71,14.78,4.19
0.9299999999999999,46.609999999999985,156.88,-3.18,-0.96,0.0,-3.19,13.99,13.83
0.94,47.78999999999999,156.87,2.02,-1.7,0.0,-1.24,8.74,16.52
0.95,50.56999999999999,156.87,-1.35,4.3,0.0,0.65,1.54,13.1
0.96,52.50999999999999,156.87,-4.99,5.2,0.0,0.41,0.44,18.29
0.96,52.50999999999999,156.87,-4.99,5.2,0.0,0.41,0.44,18.29
0.97,52.50999999999999,156.88,1.79,2.18,0.0,0.04,-3.28,28.66
0.98,54.44999999999999,156.68,3.17,4.01,0.0,0.28,0.87,23.23
0.99,55.120000000000005,156.88,-6.72,4.92,0.0,0.28,-1.21,25.25
1.0,55.97,156.88,0.67,-0.53,0.0,-0.39,-6.46,32.87
1.01,57.91,156.88,4.77,4.94,0.0,-0.94,-8.72,32.08
1.02,58.579999999999984,156.57,-1.11,8.6,0.0,-1.91,-10.73,29.52
1.03,59.25999999999999,156.86,-4.69,4.57,0.0,-5.94,-13.6,32.45
1.04,59.77000000000001,156.88,4.24,-1.37,0.0,-6.73,-11.89,38.25
1.05,61.44999999999999,156.88,0.52,2.07,0.0,-5.88,-11.77,30.74
1.06,63.72999999999999,156.88,-3.06,3.43,0.0,-5.51,-9.81,32.33
1.07,64.91999999999999,156.88,2.06,-2.44,0.0,-5.94,-12.68,38.49
1.08,67.03,156.88,8.24,-1.46,0.0,-4.11,-19.46,34.46
1.09,67.37,156.82,-0.22,1.49,0.0,-1.61,-12.93,26.16
1.1,68.79999999999998,156.88,-5.51,-5.74,0.0,-1.85,-3.34,30.37
1.11,70.66,156.88,6.4,-1.77,0.0,1.26,-18.05,36.23
1.1199999999999999,71.25,156.88,6.51,5.95,0.0,5.47,-30.99,26.22
1.13,73.03,156.88,-4.05,7.7,0.0,9.38,-24.16,20.73
1.14,75.99000000000001,156.87,-1.25,-0.45,0.0,10.91,-16.41,25.43
1.15,76.91999999999999,156.88,5.98,-2.89,23.0,14.32,-23.67,22.13
1.15,76.91999999999999,156.88,5.98,-2.89,23.0,14.32,-23.67,22.13
1.15,76.91999999999999,156.88,5.98,-2.89,23.0,14.32,-23.67,22.13
1.16,79.78999999999999,156.88,-0.32,0.67,23.0,16.83,-23.3,11.76
1.17,80.72,156.56,-1.42,-0.66,23.0,19.33,-8.65,13.65
1.18,84.44,156.88,7.27,-1.07,23.0,22.08,-21.53,15.3
1.19,84.44,156.86,3.94,4.3,23.0,27.08,-32.7,6.26
1.2,88.85,156.88,-1.46,11.43,23.0,32.39,-24.95,3.15
1.21,91.04999999999998,156.88,1.69,2.91,23.0,36.24,-18.6,3.82
1.22,92.22999999999999,156.88,4.11,-2.49,23.0,40.51,-17.69,-2.47
1.23,90.78999999999999,156.88,-0.47,6.66,23.0,45.82,-21.41,-8.08
1.24,92.32,156.88,-0.47,6.73,23.0,49.72,-19.7,-5.82
1.25,94.52000000000001,156.88,4.92,-0.36,23.0,54.67,-9.33,-7.1
1.26,94.77000000000001,156.85,8.46,1.75,23.0,61.99,-18.6,-12.48
1.27,97.47999999999999,156.88,-3.15,7.25,23.0,69.13,-14.94,-21.2
1.28,98.75,156.82,-1.6,3.83,23.0,72.25,-0.96,-18.15
1.28,98.75,156.82,-1.6,3.83,23.0,72.25,-0.96,-18.15
1.29,99.94,156.88,2.3,-5.4,23.0,74.57,7.4,-18.88
1.3,102.82,156.8,2.06,2.83,23.0,77.86,-2.92,-25.84
1.31,104.18,156.57,-1.52,9.25,23.0,78.9,-6.03,-26.33
1.32,104.25999999999999,156.88,4.57,4.94,23.0,78.47,6.73,-21.14
1.33,106.13,156.82,3.56,-6.95,23.0,78.78,19.97,-24.93
1.34,107.82999999999998,156.88,-0.91,4.3,23.0,79.51,2.45,-29.69
1.35,109.52000000000001,156.88,-4.19,15.99,23.0,79.39,-8.23,-27.12
1.36,111.72999999999999,156.69,2.42,2.76,23.0,76.15,12.52,-21.63
1.37,113.0,156.85,2.7,-10.99,23.0,74.26,34.01,-24.13
1.3800000000000001,112.91,156.88,-3.75,5.57,23.0,74.44,15.45,-22.67
1.3900000000000001,115.54999999999998,156.55,-5.01,13.21,23.0,72.86,3.06,-17.54
1.4000000000000001,115.46000000000001,156.88,0.72,-1.52,23.0,69.32,21.44,-13.7
1.4100000000000001,116.65,156.88,1.03,-8.62,23.0,66.08,33.4,-12.78
1.4200000000000002,120.29999999999998,156.88,-1.41,0.93,23.0,64.19,18.38,-7.71
1.43,121.4,156.88,1.03,4.58,23.0,61.2,20.46,-2.28
1.44,121.74000000000001,156.88,2.02,-1.7,23.0,57.6,17.77,-0.33
1.45,125.47999999999999,156.87,-0.13,-5.69,23.0,55.16,21.01,1.07
1.46,126.75,156.88,-1.47,4.71,23.0,53.08,15.88,4.37
1.47,128.03,156.88,0.34,7.04,23.0,51.01,7.64,8.15
1.48,132.10999999999999,156.88,2.67,1.4,23.0,49.3,-1.39,11.27
1.49,135.25,156.88,1.02,1.9,23.0,48.38,4.22,11.15
1.5,134.82999999999998,156.88,0.75,3.16,23.0,47.59,11.43,13.83
1.51,138.91,156.88,2.35,-2.43,23.0,48.57,1.54,16.88
1.52,141.12,156.88,0.9,-0.18,23.0,47.83,-12.44,15.6
1.53,142.14,156.88,-2.98,6.17,23.0,49.42,-5.24,17.43
1.54,144.44,156.88,0.01,-2.95,23.0,48.81,2.94,19.63
1.55,148.60999999999999,156.88,0.42,-2.2,23.0,52.11,-15.98,20.06
1.56,151.51,156.88,1.24,9.43,23.0,54.79,-22.57,20.0
1.57,154.74,156.86,3.46,6.2,23.0,57.66,-8.78,22.07
1.58,156.45,156.8,9.13,-4.45,23.0,59.73,-1.94,21.58
1.59,160.10999999999999,156.88,0.67,-2.14,23.0,64.31,-9.88,13.77
1.6,161.39,156.87,-4.24,4.92,23.0,68.04,-15.31,10.6
1.6,161.39,156.87,-4.24,4.92,23.0,68.04,-15.31,10.6
1.61,165.66,156.88,1.57,0.78,23.0,70.48,-10.49,14.99
1.62,169.15,156.88,4.78,-4.34,23.0,73.96,-3.53,10.66
1.6300000000000001,172.22,156.88,1.12,5.45,23.0,77.86,-20.01,7.12
1.6400000000000001,173.67,156.88,0.09,6.19,23.0,80.91,-15.06,6.32
1.6500000000000001,178.20000000000002,156.88,3.79,-3.55,23.0,82.99,3.31,1.01
1.6600000000000001,182.38000000000002,156.88,2.39,-9.54,23.0,86.59,10.94,-3.08
1.6700000000000002,183.48999999999998,156.88,1.99,4.11,23.0,90.44,-8.9,-2.1
1.68,186.73999999999998,156.88,6.14,9.25,23.0,92.94,-9.08,-2.16
1.69,188.45000000000002,156.88,4.82,-5.35,23.0,94.04,7.7,-7.78
1.7,189.48,156.88,-6.26,-6.39,23.0,95.69,9.66,-13.88
1.71,190.84,156.88,2.8,0.6,23.0,96.54,9.41,-5.82
1.72,193.84,156.85,5.57,1.78,23.0,99.04,3.55,-10.16
1.73,197.6,156.86,-1.55,0.97,23.0,99.78,-6.21,-15.34
1.74,199.91,156.88,-4.85,3.33,23.0,99.96,3.74,-9.91
1.75,201.61999999999998,156.88,2.42,2.78,23.0,99.04,11.43,-4.48
1.76,202.04999999999998,156.88,2.73,4.07,23.0,98.49,1.66,-9.0
1.77,204.96,156.88,-5.53,9.17,23.0,96.11,-4.38,-9.55
1.78,206.76000000000002,156.88,-0.39,11.34,23.0,94.71,-5.54,1.26
1.79,209.84,156.88,4.96,8.26,23.0,92.08,-4.26,2.66
1.8,211.98,156.88,-2.2,3.64,23.0,91.17,0.32,1.44
1.81,214.54999999999998,156.88,1.27,7.86,23.0,91.84,-7.31,9.44
1.82,217.04,156.65,5.32,3.76,23.0,90.01,3.13,10.66
1.83,218.74999999999997,156.88,0.83,2.76,23.0,92.27,5.81,7.61
1.84,222.78,156.8,-3.65,-1.43,23.0,90.38,0.93,12.31
1.85,224.15,156.88,3.27,-0.3,23.0,90.5,0.2,16.58
1.86,228.86999999999998,156.66,0.58,2.79,23.0,92.08,6.36,10.54
1.87,231.70000000000002,156.86,-6.34,-9.58,23.0,92.94,15.82,9.8
1.8800000000000001,233.67999999999998,156.88,0.03,-5.31,23.0,95.26,-1.51,18.23
1.8900000000000001,238.92,156.88,11.86,0.0,23.0,96.3,-4.75,14.26
1.9000000000000001,242.60999999999999,156.88,-3.48,1.24,23.0,99.9,2.76,2.17
1.9100000000000001,245.79,156.88,-3.05,-3.98,23.0,100.32,-5.66,9.07
1.9200000000000002,250.17,156.88,8.58,-1.84,23.0,102.16,-1.88,14.5
1.9200000000000002,250.17,156.88,8.58,-1.84,23.0,102.16,-1.88,14.5
1.93,252.41,156.88,4.99,2.85,23.0,105.82,-1.09,2.48
1.94,255.51000000000002,156.88,-8.59,-2.28,23.0,107.4,-1.39,-0.45
1.95,259.38,156.88,1.75,-0.85,23.0,107.47,-14.27,10.6
1.96,264.71000000000004,156.59,14.5,11.27,23.0,107.95,-11.22,7.67
1.97,266.61,156.88,-0.71,7.69,23.0,111.98,-1.57,-8.63
1.98,269.02,156.86,-9.59,0.04,23.0,111.62,-8.35,0.46
1.99,271.52,153.23,6.46,-0.84,23.0,110.4,2.51,7.97
2.0,273.85,156.87,4.34,-7.07,23.0,112.53,28.82,-2.1
2.01,277.28999999999996,155.68,-3.08,-4.06,23.0,111.74,18.38,-0.39
2.02,282.28999999999996,156.88,3.73,6.93,23.0,113.39,-7.07,8.15
2.03,284.36,156.1,3.57,1.77,23.0,115.34,8.5,1.01
2.04,287.55999999999995,156.88,-3.58,-8.78,23.0,114.06,32.3,0.1
2.05,290.32000000000005,156.88,-0.56,-8.12,23.0,118.33,13.62,5.35
2.06,293.6,156.88,10.71,6.96,23.0,120.53,-9.33,0.22
2.07,294.89,156.71,-4.31,1.87,23.0,122.54,15.88,-9.79
2.08,299.99,156.34,-8.78,-11.31,23.0,122.18,17.65,3.39
2.09,301.46000000000004,156.85,10.44,-4.41,23.0,123.4,-10.91,12.73
2.1,303.53,156.88,5.26,10.28,23.0,127.42,-11.04,4.07
2.11,308.63,156.49,-6.42,-9.68,23.0,128.34,5.32,4.98
2.12,311.65999999999997,156.74,4.57,-8.42,23.0,129.38,-20.5,10.66
2.13,312.61,156.88,0.71,17.09,23.0,132.8,-32.28,-1.49
2.14,315.28999999999996,156.88,-13.18,2.68,23.0,130.11,-3.53,2.11
2.15,320.23,156.87,1.55,-13.78,145.0,127.73,-3.96,19.69
2.15,320.23,156.87,1.55,-13.78,145.0,127.73,-3.96,19.69
2.15,320.23,156.87,1.55,-13.78,145.0,127.73,-3.96,19.69
2.16,325.6,156.88,12.93,9.99,145.0,130.23,-30.14,14.2
2.17,327.85,156.85,-1.63,9.52,145.0,131.39,-12.62,1.5
2.1799999999999997,333.22,156.69,-4.36,-9.22,145.0,129.01,3.06,12.55
2.19,336.08000000000004,156.37,7.11,-9.05,145.0,130.29,-1.94,15.91
2.1999999999999997,338.34000000000003,156.11,7.39,8.82,145.0,132.67,-9.14,3.46
2.21,343.45000000000005,156.87,-9.64,8.51,145.0,132.8,-14.15,-2.28
2.2199999999999998,347.53,156.6,-2.84,-4.82,145.0,131.88,-9.57,10.66
2.23,350.30999999999995,156.64,13.33,7.57,145.0,133.53,-8.53,7.18
2.2399999999999998,354.65,156.33,-3.46,7.1,145.0,135.48,4.9,-11.32
2.2399999999999998,354.65,156.33,-3.46,7.1,145.0,135.48,4.9,-11.32
2.25,356.48,155.89,-10.36,-2.32,145.0,134.87,0.13,-2.65
2.26,359.95000000000005,156.88,6.23,5.81,145.0,135.36,-10.3,8.64
2.27,363.34000000000003,156.51,8.33,13.24,145.0,136.64,-2.8,0.53
2.28,363.6,154.93,-7.13,0.11,145.0,136.82,8.25,-3.44
2.29,367.86,156.6,-1.04,-2.71,145.0,136.89,-0.29,9.44
2.3,369.16999999999996,156.04,8.35,8.84,145.0,135.97,-1.09,10.11
2.3099999999999996,372.47,156.8,-1.75,-5.47,145.0,134.93,13.56,3.58
2.32,374.13,156.69,-4.98,-9.69,145.0,135.18,-2.0,6.81
2.3299999999999996,376.55999999999995,156.27,6.71,0.18,145.0,133.16,3.49,14.5
2.34,379.78,155.61,2.84,-12.67,145.0,134.08,31.75,3.52
2.3499999999999996,380.30999999999995,156.22,-5.65,-16.71,145.0,134.99,12.95,2.23
2.36,381.87,153.84,-2.61,4.0,145.0,133.77,-19.28,8.52
2.3699999999999997,384.75,154.65,5.76,2.36,145.0,129.38,-2.49,13.1
2.38,383.43999999999994,152.99,7.36,-17.07,145.0,129.07,24.49,7.91
2.3899999999999997,382.48,154.3,-3.0,-3.49,145.0,131.15,-12.99,4.49
2.4,378.03999999999996,155.07,1.61,14.26,145.0,131.33,-19.64,10.72
2.4099999999999997,374.55999999999995,152.69,0.65,3.22,145.0,131.03,3.67,2.48
2.42,375.87,152.18,-4.19,-9.27,145.0,129.19,8.25,1.07
2.4299999999999997,386.32000000000005,150.83,-1.19,-1.65,145.0,130.17,-3.04,7.18
2.44,404.1,150.26,2.88,3.42,145.0,127.73,6.67,7.97
2.4499999999999997,443.98,148.37,0.49,-12.11,145.0,126.81,17.04,1.75
2.46,517.2199999999999,149.11,-3.63,-14.79,145.0,128.22,-1.33,1.07
2.4699999999999998,590.1899999999999,147.76,-2.82,10.3,145.0,129.68,-11.4,0.83
2.48,650.35,145.17,3.38,8.33,145.0,128.4,-8.47,6.2
2.4899999999999998,697.66,136.57,3.05,-13.76,145.0,129.32,2.21,6.87
2.5,736.8,129.28,0.99,-10.74,145.0,130.54,15.03,3.39
2.51,770.66,131.13,-2.13,0.38,145.0,132.74,16.0,1.07
2.52,795.93,130.58,-4.39,7.13,145.0,136.34,-16.53,-1.55
2.53,816.35,119.3,-4.62,-10.22,145.0,136.34,-9.69,1.68
2.54,831.4399999999999,111.75,3.77,-6.78,145.0,132.86,13.44,7.61
2.55,845.1,108.13,2.15,-7.09,145.0,134.38,26.81,6.38
2.5599999999999996,854.4,108.94,4.78,1.73,145.0,136.15,-16.04,6.69
2.5599999999999996,854.4,108.94,4.78,1.73,145.0,136.15,-16.04,6.69
2.57,861.3299999999999,100.45,2.27,8.12,145.0,137.8,-15.06,4.31
2.5799999999999996,863.43,91.92,-2.59,-5.67,145.0,139.33,10.94,3.76
2.59,865.89,84.97,-2.72,-9.26,145.0,141.52,12.95,6.02
2.5999999999999996,865.4399999999999,79.44,-2.42,1.71,145.0,144.21,-1.82,6.57
2.61,863.06,73.66,-4.32,-0.64,145.0,145.98,-2.0,6.57
2.6199999999999997,861.3299999999999,69.51,-4.67,0.0,145.0,149.09,-5.66,7.06
2.63,860.42,64.68,-3.06,0.48,145.0,149.4,-1.88,7.73
2.6399999999999997,860.23,57.57,-0.43,-7.47,145.0,151.72,8.19,9.44
2.65,860.51,50.91,2.91,-1.16,145.0,154.22,-0.84,10.35
2.6599999999999997,859.9599999999999,48.81,3.68,-0.22,145.0,155.07,-5.36,8.4
2.67,858.87,49.18,0.93,-4.2,145.0,158.8,0.13,6.63
2.6799999999999997,859.78,45.6,1.24,-3.01,145.0,160.32,-4.75,5.1
2.69,862.15,43.32,-0.36,1.69,145.0,163.07,-6.76,1.93
2.6999999999999997,863.88,40.62,-2.75,-3.67,145.0,163.07,2.45,-0.76
2.71,864.98,39.53,-3.78,-8.66,145.0,163.01,5.99,-1.49
2.7199999999999998,866.99,43.66,-2.11,-2.21,145.0,161.79,-1.09,1.99
2.73,868.63,37.76,1.56,1.2,145.0,161.48,-6.27,7.48
2.7399999999999998,870.64,34.76,-0.03,-4.71,145.0,160.69,-2.92,6.51
2.75,874.1999999999999,33.6,0.53,-4.82,145.0,159.23,-2.86,8.03
2.76,877.04,32.89,-1.99,-1.65,145.0,159.65,1.17,8.52
2.77,879.05,31.41,-1.4,-3.28,145.0,159.59,-3.04,13.04
2.78,883.4399999999999,29.35,-0.3,-6.23,145.0,160.02,-2.98,11.7
2.79,887.1,28.21,-2.28,-4.6,145.0,159.29,7.03,10.41
2.8,890.02,28.14,-1.23,-2.47,145.0,159.53,2.21,9.74
2.8099999999999996,894.9699999999999,27.91,0.45,-0.04,145.0,161.42,-10.0,8.28
2.82,897.53,27.24,1.69,0.62,145.0,163.56,-5.97,4.8
2.8299999999999996,903.12,27.35,-1.56,-5.15,145.0,164.11,7.52,4.13
2.84,905.78,29.01,2.22,-4.94,145.0,166.12,-2.67,6.2
2.8499999999999996,909.4399999999999,27.47,-0.64,-0.74,145.0,167.83,-9.94,2.11
2.86,913.29,28.64,-8.21,0.58,145.0,167.04,0.44,1.81
2.8699999999999997,916.78,27.16,2.74,-9.47,145.0,165.88,6.79,8.03
2.88,918.7099999999999,27.7,3.55,0.38,145.0,165.82,-14.03,1.5
2.88,918.7099999999999,27.7,3.55,0.38,145.0,165.82,-14.03,1.5
2.8899999999999997,920.73,29.37,-7.21,5.27,145.0,166.43,-11.95,-1.43
2.9,921.37,26.76,-0.17,1.0,145.0,163.99,-2.25,8.83
2.9099999999999997,923.5699999999999,26.18,4.99,-4.65,145.0,163.68,0.93,4.0
2.92,921.92,26.04,-11.24,-3.99,145.0,162.4,1.36,0.1
2.9299999999999997,922.1999999999999,25.48,-5.81,-4.56,145.0,159.41,4.53,17.86
2.94,927.15,25.08,9.57,-4.62,145.0,158.92,-1.51,20.06
2.9499999999999997,929.63,25.38,-2.7,-3.15,145.0,159.65,-5.79,6.69
2.96,932.39,24.72,-8.13,-4.26,145.0,160.45,0.01,12.61
2.9699999999999998,936.7099999999999,24.9,5.87,-5.91,145.0,158.86,2.82,17.01
2.98,939.7499999999999,25.17,2.71,-1.22,145.0,160.75,-5.91,4.49
2.9899999999999998,943.61,24.55,-5.38,-0.57,145.0,162.15,-8.72,4.49
3.0,948.58,23.75,0.9,-0.95,145.0,164.47,2.21,11.63
3.01,953.2699999999999,23.76,7.36,-3.18,145.0,165.63,3.06,6.81
3.02,954.93,25.15,-4.65,-4.72,145.0,167.77,3.06,-3.38
3.03,956.2199999999999,24.67,-6.97,-1.52,145.0,167.04,5.38,2.54
3.04,960.18,24.57,2.09,-2.66,145.0,166.61,5.75,6.38
3.05,961.5600000000001,25.03,-0.68,-5.37,145.0,165.82,5.51,0.83
3.0599999999999996,963.2199999999999,26.02,-5.34,-4.45,145.0,163.8,7.46,5.59
3.07,966.7299999999999,28.2,0.78,-3.32,145.0,162.03,4.59,14.87
3.0799999999999996,968.9399999999999,26.36,6.02,-3.72,145.0,161.91,-4.69,8.77
3.09,971.34,26.26,-6.38,2.53,145.0,160.93,-2.0,4.68
3.0999999999999996,976.14,24.89,-2.27,-5.2,145.0,161.97,8.98,12.61
3.11,982.32,26.1,7.56,-4.22,145.0,161.3,-4.99,11.02
3.1199999999999997,985.92,34.5,-2.12,-1.14,145.0,165.27,-13.6,-0.09
3.13,989.8000000000001,35.88,-1.47,-10.89,145.0,163.99,16.86,7.67
3.1399999999999997,992.2099999999999,38.37,3.05,7.58,414.0,164.05,-18.97,2.54
3.1399999999999997,992.2099999999999,38.37,3.05,7.58,414.0,164.05,-18.97,2.54
3.1399999999999997,992.2099999999999,38.37,3.05,7.58,414.0,164.05,-18.97,2.54
3.15,991.7399999999999,28.59,-4.77,5.75,414.0,163.44,-21.9,-0.45
3.1599999999999997,994.0600000000001,24.26,0.19,-6.56,414.0,161.73,-7.74,7.3
3.17,997.11,20.98,4.35,-0.21,414.0,158.43,-4.81,8.03
3.1799999999999997,999.2299999999999,20.12,-6.27,-2.62,414.0,160.51,-0.23,4.98
3.19,1000.9899999999999,18.07,0.98,0.95,414.0,164.96,-13.66,11.51
3.1999999999999997,1004.6899999999999,16.76,-0.18,3.76,414.0,165.02,-3.41,5.53
3.1999999999999997,1004.6899999999999,16.76,-0.18,3.76,414.0,165.02,-3.41,5.53
3.21,1005.16,16.28,-9.29,-6.47,414.0,164.6,22.6,4.13
3.2199999999999998,1008.9499999999999,15.67,-2.2,-9.35,414.0,163.5,13.14,12.55
3.23,1012.38,15.45,4.32,-0.83,414.0,163.44,-5.85,10.23
3.2399999999999998,1016.08,15.84,-1.71,3.45,414.0,164.23,-7.92,3.52
3.25,1019.88,14.54,-2.52,-8.2,414.0,163.74,1.66,8.7
3.26,1023.0299999999999,13.9,0.69,-5.64,414.0,164.78,-6.7,8.58
3.27,1028.14,14.64,0.14,2.37,414.0,165.45,-8.35,4.61
3.28,1031.75,14.67,-3.34,-6.21,414.0,166.73,2.76,2.72
3.29,1035.47,14.37,-0.52,-8.86,414.0,165.76,-8.78,1.81
3.3,1037.42,14.5,-1.78,-0.79,414.0,164.41,-3.96,1.68
3.3099999999999996,1039.74,13.4,-1.71,-6.05,414.0,162.95,5.69,4.25
3.32,1042.52,12.77,2.88,-7.54,414.0,161.79,-3.77,4.98
3.3299999999999996,1043.17,12.65,-0.07,-0.88,414.0,161.85,-2.92,0.65
3.34,1043.5500000000002,12.7,-5.39,-2.6,414.0,160.93,10.57,2.97
3.3499999999999996,1045.78,12.5,-1.76,-2.72,414.0,158.0,0.5,9.92
3.36,1048.66,11.91,-1.75,-0.71,414.0,158.37,0.32,8.64
3.3699999999999997,1052.0,12.01,-3.19,-5.68,414.0,159.71,11.73,9.62
3.38,1055.63,11.49,1.99,-7.69,414.0,159.41,6.97,10.9
3.3899999999999997,1059.45,11.43,4.89,0.31,414.0,160.32,-2.55,9.74
3.4,1063.8200000000002,11.84,-0.82,1.04,414.0,161.36,-6.27,6.08
3.4099999999999997,1068.2900000000002,11.98,-1.39,-10.35,414.0,160.02,4.59,6.14
3.42,1072.39,11.31,-0.39,-5.92,414.0,161.54,-0.96,1.26
3.4299999999999997,1074.72,10.94,-4.8,3.46,414.0,161.73,-6.46,-1.0
3.44,1079.01,9.83,-2.77,-5.52,414.0,162.34,1.48,1.68
3.4499999999999997,1081.71,9.64,-1.91,-6.95,414.0,162.4,0.93,1.87
3.46,1084.88,9.21,-1.39,1.35,414.0,161.73,-4.87,1.56
3.4699999999999998,1086.47,10.13,-1.81,-1.34,414.0,160.51,-0.05,3.52
3.48,1090.01,8.56,-0.41,-11.08,414.0,160.93,5.2,4.43
3.4899999999999998,1093.5600000000002,7.82,-0.7,-1.75,414.0,160.75,-4.2,4.37
3.5,1095.24,7.79,-3.47,2.03,414.0,161.36,-0.72,5.35
3.51,1098.0400000000002,7.76,-2.14,-4.41,414.0,160.93,-0.17,6.93
3.52,1102.25,6.79,-1.42,-2.76,414.0,162.09,-4.57,4.55
3.52,1102.25,6.79,-1.42,-2.76,414.0,162.09,-4.57,4.55
3.53,1106.0800000000002,7.81,-3.48,-0.43,414.0,161.67,1.6,3.39
3.54,1108.88,7.05,-0.61,-1.27,414.0,161.06,5.02,6.45
3.55,1112.0600000000002,6.06,2.83,-4.35,414.0,161.61,0.62,7.12
3.5599999999999996,1115.52,6.2,-0.46,-3.07,414.0,162.58,1.48,3.7
3.57,1120.02,6.21,0.19,-3.57,414.0,161.36,9.53,5.96
3.5799999999999996,1123.48,5.69,-0.34,-3.65,414.0,163.25,2.39,3.94
3.59,1127.88,5.77,-1.54,-2.13,414.0,162.89,-3.1,3.33
3.5999999999999996,1130.0400000000002,5.84,-3.49,-3.79,414.0,163.93,4.59,3.94
3.61,1133.7900000000002,5.16,-0.12,-5.41,414.0,163.74,2.39,3.52
3.61,1133.7900000000002,5.16,-0.12,-5.41,414.0,163.74,2.39,3.52
3.6199999999999997,1136.41,5.55,-1.48,1.51,414.0,164.78,-8.96,4.8
3.63,1139.3200000000002,4.92,-2.25,2.33,414.0,164.11,-8.9,1.44
3.6399999999999997,1141.94,5.02,-1.4,-1.69,414.0,163.5,-3.53,5.9
3.65,1145.42,5.05,-1.02,-4.44,414.0,162.28,0.99,4.86
3.6599999999999997,1148.0400000000002,4.78,-1.99,-2.13,414.0,162.58,-0.84,6.08
3.67,1153.02,5.62,1.51,0.64,414.0,162.4,-5.24,7.91
3.6799999999999997,1156.03,5.03,-1.63,0.9,414.0,162.77,-7.5,4.07
3.69,1159.41,5.22,-2.27,-1.13,414.0,161.48,2.64,7.48
3.6999999999999997,1162.7,4.8,1.77,-6.28,414.0,162.15,8.13,6.38
3.71,1167.1200000000001,5.42,-2.27,-2.47,414.0,163.56,0.62,3.21
3.7199999999999998,1170.88,5.52,-5.65,0.75,414.0,165.39,-3.16,4.98
3.73,1173.7,6.54,0.25,-2.27,414.0,165.57,0.32,7.0
3.7399999999999998,1177.47,5.0,2.24,-5.68,414.0,166.98,1.6,4.13
3.75,1180.48,5.26,-3.03,-3.01,414.0,166.43,-1.88,5.04
3.76,1184.25,5.51,-0.47,-2.51,414.0,165.45,-1.39,7.0
3.77,1188.21,4.75,2.44,-2.3,414.0,165.33,-4.87,7.67
3.78,1190.47,4.21,-4.26,-2.27,414.0,165.33,-2.86,-0.02
3.79,1194.52,4.68,-3.96,-4.26,414.0,165.88,5.44,7.24
3.8,1197.0700000000002,3.85,1.36,-3.41,414.0,165.76,3.49,7.97
3.8099999999999996,1201.88,4.06,-1.89,-0.01,414.0,166.06,-3.1,4.31
3.82,1203.48,5.9,-2.24,-2.05,414.0,165.51,0.93,7.06
3.8299999999999996,1208.49,4.22,1.44,-7.73,414.0,166.61,8.13,7.36
3.84,1212.27,3.51,0.38,-4.48,414.0,166.73,4.47,5.35
3.84,1212.27,3.51,0.38,-4.48,414.0,166.73,4.47,5.35
3.8499999999999996,1214.53,3.48,-3.28,-1.6,414.0,167.89,1.9,5.77
3.86,1219.5400000000002,2.67,0.92,-6.73,414.0,167.53,5.93,7.73
3.8699999999999997,1222.8500000000001,3.65,-0.7,-4.75,414.0,167.95,0.5,0.83
3.88,1225.5,2.22,0.95,-1.78,414.0,167.4,0.44,6.02
3.8899999999999997,1229.5700000000002,4.69,-1.38,2.12,414.0,169.42,-8.9,2.11
3.9,1232.6000000000001,2.67,-2.72,-5.37,414.0,168.26,-1.15,2.3
3.9099999999999997,1236.5700000000002,1.03,-2.23,-6.78,414.0,168.32,5.99,4.49
3.92,1239.89,1.09,0.8,-2.49,414.0,168.38,1.97,2.66
3.9299999999999997,1242.5400000000002,0.58,-2.86,-0.05,414.0,169.11,-5.97,5.47
3.94,1245.67,-0.57,-0.44,-4.26,414.0,168.2,-2.67,5.71
3.9499999999999997,1248.89,-2.42,0.71,-6.44,414.0,169.17,7.34,6.87
3.96,1253.16,-3.08,-2.01,-4.93,414.0,168.87,7.21,5.65
3.9699999999999998,1255.72,-3.24,-3.08,-0.49,414.0,169.36,-3.41,4.8
3.98,1259.99,-4.77,-0.91,0.1,414.0,170.15,-5.11,8.15
3.9899999999999998,1262.3600000000001,-6.81,-1.98,-6.09,414.0,168.62,8.5,3.27
4.0,1267.49,-7.01,-2.88,-3.76,414.0,168.87,4.71,5.16
4.01,1271.0,-6.95,2.37,0.44,414.0,168.99,-10.12,8.83
4.0200000000000005,1273.95,-7.99,-0.22,-0.81,414.0,169.72,-5.24,-0.02
4.03,1276.8000000000002,-9.58,-5.3,-7.55,414.0,169.6,4.9,5.23
4.04,1280.7,-9.89,-0.49,-4.74,414.0,170.64,-1.15,6.02
4.05,1283.65,-10.29,-0.71,0.57,414.0,170.82,-9.81,4.19
4.06,1286.6000000000001,-11.21,-3.65,-2.04,414.0,170.52,-4.69,6.14
4.07,1289.8400000000001,-12.45,0.09,-2.7,414.0,170.64,-1.88,9.5
4.08,1293.0700000000002,-12.14,-1.62,-0.45,414.0,171.31,-3.77,6.75
4.09,1295.3600000000001,-5.88,-1.4,1.24,414.0,172.23,-7.01,8.28
4.1,1298.1200000000001,-12.97,-4.7,-4.19,414.0,173.69,-3.16,7.97
4.11,1301.46,-13.65,-1.85,3.22,414.0,174.79,-9.63,12.0
4.12,1306.22,-15.06,-0.44,0.06,414.0,174.36,-1.51,9.13
4.13,1308.8000000000002,-16.08,-2.07,-7.29,414.0,174.36,4.65,9.68
4.14,1312.23,-17.33,-0.44,-3.88,758.0,174.79,0.07,13.28
4.14,1312.23,-17.33,-0.44,-3.88,758.0,174.79,0.07,13.28
4.14,1312.23,-17.33,-0.44,-3.88,758.0,174.79,0.07,13.28
4.15,1315.5700000000002,-17.7,0.79,-0.56,758.0,175.71,2.33,8.95
4.16,1318.3400000000001,-17.52,-2.14,-4.32,758.0,176.93,3.37,7.85
4.16,1318.3400000000001,-17.52,-2.14,-4.32,758.0,176.93,3.37,7.85
4.17,1323.88,-18.07,-4.14,-6.31,758.0,178.02,-0.66,7.85
4.18,1329.0400000000002,-19.09,0.14,-4.68,758.0,178.15,3.61,7.12
4.19,1332.0900000000001,-19.16,-1.31,-6.68,758.0,179.12,8.86,6.81
4.2,1335.25,-19.33,-3.44,-5.78,758.0,179.98,1.84,3.82
4.21,1340.3200000000002,-19.02,-1.62,-5.23,758.0,181.38,-0.66,7.42
4.22,1344.8200000000002,-19.07,0.22,-6.67,758.0,183.03,7.03,5.84
4.23,1346.3500000000001,-17.96,-2.8,-7.99,758.0,184.07,6.85,4.19
4.24,1350.18,-18.22,-0.46,-6.44,758.0,184.01,-1.09,8.22
4.25,1353.8200000000002,-18.53,1.57,-1.0,758.0,183.15,-3.59,7.97
4.26,1356.21,-18.55,-2.71,-4.81,758.0,183.64,2.27,5.59
4.2700000000000005,1358.03,-19.02,-3.86,-6.16,758.0,184.07,-0.66,10.11
4.28,1360.72,-19.05,0.49,-1.76,758.0,184.68,-0.84,11.57
4.29,1364.27,-18.4,-0.83,-1.68,758.0,184.37,2.39,7.67
4.3,1368.2,-18.46,-3.7,-5.17,758.0,185.47,-1.15,9.74
4.31,1370.88,-18.7,-1.24,-2.46,758.0,185.78,-3.53,11.45
4.319999999999999,1375.4,-18.63,0.3,-2.47,758.0,186.14,3.67,9.31
4.33,1381.0600000000002,-18.82,-1.71,-5.91,758.0,187.3,4.47,7.61
4.34,1383.94,-18.98,-1.56,-3.66,758.0,187.61,-1.33,8.52
4.35,1388.75,-18.9,0.75,-1.17,758.0,188.71,-0.11,8.58
4.359999999999999,1392.4,-19.21,-1.72,-5.58,758.0,189.01,4.28,5.65
4.37,1396.92,-18.98,-3.63,-3.77,758.0,189.68,0.56,5.04
4.38,1400.8700000000001,-20.06,-2.11,-4.62,758.0,189.32,4.28,6.26
4.39,1405.68,-20.05,-0.29,-8.9,758.0,190.05,8.56,4.19
4.3999999999999995,1408.96,-19.87,-3.08,-4.38,758.0,189.26,-0.48,2.48
4.41,1414.16,-19.94,-2.17,0.08,758.0,189.5,-3.28,5.71
4.42,1417.73,-20.69,2.27,-3.52,758.0,188.95,-1.94,7.24
4.43,1421.2900000000002,-21.11,-4.48,-5.63,758.0,190.29,0.07,0.89
4.4399999999999995,1422.64,-21.58,-8.15,-0.78,758.0,189.26,-4.14,5.71
4.45,1425.64,-22.43,0.68,-2.12,758.0,188.4,-0.96,13.65
4.46,1429.7900000000002,-22.94,0.5,-4.37,758.0,187.85,-3.96,8.15
4.47,1433.65,-23.93,-6.81,-5.2,758.0,188.28,-0.41,8.09
4.4799999999999995,1437.7,-24.19,-1.51,-3.88,758.0,188.89,0.81,15.11
4.4799999999999995,1437.7,-24.19,-1.51,-3.88,758.0,188.89,0.81,15.11
4.49,1442.3400000000001,-24.44,2.27,0.15,758.0,189.44,-9.94,12.92
4.5,1446.88,-25.17,-3.19,-1.09,758.0,191.76,-12.74,7.0
4.51,1451.14,-26.02,-2.45,-5.83,758.0,191.51,-2.55,7.79
4.52,1456.3600000000001,-27.25,1.91,-6.9,758.0,191.7,0.56,9.68
4.53,1461.2,-27.32,0.26,-3.55,758.0,192.61,-3.83,1.44
4.54,1462.75,-26.96,-3.32,-2.24,758.0,191.57,-5.48,-0.51
4.55,1468.76,-26.59,-0.82,-3.34,758.0,192.06,0.93,3.94
4.56,1473.02,-27.01,-1.78,-3.78,758.0,192.19,3.61,2.54
4.569999999999999,1477.5800000000002,-27.4,-1.95,-3.83,758.0,190.54,0.74,3.15
4.58,1482.14,-27.62,-2.25,-2.25,758.0,189.5,0.2,5.9
4.59,1486.22,-28.01,-0.31,-4.29,758.0,188.16,4.35,8.58
4.6,1491.95,-28.65,-1.3,-6.44,758.0,189.32,5.32,6.75
4.609999999999999,1498.75,-28.39,-4.89,-2.07,758.0,188.89,-1.21,8.58
4.62,1502.93,-29.33,1.7,-8.65,758.0,188.22,6.05,12.79
4.63,1510.6100000000001,-28.99,2.8,-3.72,758.0,188.89,-3.59,7.85
4.64,1515.67,-28.31,-5.48,3.16,758.0,190.11,-17.02,4.98
4.6499999999999995,1521.71,-28.98,-1.09,-1.67,758.0,188.58,-7.62,10.05
4.66,1529.6000000000001,-29.23,2.57,-8.78,758.0,187.36,-0.54,8.58
4.67,1536.92,-29.16,-3.55,-6.54,758.0,186.87,3.92,3.76
4.68,1542.19,-29.47,-1.77,-2.27,758.0,186.33,-0.54,6.87
4.6899999999999995,1551.46,-29.14,2.15,-4.32,758.0,185.47,-4.44,8.46
4.7,1557.92,-29.24,-2.41,-5.16,758.0,185.84,1.23,3.15
4.71,1565.15,-29.46,-4.04,-3.51,758.0,183.95,1.66,5.29
4.72,1572.1000000000001,-28.76,-0.18,-5.77,758.0,181.38,-0.29,9.31
4.7299999999999995,1580.3300000000002,-28.4,-0.14,-7.06,758.0,181.32,-0.05,8.7
4.74,1586.7,-28.84,-2.97,-6.34,758.0,182.36,3.19,7.61
4.75,1595.8200000000002,-28.57,-2.49,-2.68,758.0,179.86,0.87,9.86
4.76,1603.68,-28.42,0.09,-4.97,758.0,180.71,-0.54,11.21
4.77,1612.6200000000001,-28.24,-1.36,-6.49,758.0,180.95,2.27,9.5
4.78,1619.1100000000001,-27.48,1.04,-0.82,758.0,179.86,-3.34,12.31
4.79,1629.44,-27.57,2.86,-1.92,758.0,180.04,-3.47,9.56
4.8,1638.4,-28.05,0.45,-6.64,758.0,182.48,-0.35,3.82
4.8,1638.4,-28.05,0.45,-6.64,758.0,182.48,-0.35,3.82
4.81,1647.18,-27.54,-4.24,-3.88,758.0,183.09,2.03,2.36
4.819999999999999,1655.47,-27.27,-1.34,-5.02,758.0,180.95,5.99,7.61
4.83,1665.94,-27.37,3.38,-7.88,758.0,180.34,6.05,5.29
4.84,1674.0400000000002,-26.52,-2.49,-9.15,758.0,181.02,3.55,-0.33
4.85,1680.97,-25.9,-6.16,-0.61,758.0,179.86,-3.34,4.68
4.859999999999999,1687.41,-25.52,4.71,-4.3,758.0,177.54,-0.72,9.8
4.87,1694.5400000000002,-24.91,1.13,-5.42,758.0,178.09,-1.76,1.93
4.88,1700.2900000000002,-23.48,-0.36,-12.69,758.0,176.01,7.03,3.39
4.89,1709.6100000000001,-22.62,-4.11,3.69,758.0,174.67,-20.56,4.37
4.8999999999999995,1718.65,-23.84,-1.28,4.74,758.0,174.06,-13.72,7.61
4.91,1726.01,-24.79,4.03,-10.89,758.0,169.91,0.44,7.3
4.92,1731.48,-25.92,-2.26,-5.29,758.0,169.17,-14.15,-0.02
4.93,1739.64,-26.87,-6.22,2.51,758.0,166.73,-21.17,0.95
4.9399999999999995,1744.8100000000002,-27.19,2.74,-7.31,758.0,162.58,-3.04,11.39
4.95,1750.99,-27.73,2.55,-7.03,758.0,162.64,-8.78,7.85
4.96,1705.8400000000001,-27.52,-4.88,-1.92,758.0,161.18,-10.61,6.02
4.97,1589.3500000000001,-26.87,-2.26,-4.02,758.0,159.47,-2.49,12.98
4.9799999999999995,1486.7,-28.1,2.7,-7.85,758.0,158.55,-1.76,12.92
4.99,1437.99,-27.67,-2.93,-5.88,758.0,157.82,-4.99,8.77
5.0,1413.2,-27.97,-4.72,-5.36,758.0,156.66,-1.03,12.43
5.01,1396.25,-28.66,8.14,-2.42,758.0,156.05,0.38,16.03
5.02,1378.0800000000002,-28.38,3.29,-5.17,758.0,157.76,5.08,3.7
5.03,1359.95,-27.4,-4.84,-3.6,758.0,158.25,-1.09,2.6
5.04,1345.39,-28.1,0.75,-3.26,758.0,155.81,3.31,10.41
5.05,1335.8200000000002,-28.08,4.98,-8.19,758.0,156.05,16.61,3.52
5.06,1330.18,-27.51,-4.72,-8.6,758.0,157.27,9.05,-1.92
5.069999999999999,1325.5,-27.57,-2.06,0.61,758.0,157.09,-6.4,5.1
5.08,1313.5700000000002,-27.87,4.52,-1.48,758.0,157.46,0.56,5.41
5.09,1297.26,-28.13,-0.68,-10.78,758.0,155.87,11.43,-1.0
5.1,1288.3100000000002,-27.41,-3.44,-6.93,758.0,155.2,0.56,3.58
5.109999999999999,1285.17,-27.5,1.79,1.37,758.0,154.46,-8.72,7.36
5.12,1281.65,-28.06,0.68,-5.1,758.0,153.0,-3.89,3.76
5.12,1281.65,-28.06,0.68,-5.1,758.0,153.0,-3.89,3.76
5.13,1277.94,-27.54,-2.7,-10.65,758.0,154.28,-1.03,3.76
5.14,1274.6200000000001,-28.64,-0.45,-2.71,758.0,153.43,-2.55,8.34
5.1499999999999995,1272.6200000000001,-28.14,1.13,-1.95,758.0,152.57,-3.16,7.91
5.16,1274.6200000000001,-28.53,-1.57,-6.72,1095.0,152.39,-9.27,6.26
5.16,1274.6200000000001,-28.53,-1.57,-6.72,1095.0,152.39,-9.27,6.26
5.16,1274.6200000000001,-28.53,-1.57,-6.72,1095.0,152.39,-9.27,6.26
5.17,1277.18,-29.88,-1.58,-3.64,1095.0,153.18,-7.01,8.95
5.18,1279.18,-30.73,-0.09,-3.83,1095.0,151.23,3.67,10.23
5.1899999999999995,1280.99,-31.06,-0.2,-7.01,1095.0,150.56,-0.41,11.02
5.2,1286.69,-30.13,0.17,-2.72,1095.0,151.41,-11.65,10.29
5.21,1291.45,-31.01,-0.99,0.25,1095.0,152.39,-3.47,9.07
5.22,1296.1200000000001,-33.38,-1.15,-7.29,1095.0,152.33,10.51,10.11
5.2299999999999995,1301.65,-33.28,0.34,-7.66,1095.0,153.91,4.53,10.23
5.24,1308.6100000000001,-32.24,-1.68,-0.07,1095.0,155.38,-3.41,7.61
5.25,1315.47,-32.87,-1.03,-1.98,1095.0,155.01,3.06,7.91
5.26,1321.97,-32.48,-0.28,-8.74,1095.0,156.97,8.74,7.97
5.27,1327.03,-32.12,-0.28,-3.0,1095.0,158.74,1.97,5.41
5.28,1331.6200000000001,-31.93,-1.04,-1.19,1095.0,159.41,1.78,5.84
5.29,1337.5400000000002,-31.62,0.37,-5.46,1095.0,160.08,3.13,6.57
5.3,1342.6200000000001,-31.91,-0.03,-6.94,1095.0,160.93,2.27,4.55
5.31,1348.17,-31.1,-0.57,-4.18,1095.0,161.67,2.7,3.7
5.319999999999999,1351.14,-31.06,-0.61,-1.4,1095.0,162.28,-2.55,4.49
5.33,1356.88,-30.76,-0.79,-3.39,1095.0,163.19,-5.6,3.82
5.34,1360.53,-30.82,-2.0,-5.8,1095.0,163.07,-4.2,4.25
5.35,1364.27,-30.33,-0.66,-6.88,1095.0,163.68,4.04,4.8
5.359999999999999,1369.25,-30.11,-0.46,-4.88,1095.0,163.86,0.81,5.47
5.37,1372.9,-29.86,-1.29,-0.9,1095.0,162.77,-10.91,6.69
5.38,1375.78,-30.29,0.28,-4.61,1095.0,162.7,-3.41,7.12
5.39,1379.8100000000002,-30.33,-0.03,-8.54,1095.0,162.15,6.6,6.51
5.3999999999999995,1384.52,-29.62,-1.27,-4.41,1095.0,162.64,-0.96,5.96
5.41,1388.46,-28.93,-0.51,2.63,1095.0,162.28,-10.49,5.84
5.42,1392.5,-29.18,-0.99,-1.54,1095.0,161.73,-4.14,5.59
5.43,1396.73,-29.09,-1.6,-7.91,1095.0,161.42,4.59,6.93
5.4399999999999995,1399.0400000000002,-29.07,-0.33,-3.45,1095.0,160.57,2.94,7.48
5.4399999999999995,1399.0400000000002,-29.07,-0.33,-3.45,1095.0,160.57,2.94,7.48
5.45,1403.28,-28.19,-0.45,1.85,1095.0,160.38,-2.98,7.48
5.46,1407.03,-28.49,-1.17,-3.75,1095.0,159.29,-2.12,6.93
5.47,1409.73,-28.51,-1.51,-4.73,1095.0,159.77,0.32,6.87
5.4799999999999995,1413.68,-27.95,-1.12,-4.31,1095.0,159.35,7.15,8.03
5.49,1417.3400000000001,-27.71,0.85,-9.4,1095.0,160.2,5.81,7.0
5.5,1419.5600000000002,-27.68,-0.5,-4.09,1095.0,161.18,-3.59,5.53
5.51,1424.38,-27.43,-1.65,-1.08,1095.0,160.75,-1.15,7.42
5.52,1427.28,-27.3,1.12,-5.14,1095.0,160.45,5.75,9.8
5.53,1430.75,-26.7,0.55,-4.53,1095.0,160.87,-0.96,8.22
5.54,1434.13,-27.51,-2.34,-0.97,1095.0,161.54,-5.54,8.09
5.55,1437.1200000000001,-27.12,-0.05,-3.45,1095.0,160.75,1.23,9.62
5.56,1439.73,-26.8,0.49,-7.59,1095.0,160.69,6.85,7.79
5.569999999999999,1442.63,-27.29,-2.63,-3.83,1095.0,161.06,2.03,6.57
5.58,1445.8200000000002,-27.13,-1.91,-0.91,1095.0,161.61,-3.47,8.58
5.59,1448.24,-26.25,0.29,-2.75,1095.0,161.48,-2.86,8.64
5.6,1452.4,-26.59,-1.14,-5.37,1095.0,162.4,0.38,7.54
5.609999999999999,1454.6200000000001,-26.58,-0.52,-3.29,1095.0,162.64,-0.48,8.58
5.62,1458.78,-26.45,1.95,-2.42,1095.0,162.22,-3.41,9.5
5.63,1462.46,-25.72,0.8,-3.29,1095.0,163.8,-3.59,7.97
5.64,1464.88,-25.83,-1.43,-3.11,1095.0,163.62,-3.96,7.36
5.6499999999999995,1467.02,-25.84,-0.34,-3.86,1095.0,163.99,-1.82,8.52
5.66,1471.18,-26.16,0.24,-4.94,1095.0,164.05,-1.7,9.25
5.67,1473.6100000000001,-25.96,-2.18,-4.73,1095.0,165.27,-1.51,5.77
5.68,1477.2900000000002,-25.6,-2.12,-3.91,1095.0,166.24,-1.45,7.61
5.6899999999999995,1481.46,-25.59,-0.28,-2.31,1095.0,166.0,-4.93,7.73
5.7,1482.8200000000002,-25.45,-1.19,-2.39,1095.0,166.49,-5.48,6.02
5.71,1486.1200000000001,-25.08,-1.04,-3.45,1095.0,167.83,-1.82,6.75
5.72,1489.71,-25.25,0.78,-6.24,1095.0,167.22,3.49,6.93
5.7299999999999995,1492.53,-25.36,1.37,-3.39,1095.0,168.01,0.26,6.75
5.74,1495.3500000000001,-24.73,-0.04,-1.29,1095.0,168.26,-3.04,7.61
5.75,1498.26,-24.92,0.15,-4.54,1095.0,168.32,1.05,6.51
5.76,1501.5700000000002,-24.87,-0.58,-5.96,1095.0,168.75,4.59,5.47
5.76,1501.5700000000002,-24.87,-0.58,-5.96,1095.0,168.75,4.59,5.47
5.77,1504.0,-24.57,-1.86,-4.21,1095.0,168.99,2.39,7.0
5.78,1506.6200000000001,-24.53,-1.2,-2.5,1095.0,169.54,-0.84,8.15
5.79,1511.0,-24.18,-1.4,-4.5,1095.0,169.6,2.09,6.69
5.8,1513.14,-24.33,-1.89,-5.93,1095.0,169.85,4.71,8.09
5.81,1514.89,-24.36,-0.66,-4.55,1095.0,170.27,1.84,8.15
5.819999999999999,1517.91,-24.1,1.15,-3.25,1095.0,170.27,1.23,10.17
5.83,1519.96,-24.2,1.19,-5.76,1095.0,171.92,1.78,8.4
5.84,1523.17,-24.3,0.43,-7.23,1095.0,172.71,2.88,9.5
5.85,1526.78,-23.94,-0.94,-3.38,1095.0,173.02,0.13,8.28
5.859999999999999,1528.14,-23.87,-0.12,-2.65,1095.0,174.12,-1.27,7.24
5.87,1532.72,-23.84,-0.82,-3.91,1095.0,174.24,0.62,6.02
5.88,1535.45,-23.68,-1.46,-4.86,1095.0,174.85,1.11,6.32
5.89,1538.48,-23.81,0.75,-4.98,1095.0,174.85,1.29,7.48
5.8999999999999995,1539.94,-23.84,-0.13,-4.31,1095.0,175.22,0.07,6.26
5.91,1543.16,-23.65,-0.59,-4.65,1095.0,175.34,1.6,6.51
5.92,1546.19,-23.46,-0.18,-4.15,1095.0,175.77,-0.35,6.45
5.93,1548.73,-23.2,-0.98,-2.42,1095.0,175.95,-2.92,6.75
5.9399999999999995,1551.95,-23.2,-1.1,-2.97,1095.0,175.52,-0.78,5.59
5.95,1555.18,-23.33,-0.67,-5.67,1095.0,175.46,3.19,6.32
5.96,1557.72,-23.07,-0.05,-5.43,1095.0,175.34,2.51,7.06
5.97,1559.48,-22.95,-0.02,-1.63,1095.0,175.64,-2.92,6.51
5.9799999999999995,1563.88,-22.69,-1.23,-0.08,1095.0,175.4,-4.93,5.59
5.99,1565.5400000000002,-22.92,-0.65,-4.18,1095.0,175.71,-0.54,7.61
6.0,1569.5600000000002,-22.4,0.24,-0.72,1095.0,176.44,-5.05,5.9
6.01,1571.51,-22.74,-1.81,-5.79,1095.0,176.32,4.65,5.04
6.02,1573.47,-22.61,-1.26,-5.21,1095.0,176.01,1.66,7.91
6.03,1578.5600000000002,-22.52,0.9,-2.98,1095.0,175.52,-1.21,7.36
6.04,1579.5400000000002,-22.4,-0.76,-3.49,1095.0,175.77,0.87,6.2
6.05,1581.99,-22.69,-1.31,-4.98,1095.0,176.38,0.38,6.2
6.06,1586.01,-22.33,1.53,-2.99,1095.0,176.38,-1.09,8.58
6.069999999999999,1588.3700000000001,-22.21,0.77,-2.16,1095.0,176.8,-1.57,7.18
6.08,1590.03,-22.21,-0.78,-5.87,1095.0,177.29,1.9,6.69
6.08,1590.03,-22.21,-0.78,-5.87,1095.0,177.29,1.9,6.69
6.09,1592.88,-21.96,-1.28,-3.16,1095.0,177.54,-3.53,6.32
6.1,1595.92,-21.87,-1.3,-1.02,1095.0,177.78,-2.86,6.2
6.109999999999999,1597.88,-21.64,-1.28,-2.54,1095.0,177.66,-0.48,6.26
6.12,1602.2,-21.74,-0.7,-4.4,1095.0,176.5,-1.7,7.18
6.13,1604.3600000000001,-21.9,-0.67,-3.44,1095.0,176.44,-0.05,6.45
6.14,1608.39,-21.7,-1.34,-2.82,1095.0,177.23,3.67,7.0
6.1499999999999995,1610.8500000000001,-21.44,-1.11,-3.24,1403.0,176.5,-1.76,7.06
6.1499999999999995,1610.8500000000001,-21.44,-1.11,-3.24,1403.0,176.5,-1.76,7.06
6.1499999999999995,1610.8500000000001,-21.44,-1.11,-3.24,1403.0,176.5,-1.76,7.06
6.16,1613.01,-21.57,-0.85,-0.9,1403.0,176.5,-1.21,6.93
6.17,1614.88,-21.69,-0.81,-3.48,1403.0,176.19,3.61,6.63
6.18,1618.6100000000001,-21.42,-0.53,-5.41,1403.0,176.25,4.16,6.93
6.1899999999999995,1618.71,-21.53,-0.11,-1.59,1403.0,177.11,-3.16,6.75
6.2,1622.75,-21.46,-1.54,-1.38,1403.0,177.41,-2.67,6.81
6.21,1625.5,-21.16,-1.97,-3.25,1403.0,176.8,1.05,7.18
6.22,1628.95,-21.43,1.25,-4.65,1403.0,177.17,0.01,7.79
6.2299999999999995,1632.2,-20.98,-0.33,-1.45,1403.0,176.56,-2.25,5.1
6.24,1633.0800000000002,-21.5,-2.0,-2.05,1403.0,177.29,-0.29,5.71
6.25,1635.8400000000001,-21.21,0.15,-3.54,1403.0,176.07,1.23,6.75
6.26,1640.18,-21.28,-0.19,-1.95,1403.0,176.5,-0.05,3.88
6.27,1641.5600000000002,-21.07,-1.48,-3.01,1403.0,176.56,2.21,3.39
6.28,1642.8400000000001,-20.69,-0.83,-1.89,1403.0,176.62,-2.86,4.98
6.29,1647.0800000000002,-21.33,0.04,-1.69,1403.0,176.01,2.33,4.13
6.3,1650.53,-21.02,-2.22,-3.9,1403.0,175.34,2.03,5.41
6.31,1651.6200000000001,-21.21,0.96,-4.62,1403.0,175.34,-1.15,7.06
6.319999999999999,1654.28,-20.9,-0.82,-3.86,1403.0,175.03,0.81,6.51
6.33,1656.0600000000002,-20.93,-1.85,-4.69,1403.0,175.09,1.97,7.54
6.34,1657.3400000000001,-20.82,-0.68,-2.51,1403.0,175.46,-4.93,9.07
6.35,1661.0,-20.49,-1.4,-1.88,1403.0,175.64,-5.3,7.42
6.359999999999999,1663.67,-20.73,-1.89,-4.2,1403.0,175.4,1.42,8.34
6.37,1667.1200000000001,-20.86,-0.66,-4.81,1403.0,174.48,0.81,8.77
6.38,1669.6000000000001,-20.71,-0.18,-0.8,1403.0,174.61,-5.6,9.19
6.39,1673.45,-20.77,0.81,-1.75,1403.0,174.79,-1.15,7.48
6.3999999999999995,1674.74,-20.51,-0.94,-5.09,1403.0,173.75,3.8,6.2
6.3999999999999995,1674.74,-20.51,-0.94,-5.09,1403.0,173.75,3.8,6.2
6.41,1676.1200000000001,-20.56,-0.11,-2.23,1403.0,173.69,-1.64,7.54
6.42,1678.69,-19.87,-0.34,2.18,1403.0,173.63,-4.57,6.14
6.43,1683.5400000000002,-20.36,-0.53,-2.39,1403.0,174.12,0.87,5.29
6.4399999999999995,1686.1200000000001,-20.76,-1.15,-5.78,1403.0,173.75,2.39,5.16
6.45,1687.21,-20.28,-1.07,-1.88,1403.0,173.51,2.33,7.24
6.46,1688.5,-20.03,0.31,-2.18,1403.0,173.63,4.77,6.45
6.47,1693.45,-20.21,-0.74,-5.43,1403.0,173.51,6.67,4.8
6.4799999999999995,1694.8400000000001,-19.94,-1.02,-2.8,1403.0,173.45,3.8,6.2
6.49,1698.1100000000001,-19.64,0.98,0.17,1403.0,173.75,2.76,6.32
6.5,1700.5900000000001,-19.82,0.79,-3.0,1403.0,173.45,2.45,4.25
6.51,1702.0700000000002,-20.45,-1.74,-5.42,1403.0,173.02,5.57,4.31
6.52,1703.66,-19.95,-1.93,-4.56,1403.0,172.47,8.92,6.63
6.53,1707.23,-20.02,0.63,-4.46,1403.0,172.71,6.67,6.75
6.54,1709.1200000000001,-19.98,-1.61,-2.6,1403.0,172.96,0.38,5.1
6.55,1711.6000000000001,-19.83,-2.71,-4.07,1403.0,172.78,2.58,6.75
6.56,1712.89,-20.15,1.42,-5.51,1403.0,172.84,7.21,7.67
6.569999999999999,1715.8700000000001,-19.84,0.26,-5.18,1403.0,172.84,1.36,6.02
6.58,1719.0500000000002,-19.5,-1.09,0.98,1403.0,172.41,-6.7,6.51
6.59,1721.8300000000002,-19.56,-0.34,-0.38,1403.0,171.55,-4.5,8.46
6.6,1724.22,-19.78,0.77,-6.15,1403.0,171.62,0.99,7.0
6.609999999999999,1725.8100000000002,-19.3,-2.33,-4.05,1403.0,171.43,0.2,5.65
6.62,1727.6000000000001,-19.41,-1.37,-0.18,1403.0,171.13,-3.41,7.42
6.63,1731.18,-19.19,0.4,-0.72,1403.0,171.86,-5.05,7.61
6.64,1733.17,-19.12,-1.88,-2.86,1403.0,170.88,-3.89,5.71
6.6499999999999995,1735.8500000000001,-19.38,-1.39,-5.09,1403.0,170.64,2.88,7.54
6.66,1739.64,-19.03,0.11,-3.27,1403.0,170.03,2.15,8.52
6.67,1742.3200000000002,-19.29,0.07,-2.04,1403.0,169.54,-1.33,6.87
6.68,1744.42,-19.43,-1.24,-2.91,1403.0,168.87,3.0,7.18
6.6899999999999995,1746.91,-19.32,-0.58,-5.76,1403.0,168.26,7.95,9.13
6.7,1748.7,-19.13,0.77,-3.73,1403.0,167.71,3.25,9.44
6.71,1750.89,-19.27,-0.07,0.08,1403.0,168.2,-1.03,8.28
6.72,1752.7900000000002,-18.91,-1.7,-3.17,1403.0,167.04,4.04,7.97
6.72,1752.7900000000002,-18.91,-1.7,-3.17,1403.0,167.04,4.04,7.97
6.7299999999999995,1757.97,-19.19,-0.24,-6.86,1403.0,167.22,10.08,10.41
6.74,1757.67,-18.97,0.12,-3.2,1403.0,167.22,6.6,8.15
6.75,1762.3600000000001,-18.64,-1.12,-0.04,1403.0,167.65,0.38,8.52
6.76,1762.3600000000001,-18.5,0.68,-0.89,1403.0,167.16,-2.0,10.6
6.77,1766.25,-18.9,1.74,-4.97,1403.0,166.55,7.15,9.74
6.78,1767.45,-19.29,-0.06,-7.44,1403.0,166.98,12.89,8.03
6.79,1770.45,-18.33,-1.35,-1.91,1403.0,166.79,2.27,9.99
6.8,1773.74,-18.32,-0.18,-1.19,1403.0,164.84,-2.8,10.6
6.81,1775.0400000000002,-18.83,-0.56,-6.05,1403.0,165.27,3.43,8.22
6.819999999999999,1777.3400000000001,-18.96,-1.45,-6.8,1403.0,165.33,8.31,6.69
6.83,1780.8400000000001,-18.54,-0.44,-3.26,1403.0,166.18,4.16,7.61
6.84,1782.14,-18.36,0.02,-3.08,1403.0,165.63,-2.61,6.26
6.85,1784.3400000000001,-18.3,-0.82,-2.31,1403.0,165.45,-2.55,6.32
6.859999999999999,1787.14,-18.69,0.84,-5.47,1403.0,165.15,6.18,7.73
6.87,1790.5400000000002,-18.74,1.05,-6.49,1403.0,165.02,6.18,6.02
6.88,1791.94,-17.9,-1.19,-1.6,1403.0,165.39,-2.37,5.1
6.89,1795.74,-18.06,-2.22,-0.26,1403.0,164.66,-5.11,5.71
6.8999999999999995,1798.8500000000001,-18.36,-0.52,-2.0,1403.0,164.05,0.01,6.26
6.91,1797.45,-18.08,-1.51,-5.59,1403.0,163.07,5.38,5.84
6.92,1803.45,-18.05,-2.23,-3.34,1403.0,162.58,0.93,6.38
6.93,1803.8600000000001,-17.55,-0.97,0.93,1403.0,161.3,-2.31,9.01
6.9399999999999995,1807.46,-17.73,0.17,-1.82,1403.0,161.18,0.74,10.17
6.95,1810.77,-18.11,1.04,-4.8,1403.0,160.38,4.16,10.41
6.96,1810.97,-17.71,-0.02,-3.67,1403.0,160.51,5.08,10.54
6.97,1816.19,-18.18,0.14,-1.4,1403.0,160.87,3.13,11.45
6.9799999999999995,1818.5,-17.73,0.22,-2.51,1403.0,160.45,2.33,11.21
6.99,1820.3000000000002,-17.71,-0.81,-3.66,1403.0,160.75,3.67,10.11
7.0,1822.01,-18.23,-1.45,-4.71,1403.0,161.3,6.85,10.35
7.01,1823.01,-17.88,-1.19,-2.6,1403.0,161.54,2.39,9.99
7.02,1824.72,-17.74,-1.09,-1.43,1403.0,162.15,-1.45,10.29
7.03,1827.3300000000002,-17.57,-0.61,-2.73,1403.0,163.07,0.38,9.92
7.04,1829.3400000000001,-17.57,1.24,-3.5,1403.0,163.93,1.42,8.83
7.04,1829.3400000000001,-17.57,1.24,-3.5,1403.0,163.93,1.42,8.83
7.05,1832.45,-17.5,-0.02,-2.52,1403.0,164.23,-1.03,6.38
7.06,1834.8700000000001,-17.51,-0.68,-2.19,1403.0,164.54,-1.33,6.26
7.069999999999999,1836.67,-17.5,0.72,-3.29,1403.0,164.96,-0.84,5.35
7.08,1839.39,-17.17,-0.29,-3.58,1403.0,165.76,0.07,3.03
7.09,1842.71,-17.68,-0.91,-2.33,1403.0,165.27,-0.35,2.23
7.1,1842.41,-17.29,-0.39,-1.71,1403.0,165.82,-4.32,1.2
7.109999999999999,1847.13,-17.32,-0.62,0.53,1403.0,164.84,-4.14,1.5
7.12,1848.95,-17.66,-0.61,-4.47,1403.0,164.29,3.98,2.3
7.13,1850.46,-17.36,-0.64,-7.09,1403.0,163.19,5.57,3.46
7.14,1851.97,-17.36,0.26,-2.85,1403.0,163.07,1.97,3.82
7.1499999999999995,1855.69,-17.36,-1.39,-2.87,1677.0,162.77,1.23,5.41
7.1499999999999995,1855.69,-17.36,-1.39,-2.87,1677.0,162.77,1.23,5.41
7.1499999999999995,1855.69,-17.36,-1.39,-2.87,1677.0,162.77,1.23,5.41
7.16,1859.42,-17.48,-1.04,-5.61,1677.0,161.61,2.58,6.81
7.17,1861.13,-17.59,-0.23,-5.92,1677.0,160.51,5.57,8.15
7.18,1863.5500000000002,-17.28,-0.52,-4.57,1677.0,159.77,5.44,9.44
7.1899999999999995,1866.78,-16.39,-0.66,-1.1,1677.0,158.8,-1.27,10.17
7.2,1865.67,-16.63,-0.07,-1.17,1677.0,157.76,-2.43,11.57
7.21,1870.51,-17.23,0.26,-5.43,1677.0,157.21,3.8,11.57
7.22,1874.14,-16.93,-0.2,-4.86,1677.0,156.97,3.92,11.39
7.2299999999999995,1874.5500000000002,-16.76,0.61,-2.0,1677.0,158.0,-2.55,11.94
7.24,1876.16,-17.0,0.57,-0.84,1677.0,158.37,-4.2,10.96
7.25,1879.0900000000001,-16.77,-1.21,-4.29,1677.0,157.7,2.51,10.96
7.26,1880.2,-16.64,-0.18,-5.14,1677.0,157.64,5.81,10.78
7.27,1885.45,-16.95,0.31,-2.62,1677.0,157.7,2.27,9.25
7.28,1885.8500000000001,-16.72,-1.37,-2.21,1677.0,157.21,0.01,7.48
7.29,1888.48,-16.33,-0.05,-5.36,1677.0,158.31,3.86,7.79
7.3,1893.13,-16.63,-0.07,-4.74,1677.0,158.0,5.38,6.26
7.31,1892.42,-15.76,-0.67,0.05,1677.0,158.37,-2.31,5.65
7.319999999999999,1894.5500000000002,-15.94,-0.46,1.06,1677.0,158.31,-7.19,5.59
7.33,1899.5,-16.58,-0.72,-4.8,1677.0,157.94,0.99,5.96
7.34,1901.22,-16.37,0.82,-4.96,1677.0,157.7,6.85,6.14
7.35,1901.8300000000002,-16.35,-0.23,-2.97,1677.0,157.76,1.78,6.38
7.359999999999999,1906.5900000000001,-15.88,-0.49,1.26,1677.0,158.07,-8.47,6.26
7.359999999999999,1906.5900000000001,-15.88,-0.49,1.26,1677.0,158.07,-8.47,6.26
7.37,1908.0,-15.67,-0.66,-0.37,1677.0,157.64,-5.11,6.87
7.38,1907.4,-16.07,0.29,-5.94,1677.0,157.7,4.35,6.26
7.39,1909.72,-16.24,-0.21,-5.04,1677.0,157.27,2.27,5.9
7.3999999999999995,1913.5700000000002,-16.22,-0.06,1.81,1677.0,157.46,-7.98,6.63
7.41,1915.4,-15.95,0.55,0.52,1677.0,157.7,-7.25,6.32
7.42,1915.8000000000002,-15.81,-1.32,-5.33,1677.0,157.21,-0.48,5.29
7.43,1918.74,-15.93,-1.21,-3.23,1677.0,155.56,-0.66,6.75
7.4399999999999995,1923.6100000000001,-15.91,0.65,0.74,1677.0,155.75,-6.21,7.3
7.45,1925.03,-15.96,0.05,-0.28,1677.0,156.05,-8.23,6.87
7.46,1927.97,-15.39,-1.02,-2.8,1677.0,155.2,-5.05,7.36
7.47,1928.98,-15.93,0.98,-2.73,1677.0,155.32,-2.12,9.44
7.4799999999999995,1932.03,-15.68,0.53,-1.78,1677.0,155.44,-1.57,8.28
7.49,1936.19,-15.3,-0.65,-2.1,1677.0,155.69,-2.61,7.48
7.5,1936.8000000000002,-15.28,-1.26,-2.82,1677.0,155.44,-2.06,7.85
7.51,1937.21,-15.5,-0.75,-2.74,1677.0,155.01,1.29,7.18
7.52,1942.5900000000001,-15.01,-1.79,-3.26,1677.0,155.5,-0.17,6.2
7.53,1942.39,-15.38,-1.19,-1.7,1677.0,155.32,-2.92,6.57
7.54,1944.3200000000002,-15.85,0.41,-2.29,1677.0,154.34,-1.09,7.73
7.55,1948.99,-15.74,1.26,-2.12,1677.0,154.71,-0.41,6.75
7.56,1947.5700000000002,-15.87,-1.36,-2.93,1677.0,154.16,-1.21,6.38
7.569999999999999,1951.3300000000002,-15.5,0.08,-1.87,1677.0,153.85,-2.06,8.46
7.58,1954.89,-15.68,1.55,-2.28,1677.0,153.67,0.56,7.54
7.59,1956.52,-15.6,-1.67,-3.74,1677.0,153.73,1.66,5.47
7.6,1957.94,-15.23,-1.42,-2.59,1677.0,153.91,-2.49,6.45
7.609999999999999,1961.71,-15.02,0.64,-1.07,1677.0,153.43,-2.37,7.73
7.62,1963.5400000000002,-15.53,-0.54,-3.96,1677.0,153.18,4.47,6.14
7.63,1962.93,-15.61,-0.99,-4.64,1677.0,152.76,2.03,6.93
7.64,1965.2700000000002,-15.24,0.76,-0.48,1677.0,152.69,-2.55,7.91
7.6499999999999995,1968.1299999999999,-15.42,0.83,0.03,1677.0,152.76,-0.96,7.24
7.66,1972.0000000000002,-15.26,-1.15,-5.01,1677.0,152.63,1.72,6.69
7.67,1972.3,-15.03,-0.58,-5.47,1677.0,151.96,2.88,7.24
7.68,1975.16,-15.05,-0.44,-2.26,1677.0,152.08,2.76,7.3
7.68,1975.16,-15.05,-0.44,-2.26,1677.0,152.08,2.76,7.3
7.6899999999999995,1978.5200000000002,-14.9,-0.57,-0.05,1677.0,152.14,-3.28,6.08
7.7,1981.3799999999999,-15.06,-0.86,-1.22,1677.0,152.08,-4.38,6.32
7.71,1983.3100000000002,-15.53,-0.92,-3.45,1677.0,151.41,1.9,6.26
7.72,1983.8300000000002,-15.06,0.03,-2.92,1677.0,150.86,3.25,6.51
7.7299999999999995,1988.6200000000001,-14.94,0.62,-1.2,1677.0,150.99,-3.22,6.81
7.74,1988.11,-14.59,-0.97,-2.2,1677.0,150.5,-3.1,6.57
7.75,1992.3,-14.67,0.52,-3.69,1677.0,150.68,3.74,7.24
7.76,1994.14,-14.72,-0.27,-4.02,1677.0,150.44,1.97,6.51
7.77,1996.6900000000003,-14.35,-1.36,-0.85,1677.0,150.56,-3.83,5.9
7.78,1997.0000000000002,-14.55,-1.89,-0.93,1677.0,149.7,-2.43,6.08
7.79,1999.0400000000002,-14.76,0.04,-3.93,1677.0,149.64,2.76,7.36
7.8,2003.0200000000002,-14.82,-0.32,-3.84,1677.0,149.76,2.15,6.57
7.81,2005.68,-14.52,-0.04,-0.36,1677.0,150.86,-0.96,6.32
7.819999999999999,2006.7100000000003,-14.34,-0.22,-2.3,1677.0,151.6,-0.23,6.14
7.83,2009.26,-14.85,0.74,-4.28,1677.0,151.72,3.31,5.41
7.84,2011.1000000000001,-14.69,0.6,-2.26,1677.0,152.14,1.72,4.19
7.85,2013.66,-14.29,-0.46,0.0,1677.0,152.63,-2.12,3.76
7.859999999999999,2013.4600000000003,-14.22,0.26,-2.43,1677.0,152.39,-1.76,3.58
7.87,2016.8300000000002,-14.33,-1.12,-4.27,1677.0,151.96,2.58,2.05
7.88,2018.9800000000002,-13.94,-2.15,-2.53,1677.0,151.66,2.09,2.54
7.89,2020.5200000000002,-13.98,-0.51,-0.18,1677.0,151.11,-3.41,4.61
7.8999999999999995,2025.03,-14.05,0.11,-0.64,1677.0,151.11,-4.99,3.64
7.91,2026.6700000000003,-14.3,-1.71,-2.44,1677.0,149.76,-0.84,3.21
7.92,2027.49,-14.5,-0.32,-4.13,1677.0,149.76,2.03,6.02
7.93,2029.64,-14.17,2.36,-1.21,1677.0,149.7,-3.28,6.02
7.9399999999999995,2032.61,-13.94,-1.9,0.3,1677.0,149.7,-4.81,3.7
7.95,2034.05,-13.95,-2.02,-1.67,1677.0,148.97,-2.73,6.45
7.96,2036.41,-14.13,0.97,-3.16,1677.0,148.36,-2.12,7.67
7.97,2038.1499999999999,-14.05,-0.1,-2.46,1677.0,148.24,-0.96,4.86
7.9799999999999995,2042.8700000000001,-13.88,-2.26,-1.83,1677.0,147.99,-2.37,5.71
7.99,2043.0800000000002,-13.59,1.03,-2.26,1677.0,147.51,-3.34,8.03
8.0,2045.1299999999999,-13.7,1.47,-2.94,1677.0,147.32,-1.57,6.14
8.0,2045.1299999999999,-13.7,1.47,-2.94,1677.0,147.32,-1.57,6.14
8.01,2048.52,-13.74,-1.46,-3.72,1677.0,146.9,2.21,4.92
8.02,2048.93,-14.19,-0.89,-3.49,1677.0,146.9,0.93,7.3
8.030000000000001,2052.0099999999998,-13.93,1.19,-0.64,1677.0,146.53,-2.43,6.69
8.040000000000001,2052.73,-13.69,-1.49,-1.02,1677.0,146.35,-1.45,4.68
8.05,2055.19,-13.5,-1.74,-2.29,1677.0,146.47,0.5,6.02
8.06,2059.5099999999998,-13.6,0.17,-1.99,1677.0,145.43,0.07,6.57
8.07,2060.33,-13.67,0.48,-0.63,1677.0,145.61,0.44,4.86
8.08,2063.3199999999997,-13.11,-0.54,-2.45,1677.0,145.06,1.54,5.16
8.09,2064.3399999999997,-13.12,0.39,-3.08,1677.0,144.39,1.42,5.96
8.1,2065.27,-13.69,1.0,-1.95,1677.0,144.39,2.03,5.16
8.11,2070.31,-13.54,-1.18,-1.81,1677.0,144.03,3.06,3.94
8.120000000000001,2070.93,-13.54,-1.76,-2.38,1677.0,144.64,1.6,4.98
8.13,2073.71,-13.77,0.21,-1.64,1677.0,143.66,1.54,5.16
8.14,2073.81,-13.37,-0.62,-1.51,1677.0,144.27,3.43,4.0
8.15,2076.5899999999997,-13.51,-1.22,-1.86,1921.0,143.84,0.93,4.68
8.15,2076.5899999999997,-13.51,-1.22,-1.86,1921.0,143.84,0.93,4.68
8.15,2076.5899999999997,-13.51,-1.22,-1.86,1921.0,143.84,0.93,4.68
8.16,2078.6499999999996,-13.44,0.02,-0.47,1921.0,143.29,-2.12,5.71
8.17,2082.46,-13.36,-0.22,-2.81,1921.0,143.11,3.31,4.86
8.18,2082.46,-13.32,-0.6,-4.0,1921.0,142.75,4.65,5.53
8.19,2085.7599999999998,-13.2,-0.01,-1.02,1921.0,142.75,-2.31,6.14
8.200000000000001,2087.5099999999998,-13.17,0.24,1.13,1921.0,142.93,-4.02,5.53
8.21,2088.6499999999996,-12.88,-0.71,-3.18,1921.0,142.81,1.23,5.29
8.22,2089.68,-13.05,-0.37,-4.4,1921.0,142.38,2.03,5.77
8.23,2093.39,-13.47,-0.15,-1.13,1921.0,142.81,-2.25,5.35
8.24,2096.2799999999997,-13.01,-1.7,-0.79,1921.0,142.56,-2.25,4.8
8.25,2096.7999999999997,-12.91,-0.99,-3.94,1921.0,142.01,0.62,4.92
8.26,2099.79,-13.13,-0.82,-3.98,1921.0,141.89,-0.29,5.16
8.27,2101.8599999999997,-12.91,-0.73,-0.24,1921.0,141.59,-2.49,4.37
8.280000000000001,2104.02,-13.09,-0.61,-1.72,1921.0,141.65,-1.88,5.04
8.290000000000001,2106.0899999999997,-13.16,0.1,-3.16,1921.0,141.34,-1.39,5.29
8.3,2108.7799999999997,-13.35,0.08,-3.69,1921.0,140.79,2.76,5.16
8.31,2110.33,-12.95,0.31,-3.27,1921.0,140.73,2.15,5.53
8.32,2111.5699999999997,-13.11,-0.15,-3.15,1921.0,140.49,-1.82,5.29
8.32,2111.5699999999997,-13.11,-0.15,-3.15,1921.0,140.49,-1.82,5.29
8.33,2114.87,-13.25,-0.28,-1.24,1921.0,140.55,-0.96,5.04
8.34,2115.7,-12.91,-0.96,-3.92,1921.0,140.24,3.13,5.35
8.350000000000001,2119.1099999999997,-12.52,0.0,-2.41,1921.0,139.88,0.01,4.68
8.360000000000001,2121.6,-12.83,-0.07,-0.72,1921.0,140.36,-2.31,5.41
8.370000000000001,2123.46,-12.74,-0.6,-0.92,1921.0,139.69,-0.6,5.47
8.38,2124.6,-13.14,-0.12,-4.11,1921.0,139.39,3.19,5.9
8.39,2127.08,-13.13,0.05,-3.17,1921.0,139.45,2.64,5.84
8.4,2129.1499999999996,-12.62,-0.65,-0.95,1921.0,139.45,0.87,5.41
8.41,2131.74,-12.64,-0.97,-2.06,1921.0,139.27,0.93,5.65
8.42,2132.8799999999997,-12.77,-0.05,-2.76,1921.0,139.02,1.6,5.96
8.430000000000001,2133.71,-12.4,0.19,-2.75,1921.0,139.14,2.94,5.1
8.440000000000001,2135.99,-12.24,-1.02,-1.28,1921.0,138.9,0.44,5.41
8.450000000000001,2138.47,-12.33,-0.14,-0.55,1921.0,138.9,-2.55,6.02
8.46,2141.89,-12.26,0.42,-2.16,1921.0,138.66,0.5,5.1
8.47,2142.62,-12.43,-1.29,-3.94,1921.0,138.84,4.59,4.92
8.48,2143.8599999999997,-12.28,-0.5,-3.06,1921.0,138.35,2.58,5.65
8.49,2147.39,-12.31,1.05,-0.53,1921.0,138.66,-2.31,5.65
8.5,2149.2599999999998,-12.38,-0.42,-2.22,1921.0,138.78,0.07,4.68
8.510000000000002,2150.92,-12.52,-0.88,-3.02,1921.0,138.59,3.49,4.86
8.520000000000001,2152.68,-12.38,0.52,-2.35,1921.0,138.47,1.05,4.98
8.530000000000001,2153.93,-12.25,0.59,-0.49,1921.0,138.72,-2.31,4.43
8.540000000000001,2157.46,-11.87,-0.06,-0.9,1921.0,138.59,-2.8,3.58
8.55,2158.18,-12.14,-0.64,-3.36,1921.0,138.23,0.93,4.43
8.56,2161.71,-12.53,0.19,-3.09,1921.0,138.41,3.86,4.0
8.57,2160.5699999999997,-12.06,-0.81,-1.73,1921.0,138.35,0.01,3.76
8.58,2163.79,-12.03,-0.93,-1.82,1921.0,138.23,-1.94,3.76
8.59,2165.56,-12.26,-0.24,-2.83,1921.0,137.68,0.68,4.31
8.600000000000001,2170.44,-12.37,0.04,-3.16,1921.0,137.56,2.45,3.76
8.610000000000001,2171.79,-12.12,-0.14,-2.26,1921.0,137.37,-0.23,4.07
8.620000000000001,2172.83,-11.93,-0.11,-0.59,1921.0,136.82,-2.43,4.61
8.63,2175.12,-11.82,0.12,-0.8,1921.0,137.07,-1.15,3.58
8.64,2175.95,-11.67,-1.13,-2.83,1921.0,136.76,0.62,3.39
8.64,2175.95,-11.67,-1.13,-2.83,1921.0,136.76,0.62,3.39
8.65,2180.0099999999998,-11.78,-0.33,-1.97,1921.0,136.09,0.5,4.74
8.66,2181.99,-11.25,-0.27,-0.79,1921.0,135.97,-0.41,4.37
8.67,2182.5099999999998,-11.93,-0.58,-2.49,1921.0,135.6,0.13,4.0
8.680000000000001,2185.8399999999997,-11.85,-1.11,-3.09,1921.0,134.93,1.42,4.43
8.690000000000001,2187.92,-11.64,0.45,-1.18,1921.0,134.75,0.44,5.47
8.700000000000001,2190.5299999999997,-11.5,0.09,-0.62,1921.0,134.08,-2.61,5.65
8.71,2192.72,-11.5,0.04,-1.99,1921.0,133.96,-1.64,5.47
8.72,2195.1099999999997,-11.69,-0.05,-3.25,1921.0,133.71,2.76,6.08
8.73,2195.0099999999998,-11.75,0.2,-2.26,1921.0,133.41,2.94,5.96
8.74,2195.74,-11.46,0.0,0.12,1921.0,133.53,-3.53,6.02
8.75,2198.7599999999998,-11.75,-0.69,-0.92,1921.0,133.41,-2.61,5.77
8.760000000000002,2200.74,-12.01,-0.16,-4.31,1921.0,132.67,5.02,6.26
8.770000000000001,2204.29,-11.93,-0.54,-4.86,1921.0,132.67,6.12,5.53
