time,baro_altitude,accl_x,accl_y,accl_z,gps_altitude,gyro_roll,gyro_pitch,gyro_yaw
0.0,0.0,9.75,0.17,-0.18,0.0,0.01,0.0,-0.08
0.010000000000000009,-0.34000000000003183,9.83,0.19,-0.06,0.0,-0.05,0.06,0.05
0.019999999999999962,-0.4300000000000068,9.74,0.14,-0.1,0.0,0.07,-0.06,-0.08
0.02999999999999997,0.4300000000000068,9.8,0.18,-0.14,0.0,0.01,0.0,0.05
0.03999999999999998,-0.5200000000000387,9.87,0.19,-0.09,0.0,0.07,-0.12,-0.08
0.04999999999999999,0.07999999999998408,9.32,0.54,-0.11,0.0,-0.18,-0.06,0.11
0.06,0.16999999999995907,9.42,-0.14,0.0,0.0,0.01,0.0,0.05
0.06999999999999998,-0.4300000000000068,9.84,0.26,-0.31,0.0,0.19,0.06,0.05
0.07999999999999999,-0.09000000000003183,10.19,0.07,-0.36,0.0,0.01,0.06,0.05
0.09,-0.2599999999999909,9.58,0.06,-0.14,0.0,-0.24,0.0,-0.01
0.09999999999999998,0.339999999999975,9.6,0.11,-0.24,0.0,0.01,-0.06,-0.08
0.10999999999999999,-0.5200000000000387,9.91,0.52,0.07,0.0,0.13,-0.12,0.17
0.12,-0.8600000000000136,9.83,0.31,-0.07,0.0,0.01,0.0,0.05
0.12999999999999998,-0.09000000000003183,9.76,0.11,0.06,0.0,0.13,-0.06,-0.08
0.13999999999999999,-0.09000000000003183,9.76,0.26,-0.22,0.0,-0.54,0.0,-0.01
0.15,-0.6899999999999977,9.83,0.3,-0.11,0.0,-0.18,0.06,-0.01
0.15999999999999998,-0.2599999999999909,9.77,-0.12,-0.07,0.0,0.13,0.0,-0.08
0.16999999999999998,-0.17000000000001592,9.77,-0.13,0.01,0.0,-0.11,-0.06,0.05
0.18,-0.34000000000003183,9.96,0.23,-0.11,0.0,-0.18,0.0,-0.01
0.19,0.07999999999998408,9.88,0.26,0.07,0.0,-0.48,0.0,-0.01
0.19999999999999998,-0.9499999999999886,10.75,0.34,-0.23,0.0,-0.24,-0.12,-0.01
0.21,-4.550000000000011,61.57,-1.57,1.06,0.0,-0.3,0.0,0.17
0.21999999999999997,-0.9499999999999886,88.52,3.65,-0.82,0.0,3.79,0.37,-2.09
0.22999999999999998,-0.9499999999999886,67.52,6.11,-6.5,0.0,4.59,1.65,1.63
0.24,-0.7700000000000387,65.99,0.28,-3.67,0.0,2.75,-4.64,2.67
0.25,-0.6000000000000227,75.16,-0.19,-2.34,0.0,5.5,0.85,0.84
0.26,-0.17000000000001592,36.4,1.2,-0.19,0.0,7.33,-0.37,1.51
0.27,-0.8600000000000136,84.83,2.69,2.16,0.0,16.55,4.7,0.84
0.27999999999999997,-0.34000000000003183,62.69,-2.28,4.19,0.0,8.74,1.59,-0.44
0.29,0.0,87.17,-0.16,2.49,0.0,10.32,1.53,-2.76
0.3,-0.34000000000003183,54.02,1.77,-3.78,0.0,5.62,1.04,-1.85
0.3,-0.34000000000003183,54.02,1.77,-3.78,0.0,5.62,1.04,-1.85
0.3,-0.34000000000003183,54.02,1.77,-3.78,0.0,5.62,1.04,-1.85
0.3,-0.34000000000003183,54.02,1.77,-3.78,0.0,5.62,1.04,-1.85
0.3,-0.34000000000003183,54.02,1.77,-3.78,0.0,5.62,1.04,-1.85
0.3,-0.34000000000003183,54.02,1.77,-3.78,0.0,5.62,1.04,-1.85
0.3,-0.34000000000003183,54.02,1.77,-3.78,0.0,5.62,1.04,-1.85
0.3,-0.34000000000003183,54.02,1.77,-3.78,0.0,5.62,1.04,-1.85
0.3,-0.34000000000003183,54.02,1.77,-3.78,0.0,5.62,1.04,-1.85
0.3,-0.34000000000003183,54.02,1.77,-3.78,0.0,5.62,1.04,-1.85
0.3,-0.34000000000003183,54.02,1.77,-3.78,0.0,5.62,1.04,-1.85
0.3,-0.34000000000003183,54.02,1.77,-3.78,0.0,5.62,1.04,-1.85
0.3,-0.34000000000003183,54.02,1.77,-3.78,0.0,5.62,1.04,-1.85
0.3,-0.34000000000003183,54.02,1.77,-3.78,0.0,5.62,1.04,-1.85
0.3,-0.34000000000003183,54.02,1.77,-3.78,0.0,5.62,1.04,-1.85
0.3,-0.34000000000003183,54.02,1.77,-3.78,0.0,5.62,1.04,-1.85
0.3,-0.34000000000003183,54.02,1.77,-3.78,0.0,5.62,1.04,-1.85
0.3,-0.34000000000003183,54.02,1.77,-3.78,0.0,5.62,1.04,-1.85
0.3,-0.34000000000003183,54.02,1.77,-3.78,0.0,5.62,1.04,-1.85
0.3,-0.34000000000003183,54.02,1.77,-3.78,0.0,5.62,1.04,-1.85
0.3,-0.34000000000003183,54.02,1.77,-3.78,0.0,5.62,1.04,-1.85
0.3,-0.34000000000003183,54.02,1.77,-3.78,0.0,5.62,1.04,-1.85
0.3,-0.34000000000003183,54.02,1.77,-3.78,0.0,5.62,1.04,-1.85
0.3,-0.34000000000003183,54.02,1.77,-3.78,0.0,5.62,1.04,-1.85
0.3,-0.34000000000003183,54.02,1.77,-3.78,0.0,5.62,1.04,-1.85
0.3,-0.34000000000003183,54.02,1.77,-3.78,0.0,5.62,1.04,-1.85
0.3,-0.34000000000003183,54.02,1.77,-3.78,0.0,5.62,1.04,-1.85
0.3,-0.34000000000003183,54.02,1.77,-3.78,0.0,5.62,1.04,-1.85
0.3,-0.34000000000003183,54.02,1.77,-3.78,0.0,5.62,1.04,-1.85
0.3,-0.34000000000003183,54.02,1.77,-3.78,0.0,5.62,1.04,-1.85
0.3,-0.34000000000003183,54.02,1.77,-3.78,0.0,5.62,1.04,-1.85
0.3,-0.34000000000003183,54.02,1.77,-3.78,0.0,5.62,1.04,-1.85
0.3,-0.34000000000003183,54.02,1.77,-3.78,0.0,5.62,1.04,-1.85
0.31,-0.6000000000000227,85.05,0.87,-0.82,0.0,11.73,5.62,2.67
0.31,-0.6000000000000227,85.05,0.87,-0.82,0.0,11.73,5.62,2.67
0.32,-0.7700000000000387,85.84,1.15,2.27,0.0,7.82,0.67,0.78
0.32,-0.7700000000000387,85.84,1.15,2.27,0.0,7.82,0.67,0.78
0.32999999999999996,0.339999999999975,59.43,0.79,-3.71,0.0,14.29,3.42,2.06
0.33999999999999997,0.0,87.67,0.41,4.24,0.0,15.21,3.36,2.49
0.35,0.8600000000000136,88.71,-2.9,0.14,0.0,13.74,-1.95,1.45
0.36,1.2899999999999636,91.71,2.95,-4.93,0.0,16.3,2.2,1.76
0.37,-0.2599999999999909,89.85,1.13,1.97,0.0,16.79,4.46,3.53
0.38,-2.150000000000034,88.69,-0.31,-2.31,0.0,16.18,0.98,-0.01
0.39,0.8600000000000136,91.65,0.2,-5.05,0.0,16.91,1.65,1.27
0.4,-0.5200000000000387,90.88,6.75,-4.12,0.0,20.15,3.3,2.98
0.41,-0.17000000000001592,90.6,-0.23,-3.12,0.0,49.2,1.95,5.78
0.42,-0.2599999999999909,91.79,3.65,-3.42,0.0,49.81,3.05,4.69
0.43,1.7199999999999704,91.95,-3.62,1.86,0.0,53.54,2.75,4.75
0.44,2.659999999999968,90.93,-0.37,-4.97,0.0,54.76,3.42,3.95
0.44999999999999996,2.2299999999999613,90.28,-1.79,2.46,0.0,53.78,2.5,1.88
0.45999999999999996,0.16999999999995907,90.61,0.74,0.69,0.0,54.57,1.47,-0.26
0.47,2.829999999999984,90.14,-0.91,-1.34,0.0,55.0,1.22,-1.36
0.48,1.2899999999999636,90.0,-0.83,-2.62,0.0,56.34,2.2,1.02
0.49,2.829999999999984,89.1,2.9,-4.81,0.0,57.81,1.83,1.08
0.5,1.9699999999999704,90.86,3.02,-1.85,0.0,60.01,2.01,1.14
0.51,2.490000000000009,90.67,3.4,-4.46,0.0,61.9,1.47,0.9
0.52,3.430000000000007,91.88,0.82,0.3,0.0,63.73,1.22,0.11
0.53,4.289999999999964,90.73,1.7,-3.6,0.0,66.05,0.79,0.11
0.54,3.7799999999999727,89.96,1.28,-2.16,0.0,67.82,1.83,1.14
0.55,4.3799999999999955,90.9,-0.2,-1.94,0.0,68.8,2.2,1.88
0.56,4.039999999999964,91.65,2.11,-2.78,0.0,70.44,3.17,2.67
0.5700000000000001,4.810000000000002,91.26,1.75,-1.34,0.0,72.76,2.93,3.34
0.5800000000000001,4.979999999999961,90.19,1.3,-3.84,0.0,74.66,2.44,3.34
0.59,5.240000000000009,90.12,1.75,-3.93,0.0,76.85,1.89,3.22
0.6,5.75,90.73,1.2,-3.37,0.0,78.26,1.77,2.43
0.61,5.839999999999975,90.69,1.36,-0.54,0.0,78.87,1.59,2.37
0.62,7.389999999999986,90.12,1.54,-1.34,0.0,79.97,1.95,3.22
0.63,7.560000000000002,90.34,1.11,-0.38,0.0,81.31,2.69,4.56
0.64,6.360000000000014,90.82,1.76,-3.65,0.0,81.98,3.24,5.23
0.64,6.360000000000014,90.82,1.76,-3.65,0.0,81.98,3.24,5.23
0.6499999999999999,7.1299999999999955,90.48,1.63,-3.38,0.0,83.99,3.85,5.72
0.6599999999999999,8.680000000000007,90.75,1.53,-2.19,0.0,85.15,3.72,5.72
0.6699999999999999,8.680000000000007,90.24,0.82,-3.46,0.0,87.6,3.48,6.03
0.6799999999999999,7.560000000000002,89.67,1.3,-2.6,0.0,90.4,2.87,6.52
0.69,8.680000000000007,89.16,1.44,-3.06,0.0,93.33,2.44,7.25
0.7,9.449999999999989,90.53,1.07,-2.44,0.0,96.08,2.87,8.35
0.71,9.879999999999995,91.84,1.25,-1.15,0.0,96.93,3.11,9.2
0.72,9.279999999999973,91.47,1.48,-0.22,0.0,98.03,3.6,9.87
0.73,9.879999999999995,91.12,1.51,-1.91,0.0,98.7,3.97,10.12
0.74,10.139999999999986,90.09,1.32,-3.96,0.0,100.17,3.85,10.36
0.75,11.599999999999966,90.32,1.27,-0.56,0.0,101.7,3.72,10.85
0.76,11.680000000000007,91.13,1.01,-3.92,0.0,104.99,3.11,12.07
0.77,12.370000000000005,90.78,1.25,-2.79,0.0,105.78,3.3,12.44
0.78,13.149999999999977,91.24,1.0,-2.15,0.0,108.84,3.36,13.35
0.79,12.889999999999986,90.93,1.09,-2.48,0.0,111.64,3.17,13.78
0.8,12.800000000000011,91.4,1.06,-3.78,0.0,114.33,3.05,13.9
0.81,14.089999999999975,91.77,0.94,-4.63,0.0,116.04,2.14,14.27
0.8200000000000001,13.399999999999977,91.2,0.95,-2.93,0.0,118.91,1.95,14.94
0.8300000000000001,15.379999999999995,91.99,1.26,-1.57,0.0,120.98,1.95,15.67
0.8400000000000001,16.069999999999993,92.41,0.94,-0.58,0.0,123.06,1.71,16.71
0.8500000000000001,15.379999999999995,91.54,0.81,-3.66,0.0,124.71,2.01,16.95
0.8600000000000001,16.329999999999984,92.11,1.12,-3.4,0.0,126.35,1.77,17.2
0.8699999999999999,17.269999999999982,91.85,0.87,-2.95,0.0,128.8,0.55,17.2
0.8799999999999999,17.189999999999998,91.1,0.85,-2.22,0.0,129.77,0.0,17.56
0.8899999999999999,18.560000000000002,91.85,0.89,-0.69,0.0,132.09,-0.37,18.11
0.8999999999999999,18.389999999999986,91.49,0.66,-2.2,0.0,133.74,-0.55,18.72
0.9099999999999999,18.05000000000001,91.49,0.79,-2.84,0.0,135.14,-0.24,19.27
0.9199999999999999,19.079999999999984,92.03,0.56,-2.6,0.0,136.18,-0.37,19.39
0.9299999999999999,21.399999999999977,91.67,0.81,-3.26,0.0,137.46,-0.79,19.64
0.94,21.139999999999986,91.8,0.57,-2.7,0.0,139.78,-1.46,19.58
0.95,22.439999999999998,91.89,0.17,-3.43,0.0,142.04,-2.56,19.82
0.96,22.870000000000005,91.19,0.52,-3.17,0.0,144.36,-3.05,20.25
0.96,22.870000000000005,91.19,0.52,-3.17,0.0,144.36,-3.05,20.25
0.97,22.519999999999982,91.78,-0.13,-5.7,0.0,145.28,-3.3,20.74
0.98,22.519999999999982,91.79,-0.09,-2.03,0.0,146.13,-3.42,21.47
0.99,23.120000000000005,91.35,-0.3,-2.32,0.0,146.74,-3.3,21.53
1.0,24.66999999999996,92.06,-0.62,-4.28,0.0,147.84,-3.66,21.59
1.01,24.930000000000007,92.18,0.11,-3.12,0.0,148.94,-4.15,21.78
1.02,25.099999999999966,92.33,-0.62,-2.56,0.0,149.67,-4.46,21.65
1.03,26.47999999999996,91.74,-0.31,-3.68,0.0,150.46,-4.21,21.53
1.04,26.389999999999986,92.32,-0.32,-2.42,0.0,150.71,-3.85,21.65
1.05,27.0,92.45,-0.5,-4.58,0.0,151.81,-3.97,21.84
1.06,28.45999999999998,91.5,-0.45,-3.75,0.0,152.91,-4.27,21.9
1.07,28.97999999999996,91.6,-0.69,-3.03,0.0,153.52,-4.82,22.02
1.08,30.180000000000007,92.14,-0.83,-1.96,0.0,153.64,-4.88,21.84
1.09,30.95999999999998,92.29,-1.01,-3.58,0.0,153.03,-4.33,21.53
1.1,30.870000000000005,92.47,-1.35,-2.01,0.0,153.15,-4.03,21.53
1.11,31.72999999999996,92.21,-1.14,-2.32,0.0,153.09,-3.72,21.59
1.1199999999999999,31.99000000000001,91.88,-1.11,-2.86,0.0,153.03,-3.66,22.08
1.13,33.539999999999964,92.21,-1.87,-1.63,0.0,153.27,-3.66,22.32
1.14,34.06,92.63,-1.5,-4.35,0.0,153.27,-3.54,22.45
1.15,34.22999999999996,92.22,-1.78,-2.19,0.0,152.84,-3.3,23.06
1.16,34.65999999999997,92.64,-2.06,-1.77,0.0,151.62,-2.75,23.12
1.17,35.44,92.64,-1.85,-2.78,0.0,149.67,-1.59,23.3
1.18,36.81999999999999,93.14,-1.8,-1.81,0.0,148.08,-1.16,23.42
1.19,37.75999999999999,91.97,-1.94,-1.04,0.0,146.98,-1.1,23.48
1.2,38.27999999999997,92.88,-2.26,-4.32,0.0,144.67,-1.46,23.61
1.21,38.539999999999964,93.19,-2.78,-2.88,0.0,144.42,-1.1,23.79
1.22,39.91999999999996,93.04,-2.38,-1.3,0.0,142.47,-0.98,23.42
1.23,40.349999999999966,92.68,-3.01,-3.31,0.0,141.19,-0.37,23.48
1.24,41.30000000000001,92.38,-2.76,-2.54,0.0,139.29,0.31,23.61
1.25,41.99000000000001,92.34,-2.73,-5.54,0.0,136.18,0.67,24.4
1.26,42.25,92.11,-2.92,-4.28,0.0,134.41,1.22,24.46
1.27,43.01999999999998,93.45,-3.38,-3.05,0.0,131.97,1.65,24.28
1.28,44.22999999999996,92.8,-3.65,-2.83,0.0,128.55,1.53,23.97
1.28,44.22999999999996,92.8,-3.65,-2.83,0.0,128.55,1.53,23.97
1.29,45.00999999999999,92.14,-4.43,-3.73,0.0,123.3,1.34,23.79
1.3,45.44,92.35,-4.23,-4.42,0.0,116.83,2.5,24.22
1.31,46.30000000000001,92.19,-4.64,-3.22,0.0,104.26,4.46,24.83
1.32,48.110000000000014,93.05,-4.68,-4.35,0.0,100.29,5.31,25.01
1.33,48.45999999999998,93.45,-5.17,-3.32,0.0,91.26,6.65,25.86
1.34,51.05000000000001,91.76,-6.49,-4.0,0.0,81.74,6.9,25.99
1.35,50.69999999999999,92.36,-5.27,-5.52,0.0,71.91,6.71,25.56
1.36,51.30000000000001,92.25,-5.88,-3.72,0.0,64.16,6.35,25.5
1.37,52.339999999999975,92.47,-5.98,-4.21,0.0,60.19,6.53,25.56
1.3800000000000001,53.02999999999997,92.65,-6.42,-5.54,0.0,58.3,7.39,26.05
1.3900000000000001,54.579999999999984,93.88,-6.91,-3.64,0.0,57.99,8.79,26.84
1.4000000000000001,54.93000000000001,92.21,-7.48,-2.98,0.0,57.93,9.58,27.88
1.4100000000000001,55.96999999999997,91.72,-7.5,-6.11,0.0,56.41,10.8,28.55
1.4200000000000002,57.0,91.85,-6.94,-4.36,0.0,57.93,10.5,28.37
1.43,57.43000000000001,92.07,-7.63,-4.36,0.0,57.87,10.86,28.18
1.44,58.639999999999986,91.34,-8.35,-4.94,0.0,58.48,10.5,27.51
1.45,60.01999999999998,92.57,-8.18,-4.03,0.0,60.43,10.86,27.27
1.46,60.01999999999998,92.32,-8.77,-3.55,0.0,63.0,10.86,27.21
1.47,61.75,92.28,-9.07,-4.09,0.0,64.46,11.35,27.82
1.48,63.21999999999997,92.47,-9.5,-4.04,0.0,65.26,11.54,28.06
1.49,64.25999999999999,91.9,-9.68,-4.23,0.0,66.78,11.72,27.82
1.5,65.12,92.76,-9.57,-4.23,0.0,68.74,11.72,27.27
1.51,65.63999999999999,92.42,-9.89,-3.54,0.0,69.59,11.11,25.86
1.52,65.99000000000001,91.89,-11.03,-3.28,0.0,68.98,10.56,24.58
1.53,67.11000000000001,92.53,-11.6,-3.46,0.0,65.87,10.32,23.06
1.54,67.44999999999999,92.52,-12.01,-2.32,0.0,64.52,10.19,22.45
1.55,68.75,92.83,-12.47,-2.08,0.0,62.02,10.99,21.84
1.56,70.05000000000001,92.89,-13.64,-1.92,0.0,63.3,11.96,21.35
1.57,70.74000000000001,94.13,-13.39,-2.03,0.0,61.47,13.0,20.55
1.58,72.03999999999996,92.74,-12.66,-3.05,0.0,63.0,11.41,18.85
1.59,72.82,92.23,-11.48,-3.27,0.0,63.79,11.48,17.69
1.6,73.50999999999999,92.96,-13.03,-1.82,0.0,64.22,9.89,15.73
1.6,73.50999999999999,92.96,-13.03,-1.82,0.0,64.22,9.89,15.73
1.61,75.14999999999998,92.23,-12.84,-2.95,0.0,62.39,9.4,13.72
1.62,75.66999999999996,92.83,-11.7,-2.78,0.0,59.34,9.89,12.25
1.6300000000000001,76.78999999999996,93.16,-13.84,-2.53,0.0,58.73,11.29,11.28
1.6400000000000001,78.44,92.51,-13.91,-1.29,0.0,59.34,12.02,10.97
1.6500000000000001,78.61000000000001,92.62,-14.3,-2.08,0.0,55.18,10.86,9.63
1.6600000000000001,79.38999999999999,92.37,-14.36,-2.66,0.0,53.29,10.38,8.16
1.6700000000000002,80.69,92.08,-13.18,-3.66,0.0,49.08,10.32,6.82
1.68,82.07,92.7,-12.77,-4.56,0.0,44.81,9.16,4.99
1.69,83.63,92.27,-11.66,-4.19,0.0,40.11,9.64,3.89
1.7,84.57999999999998,92.42,-12.66,-1.68,0.0,35.84,11.17,3.59
1.71,85.70999999999998,93.1,-13.24,-1.25,0.0,32.78,11.23,2.79
1.72,86.31,92.44,-12.68,-2.41,0.0,33.94,11.11,1.82
1.73,87.69999999999999,92.12,-12.62,-2.09,0.0,36.08,10.25,1.39
1.74,88.82999999999998,93.18,-13.22,-1.41,0.0,39.13,9.34,-0.75
1.75,90.38,92.22,-13.24,-1.24,0.0,44.56,8.0,-2.33
1.76,91.86000000000001,91.3,-12.97,-1.75,0.0,45.79,7.69,-2.46
1.77,92.81,92.72,-13.18,-0.94,0.0,49.94,9.03,-2.64
1.78,93.84999999999997,91.95,-11.19,-1.73,0.0,53.78,9.22,-2.33
1.79,94.88999999999999,91.03,-11.09,-2.59,0.0,60.01,9.83,-3.13
1.8,96.36000000000001,91.79,-10.48,-1.82,0.0,68.61,11.05,-3.07
1.81,97.75,91.64,-11.58,-1.83,0.0,73.13,9.52,-4.53
1.82,98.69999999999999,91.35,-11.94,-0.81,0.0,79.6,8.97,-5.39
1.83,100.69999999999999,90.58,-11.9,-0.04,0.0,85.22,7.69,-6.18
1.84,101.64999999999998,89.81,-11.42,0.04,0.0,93.52,9.16,-6.61
1.85,103.30000000000001,90.33,-10.85,-0.18,0.0,101.57,9.09,-6.3
1.86,103.56,90.06,-10.23,-2.36,0.0,112.25,10.5,-6.85
1.87,104.94999999999999,89.71,-10.41,-1.07,0.0,116.04,10.86,-6.97
1.8800000000000001,106.59999999999997,88.55,-10.07,-1.52,0.0,125.44,11.23,-7.46
1.8900000000000001,107.45999999999998,89.0,-9.96,-1.64,0.0,132.58,11.05,-7.77
1.9000000000000001,109.19999999999999,88.29,-9.86,-2.75,0.0,140.03,11.48,-8.01
1.9100000000000001,110.07,87.54,-9.54,-2.23,0.0,145.15,10.44,-7.95
1.9200000000000002,111.01999999999998,87.04,-9.66,-1.59,0.0,150.52,11.17,-8.44
1.9200000000000002,111.01999999999998,87.04,-9.66,-1.59,0.0,150.52,11.17,-8.44
1.93,112.57999999999998,87.83,-7.46,-1.74,0.0,155.04,12.51,-7.89
1.94,113.37,87.77,-7.82,-3.5,0.0,160.11,14.4,-7.71
1.95,114.75999999999999,87.59,-7.81,-0.62,0.0,165.54,14.4,-7.16
1.96,115.96999999999997,87.56,-7.93,-2.22,0.0,168.1,14.59,-7.83
1.97,117.52999999999997,86.02,-8.24,-1.3,0.0,174.76,14.65,-7.64
1.98,118.49000000000001,85.88,-8.42,-1.09,0.0,175.0,14.4,-7.89
1.99,120.13999999999999,85.79,-8.25,-0.73,0.0,176.1,14.95,-8.38
2.0,121.00999999999999,86.53,-8.06,-1.6,0.0,178.78,15.93,-6.79
2.01,123.00999999999999,86.48,-8.8,-2.37,0.0,181.9,16.79,-5.63
2.02,124.21999999999997,85.14,-7.2,-1.84,0.0,183.97,18.13,-5.14
2.03,125.52999999999997,84.46,-6.58,-0.74,0.0,186.11,17.09,-5.33
2.04,126.47999999999996,84.01,-7.36,-1.27,0.0,190.26,17.76,-4.78
2.05,128.31,84.51,-7.1,-0.86,0.0,193.01,17.7,-4.9
2.06,129.52999999999997,84.43,-7.64,-1.01,0.0,198.44,19.1,-4.17
2.07,130.21999999999997,83.67,-8.05,-0.55,0.0,200.51,18.13,-4.17
2.08,132.14,83.22,-7.56,-1.88,0.0,207.35,18.92,-1.78
2.09,132.74,82.37,-7.08,-2.17,0.0,208.08,18.86,-2.03
2.1,134.91999999999996,82.06,-7.46,-0.13,0.0,215.77,20.2,0.11
2.11,136.14,83.63,-7.38,-0.67,0.0,216.44,19.65,-0.32
2.12,137.36,81.34,-7.38,0.11,0.0,219.5,18.43,-1.05
2.13,138.49,80.19,-7.25,-0.01,0.0,224.5,18.49,0.41
2.14,140.05,80.35,-8.26,0.33,0.0,228.22,18.8,0.35
2.15,140.57999999999998,80.27,-8.72,0.19,0.0,233.11,19.47,0.96
2.16,143.19,79.66,-8.6,0.34,0.0,238.3,18.31,2.18
2.17,143.62,79.18,-9.34,-0.67,0.0,240.98,17.64,2.49
2.1799999999999997,146.32,78.44,-8.76,0.41,0.0,244.22,17.33,2.12
2.19,147.53999999999996,77.66,-7.33,0.21,0.0,248.92,14.89,2.49
2.1999999999999997,149.27999999999997,77.25,-7.5,0.02,0.0,251.42,15.87,2.55
2.21,150.41999999999996,77.54,-8.69,0.78,0.0,255.26,15.69,2.79
2.2199999999999998,152.41999999999996,77.85,-9.25,1.02,0.0,257.95,14.95,2.98
2.23,153.55,76.61,-10.63,-0.27,0.0,260.94,15.5,3.1
2.2399999999999998,155.38,75.46,-10.83,0.43,0.0,264.54,14.22,3.22
2.2399999999999998,155.38,75.46,-10.83,0.43,0.0,264.54,14.22,3.22
2.25,156.77999999999997,75.9,-10.32,-0.45,0.0,267.53,13.0,2.79
2.26,158.26,75.97,-10.33,-0.25,0.0,269.12,12.57,2.0
2.27,159.91999999999996,75.0,-10.69,-0.57,0.0,271.74,11.23,3.04
2.28,161.49,73.82,-10.19,-0.4,0.0,271.62,11.84,1.63
2.29,163.14999999999998,73.75,-9.75,-1.1,0.0,274.25,12.45,2.61
2.3,163.66999999999996,73.63,-10.0,-2.2,0.0,275.53,11.48,2.43
2.3099999999999996,165.5,73.67,-10.04,-2.25,0.0,275.47,11.66,2.06
2.32,166.81,72.7,-9.25,-2.27,0.0,273.51,11.17,1.39
2.3299999999999996,168.12,73.1,-10.69,-2.14,0.0,270.83,9.58,0.47
2.34,169.95,71.37,-11.16,-1.96,0.0,268.08,10.38,0.29
2.3499999999999996,170.56,71.69,-10.66,-1.92,0.0,266.25,12.02,0.84
2.36,172.21999999999997,72.53,-12.1,-1.43,0.0,262.59,12.33,1.27
2.3699999999999997,173.96999999999997,71.56,-11.71,-3.01,0.0,258.8,13.55,0.96
2.38,175.37,71.23,-11.91,-2.22,0.0,256.91,12.88,2.43
2.3899999999999997,176.84999999999997,70.57,-11.41,-1.83,0.0,248.49,12.15,0.11
2.4,177.89999999999998,70.55,-11.54,-2.35,0.0,244.4,12.76,-0.08
2.4099999999999997,179.46999999999997,69.54,-10.67,-3.96,0.0,234.45,13.86,-0.26
2.42,181.05,69.34,-10.98,-3.17,0.0,234.15,15.14,0.47
2.4299999999999997,182.78999999999996,68.87,-11.18,-2.84,0.0,228.53,15.14,1.21
2.44,184.37,68.66,-10.82,-1.99,0.0,224.32,14.59,1.57
2.4499999999999997,185.94,69.02,-11.1,-3.6,0.0,222.43,16.91,2.24
2.46,187.51,67.72,-11.18,-2.19,0.0,214.25,15.75,0.9
2.4699999999999998,188.74,66.67,-10.74,-2.38,0.0,210.71,15.08,1.08
2.48,189.96000000000004,67.16,-11.92,-1.48,0.0,204.18,16.6,-0.08
2.4899999999999998,192.85000000000002,67.38,-12.4,-1.13,0.0,200.03,16.79,0.17
2.5,194.15999999999997,66.76,-11.27,-2.94,0.0,198.32,17.95,0.53
2.51,195.64999999999998,66.56,-11.12,-3.43,0.0,196.97,17.58,1.57
2.52,197.39999999999998,66.01,-10.11,-1.41,0.0,194.17,17.82,1.63
2.53,199.59000000000003,65.78,-10.48,-2.01,0.0,192.46,18.25,0.78
2.54,200.46000000000004,65.77,-10.57,-1.45,0.0,193.92,19.53,1.51
2.55,202.48000000000002,65.97,-10.31,-2.0,0.0,195.2,19.29,1.82
2.5599999999999996,204.84000000000003,65.46,-10.61,-0.35,0.0,193.43,18.43,1.02
2.5599999999999996,204.84000000000003,65.46,-10.61,-0.35,0.0,193.43,18.43,1.02
2.57,206.33000000000004,66.21,-11.69,-0.84,0.0,192.58,19.1,0.29
2.5799999999999996,208.16999999999996,65.09,-10.91,-0.92,0.0,194.11,19.59,0.6
2.59,209.65999999999997,65.08,-11.21,-1.21,0.0,196.12,19.04,0.66
2.5999999999999996,211.33000000000004,62.31,-11.43,0.52,0.0,200.09,18.62,1.45
2.61,213.08000000000004,58.6,-11.25,-0.93,0.0,201.67,17.58,1.39
2.6199999999999997,214.65999999999997,54.73,-11.17,-0.38,0.0,203.14,19.04,0.29
2.63,216.76,50.39,-11.05,-0.5,0.0,207.35,18.92,0.23
2.6399999999999997,219.48000000000002,48.68,-10.69,-0.47,0.0,204.18,18.07,-1.48
2.65,220.71000000000004,46.35,-11.27,-0.74,0.0,207.17,17.15,-1.17
2.6599999999999997,221.5,44.42,-10.98,0.59,0.0,209.97,18.01,-2.03
2.67,223.42999999999995,42.68,-12.32,-0.6,0.0,213.94,16.91,-1.85
2.6799999999999997,225.17999999999995,40.84,-11.17,0.22,0.0,218.21,16.79,-1.17
2.69,227.54999999999995,38.92,-12.54,1.3,0.0,217.73,16.3,-2.46
2.6999999999999997,228.77999999999997,36.22,-12.11,0.41,0.0,217.54,15.02,-4.04
2.71,230.79999999999995,34.51,-11.05,0.97,0.0,216.14,17.21,-5.81
2.7199999999999998,232.12,32.34,-11.83,0.23,0.0,216.2,16.3,-5.51
2.73,234.23000000000002,31.62,-11.32,0.4,0.0,218.21,15.26,-4.96
2.7399999999999998,236.15999999999997,28.96,-11.51,2.1,0.0,219.56,17.4,-5.81
2.75,237.83000000000004,28.73,-10.85,0.82,0.0,216.02,16.11,-6.24
2.76,239.40999999999997,25.61,-11.01,1.83,0.0,218.7,16.48,-5.94
2.77,240.90999999999997,23.78,-10.41,1.36,0.0,212.11,15.2,-7.16
2.78,242.75,22.05,-9.65,0.63,0.0,207.41,15.56,-7.71
2.79,244.15999999999997,19.9,-9.29,-0.54,0.0,205.21,15.93,-7.58
2.8,246.36,20.13,-10.38,-0.08,0.0,204.48,15.14,-7.22
2.8099999999999996,247.5,19.77,-9.67,2.67,0.0,196.18,15.44,-8.68
2.82,250.23000000000002,21.81,-9.57,1.15,0.0,194.47,17.7,-9.48
2.8299999999999996,251.89999999999998,18.43,-7.75,3.16,0.0,191.3,15.44,-9.05
2.84,253.91999999999996,14.39,-9.45,0.27,0.0,188.92,15.14,-8.01
2.8499999999999996,255.94999999999993,5.23,-8.71,1.24,0.0,178.85,13.18,-8.25
2.86,258.05999999999995,1.7,-8.69,2.82,0.0,174.63,14.59,-8.38
2.8699999999999997,260.09000000000003,-4.01,-9.43,2.63,0.0,169.51,13.73,-6.0
2.88,262.02,-7.37,-8.2,2.22,0.0,156.51,14.16,-8.32
2.88,262.02,-7.37,-8.2,2.22,0.0,156.51,14.16,-8.32
2.8899999999999997,263.52,-7.79,-8.39,2.69,0.0,146.56,14.47,-7.95
2.9,265.02,-8.22,-8.37,3.23,0.0,139.66,13.18,-6.0
2.9099999999999997,267.4,-8.29,-7.64,3.21,0.0,125.44,12.88,-9.84
2.92,269.34000000000003,-8.17,-7.7,4.51,0.0,118.42,13.49,-8.93
2.9299999999999997,271.37,-8.09,-7.24,4.29,0.0,106.94,11.72,-9.72
2.94,273.48,-8.21,-7.1,4.62,0.0,101.7,12.39,-7.83
2.9499999999999997,275.6,-8.11,-6.18,5.24,0.0,89.06,11.9,-8.99
2.9499999999999997,275.6,-8.11,-6.18,5.24,0.0,89.06,11.9,-8.99
2.96,278.15999999999997,-8.17,-5.69,5.49,0.0,78.26,11.48,-8.93
2.9699999999999998,279.48,-8.26,-6.47,5.32,0.0,71.6,10.68,-9.23
2.98,281.86,-8.45,-5.12,5.74,0.0,67.21,10.62,-7.95
2.9899999999999998,283.98,-8.32,-4.85,6.53,0.0,60.07,10.13,-8.5
3.0,285.48,-8.23,-5.88,6.42,0.0,55.37,12.09,-8.19
3.01,287.68999999999994,-8.04,-4.77,7.08,0.0,46.64,10.32,-9.72
3.02,289.28,-8.3,-4.81,6.58,0.0,46.27,11.54,-8.38
3.03,291.4,-8.09,-4.35,6.32,0.0,40.84,10.38,-7.1
3.04,293.78,-8.03,-3.94,6.07,0.0,37.06,11.17,-8.87
3.05,296.42999999999995,-8.26,-3.9,6.81,0.0,36.32,10.19,-7.4
3.0599999999999996,297.93999999999994,-8.03,-2.52,6.25,0.0,33.03,9.4,-7.22
3.07,300.59000000000003,-8.19,-2.35,6.23,0.0,30.83,8.85,-6.06
3.0799999999999996,302.62,-7.69,-2.26,7.09,0.0,30.59,9.09,-5.57
3.09,303.94999999999993,-8.02,-2.63,6.72,0.0,29.49,6.71,-6.06
3.0999999999999996,306.06999999999994,-7.62,-2.4,7.32,0.0,28.27,6.59,-5.14
3.11,308.11,-7.41,-2.24,7.72,0.0,29.0,5.01,-4.65
3.1199999999999997,309.78999999999996,-7.51,-2.22,7.2,0.0,27.66,4.52,-4.59
3.13,311.65,-7.99,-1.28,6.73,0.0,26.68,4.58,-4.84
3.1399999999999997,313.94999999999993,-7.81,-1.74,7.58,0.0,30.28,3.36,-3.01
3.15,315.27,-8.12,-1.27,7.24,0.0,31.62,1.89,-1.78
3.1599999999999997,317.13,-7.74,-2.32,8.11,0.0,32.11,2.99,-2.76
3.17,319.16999999999996,-7.81,-2.08,7.59,0.0,33.82,2.2,-1.48
3.1799999999999997,320.05999999999995,-7.78,-1.54,6.9,0.0,34.98,0.85,-1.11
3.19,321.21000000000004,-7.69,-0.75,6.71,0.0,36.2,2.01,-0.26
3.1999999999999997,323.25,-7.95,-1.85,6.62,0.0,36.69,1.59,0.84
3.1999999999999997,323.25,-7.95,-1.85,6.62,0.0,36.69,1.59,0.84
3.21,325.02,-7.62,-0.76,6.73,0.0,34.43,0.79,0.11
3.2199999999999998,326.53,-7.72,-1.52,5.66,0.0,32.54,-0.67,0.29
3.23,327.86,-7.7,-1.55,7.19,0.0,31.75,-1.1,0.6
3.2399999999999998,328.65,-7.43,-2.59,6.21,0.0,33.03,-0.49,1.94
3.25,330.68999999999994,-7.45,-2.74,6.68,0.0,30.34,-1.65,2.55
3.26,332.02,-8.13,-1.94,6.36,0.0,29.12,-0.73,1.88
3.27,333.43999999999994,-7.83,-1.95,5.19,0.0,26.31,-3.66,2.91
3.28,335.03999999999996,-7.9,-2.05,5.49,0.0,21.92,-2.87,2.37
3.29,336.28,-7.67,-2.74,6.32,0.0,21.74,-1.34,3.89
3.3,337.08000000000004,-7.56,-3.17,5.21,0.0,18.01,-3.54,3.16
3.3099999999999996,339.12,-7.42,-2.54,5.6,0.0,14.17,-4.33,4.26
3.32,340.53999999999996,-7.91,-3.15,5.37,0.0,10.75,-1.4,3.34
3.3299999999999996,341.87,-7.6,-3.36,4.74,0.0,7.58,-2.75,3.46
3.34,343.74,-7.72,-3.09,5.1,0.0,3.67,-3.11,3.53
3.3499999999999996,345.6,-7.73,-4.29,5.65,0.0,2.39,-1.95,4.2
3.36,346.66999999999996,-7.85,-2.81,4.41,0.0,1.41,-1.04,5.23
3.3699999999999997,348.53,-7.81,-3.53,4.81,0.0,-5.61,-0.73,3.95
3.38,349.68999999999994,-7.62,-3.24,4.68,0.0,-10.0,-2.26,3.22
3.3899999999999997,351.64,-7.61,-3.33,4.1,0.0,-12.32,1.4,3.65
3.4,353.67999999999995,-7.67,-4.18,4.98,0.0,-16.05,-0.18,3.89
3.4099999999999997,354.48,-7.25,-3.45,5.68,0.0,-18.91,-1.34,2.98
3.42,355.54999999999995,-7.68,-3.05,3.39,0.0,-22.64,-1.04,2.55
3.4299999999999997,357.59000000000003,-7.35,-2.98,3.82,0.0,-24.35,0.12,3.46
3.44,359.02,-7.57,-3.07,4.4,0.0,-30.27,-1.71,2.67
3.4499999999999997,361.24,-7.96,-2.46,3.69,0.0,-30.57,-1.65,3.4
3.46,362.49,-7.15,-2.81,4.3,0.0,-32.77,1.16,3.34
3.4699999999999998,364.43999999999994,-7.33,-3.88,3.97,0.0,-35.45,-0.12,3.34
3.48,365.33000000000004,-7.42,-3.3,3.76,0.0,-37.35,0.37,2.67
3.4899999999999998,367.38,-7.38,-2.97,3.75,0.0,-39.97,-0.18,3.46
3.5,369.06999999999994,-7.45,-2.48,3.74,0.0,-40.7,1.4,3.65
3.51,370.58000000000004,-7.38,-2.5,4.0,0.0,-42.11,2.01,4.07
3.52,372.36,-7.49,-2.91,4.57,0.0,-42.78,1.04,4.07
3.52,372.36,-7.49,-2.91,4.57,0.0,-42.78,1.04,4.07
3.53,373.97,-7.25,-2.89,4.32,0.0,-45.47,0.24,4.26
3.54,376.18999999999994,-7.16,-2.46,4.24,0.0,-48.64,2.5,3.1
3.55,377.79999999999995,-7.42,-3.28,4.0,0.0,-47.48,2.87,3.04
3.5599999999999996,378.78,-7.33,-3.73,4.52,0.0,-48.33,2.08,3.22
3.57,381.17999999999995,-7.32,-3.25,4.08,0.0,-49.13,2.32,3.16
3.5799999999999996,382.34000000000003,-7.52,-2.61,4.09,0.0,-49.74,2.69,3.34
3.59,384.12,-6.79,-3.39,4.17,0.0,-51.2,0.55,3.28
3.5999999999999996,385.54999999999995,-7.12,-3.33,3.85,0.0,-52.67,1.65,2.43
3.61,387.41999999999996,-7.06,-2.53,4.06,0.0,-52.42,1.77,3.4
3.6199999999999997,388.93999999999994,-7.78,-2.62,4.08,0.0,-53.64,1.1,2.91
3.63,390.27,-7.42,-2.35,3.89,0.0,-53.89,1.95,2.49
3.6399999999999997,392.94999999999993,-7.11,-2.54,3.32,0.0,-55.11,1.22,2.37
3.65,394.19999999999993,-7.09,-2.73,4.69,0.0,-55.05,2.08,2.55
3.6599999999999997,396.34000000000003,-7.44,-2.88,4.11,0.0,-55.35,2.44,2.55
3.67,397.77,-7.48,-2.92,3.96,0.0,-56.27,3.11,2.06
3.6799999999999997,398.92999999999995,-7.18,-3.61,4.14,0.0,-54.62,3.17,2.85
3.69,401.25,-6.96,-3.44,4.03,0.0,-55.41,2.62,2.67
3.6999999999999997,402.40999999999997,-7.06,-2.34,5.25,0.0,-53.95,4.88,3.04
3.71,404.47,-7.07,-2.43,4.35,0.0,-57.55,1.65,1.76
3.7199999999999998,405.63,-6.96,-3.19,4.32,0.0,-53.34,4.03,3.04
3.73,406.69999999999993,-6.81,-2.81,4.7,0.0,-52.79,3.36,3.83
3.7399999999999998,408.75,-6.94,-2.45,4.07,0.0,-54.62,0.79,3.59
3.75,410.72,-7.0,-2.75,4.4,0.0,-52.73,3.91,2.98
3.76,412.33000000000004,-6.75,-2.16,5.43,0.0,-55.29,1.4,3.16
3.77,413.58000000000004,-7.1,-2.55,4.26,0.0,-53.09,3.85,2.85
3.78,415.46000000000004,-6.95,-3.2,4.51,0.0,-54.74,1.53,2.43
3.79,417.25,-6.95,-2.74,4.68,0.0,-50.04,3.91,3.83
3.8,418.59000000000003,-7.02,-2.31,5.0,0.0,-52.12,2.62,3.04
3.8099999999999996,419.92999999999995,-6.46,-2.7,5.4,0.0,-54.13,1.59,1.82
3.82,421.9,-6.97,-1.58,3.99,0.0,-51.14,1.89,2.67
3.8299999999999996,423.94999999999993,-7.11,-2.0,4.4,0.0,-49.25,1.04,3.22
3.84,425.12,-6.58,-2.48,4.32,0.0,-49.25,1.53,2.98
3.84,425.12,-6.58,-2.48,4.32,0.0,-49.25,1.53,2.98
3.8499999999999996,426.54999999999995,-6.97,-2.74,4.99,0.0,-49.25,2.01,2.98
3.86,428.34000000000003,-6.86,-2.56,4.8,0.0,-47.17,2.38,3.46
3.8699999999999997,429.94999999999993,-6.85,-2.33,4.3,0.0,-46.32,2.69,3.53
3.88,431.55999999999995,-7.06,-2.37,4.29,0.0,-48.09,1.16,2.98
3.8899999999999997,433.43999999999994,-6.4,-3.73,6.03,0.0,-45.47,1.71,3.71
3.9,434.88,-6.43,-2.57,4.52,0.0,-47.05,0.67,3.28
3.9099999999999997,436.4,-6.82,-1.69,3.96,0.0,-49.19,-0.37,2.91
3.92,438.46000000000004,-7.05,-2.25,4.72,0.0,-45.71,0.85,3.83
3.9299999999999997,440.42999999999995,-6.84,-2.38,4.15,0.0,-44.37,1.77,4.01
3.94,441.24,-6.63,-2.42,4.56,0.0,-48.03,0.92,3.22
3.9499999999999997,442.85,-6.5,-2.64,4.82,0.0,-48.39,0.43,3.89
3.96,444.74,-6.63,-2.61,4.43,0.0,-45.95,2.5,4.07
3.9699999999999998,445.72,-6.43,-1.93,4.51,0.0,-46.81,1.28,3.65
3.98,447.06999999999994,-6.79,-2.4,3.89,0.0,-45.89,0.18,3.95
3.9899999999999998,449.13,-6.52,-1.93,4.62,0.0,-44.73,0.0,4.38
4.0,450.55999999999995,-6.69,-2.21,4.42,0.0,-43.45,0.98,4.75
4.01,452.09000000000003,-6.79,-2.65,3.7,0.0,-46.81,-0.92,4.14
4.0200000000000005,454.05999999999995,-6.41,-2.71,4.23,0.0,-45.95,1.47,3.77
4.03,455.14,-6.79,-2.26,5.43,0.0,-46.81,-0.43,3.77
4.04,456.4,-6.42,-2.39,4.29,0.0,-44.61,1.22,4.5
4.05,458.64,-6.59,-2.5,4.74,0.0,-47.36,1.1,3.46
4.06,456.13,-4.3,-0.23,4.75,0.0,-46.2,-0.06,4.01
4.07,452.53999999999996,-1.85,-0.92,3.97,0.0,-46.08,-1.1,4.32
4.08,449.58000000000004,17.11,-1.44,3.42,0.0,-40.4,-0.43,3.95
4.09,453.35,95.27,2.28,1.28,0.0,-26.79,0.06,-0.5
4.1,455.04999999999995,-7.03,2.26,6.63,0.0,-6.04,-0.85,6.58
4.11,458.1,-5.67,-0.12,4.44,0.0,25.7,-3.85,7.07
4.12,460.35,-4.42,-2.62,2.13,0.0,53.66,-6.59,3.22
4.13,462.5,-4.12,-0.02,4.18,0.0,80.33,-10.99,2.24
4.14,465.02,-3.35,-2.12,-0.91,0.0,106.03,-13.37,1.08
4.15,466.37,-4.83,-4.19,3.86,0.0,126.54,-13.92,-0.75
4.16,467.62,-4.51,-2.1,2.0,0.0,138.62,-15.26,-3.74
4.16,467.62,-4.51,-2.1,2.0,0.0,138.62,-15.26,-3.74
4.17,469.51,-6.21,-3.76,-1.59,0.0,157.3,-16.42,-8.62
4.18,471.49,-6.21,-3.76,-1.59,0.0,157.3,-16.42,-8.62
4.19,473.28999999999996,-6.79,-3.17,-0.77,0.0,166.64,-13.79,-11.31
4.2,476.08000000000004,-6.59,-1.87,-0.97,0.0,174.94,-12.88,-13.69
4.21,478.67999999999995,-7.2,-2.94,-1.37,0.0,181.84,-10.99,-16.31
4.22,481.02,-7.35,-0.87,-1.72,0.0,190.99,-7.02,-18.33
4.23,482.64,-7.63,0.18,-2.93,0.0,204.3,-3.05,-18.51
4.24,484.71000000000004,-7.78,-0.61,-1.13,0.0,212.78,-2.26,-19.91
4.25,485.78999999999996,-7.7,-0.11,-2.82,0.0,224.01,2.2,-19.73
4.26,488.03999999999996,-7.46,1.11,-1.24,0.0,237.44,4.39,-18.26
4.2700000000000005,489.58000000000004,-7.7,1.43,-2.92,0.0,249.71,8.24,-16.68
4.28,491.02,-7.72,2.57,-1.33,0.0,268.27,10.86,-12.89
4.29,493.53999999999996,-7.46,2.72,-1.11,0.0,274.37,11.35,-11.86
4.3,494.71000000000004,-7.91,2.24,-0.82,0.0,292.8,13.37,-8.13
4.31,496.33000000000004,-7.64,2.8,0.01,0.0,308.98,14.65,-4.9
4.319999999999999,497.86,-7.62,2.45,0.42,0.0,323.5,14.04,-1.91
4.33,499.49,-7.47,1.81,-0.38,0.0,338.89,11.23,2.24
4.34,501.28999999999996,-7.34,1.4,0.4,0.0,353.72,12.27,4.56
4.35,503.09000000000003,-7.53,-0.14,0.85,0.0,365.68,10.19,7.0
4.359999999999999,504.44999999999993,-7.54,-0.28,0.11,0.0,376.85,8.3,8.41
4.37,505.79999999999995,-7.35,-0.2,-0.65,0.0,384.66,5.86,8.96
4.38,507.24,-7.58,-0.47,0.99,0.0,393.94,3.97,10.3
4.39,508.40999999999997,-7.1,-2.46,1.21,0.0,403.28,0.98,9.45
4.3999999999999995,509.59000000000003,-7.24,-2.52,0.05,0.0,406.82,0.0,9.14
4.41,511.39,-7.54,-1.22,-1.42,0.0,408.89,-2.69,7.19
4.42,512.75,-7.5,-2.62,-0.67,0.0,411.21,-2.26,5.84
4.43,514.01,-7.13,-4.03,0.02,0.0,411.15,-2.56,3.95
4.4399999999999995,515.27,-7.68,-2.93,-1.21,0.0,410.79,-3.17,1.88
4.45,516.63,-7.67,-2.83,-1.25,0.0,406.94,-4.7,-1.36
4.46,518.52,-7.78,-3.98,-1.36,0.0,407.73,-3.54,-3.07
4.47,519.97,-7.72,-2.62,-0.93,0.0,406.76,-1.83,-6.12
4.4799999999999995,521.87,-7.74,-2.36,-1.56,0.0,405.54,0.73,-8.44
4.4799999999999995,521.87,-7.74,-2.36,-1.56,0.0,405.54,0.73,-8.44
4.49,523.4,-7.4,-2.66,-3.18,0.0,403.89,0.73,-10.02
4.5,524.4,-7.87,-2.16,-2.38,0.0,403.95,2.99,-10.64
4.51,526.1999999999999,-7.31,-1.62,-2.44,0.0,404.32,4.94,-11.37
4.52,527.56,-7.43,-1.68,-2.46,0.0,404.68,6.16,-10.94
4.53,529.37,-7.58,-1.04,-3.01,0.0,406.21,8.97,-10.33
4.54,530.91,-7.27,-0.72,-2.16,0.0,408.83,11.17,-9.41
4.55,531.99,-7.3,-1.4,-1.03,0.0,411.34,12.33,-9.23
4.56,533.17,-7.08,-0.16,-0.34,0.0,415.12,13.37,-7.71
4.569999999999999,535.52,-6.95,-0.25,-1.7,0.0,419.51,13.61,-5.33
4.58,536.78,-7.09,-0.57,-0.15,0.0,422.26,14.1,-4.04
4.59,538.77,-7.57,-1.74,-1.76,0.0,428.18,13.61,-2.03
4.6,540.49,-7.6,-0.78,-0.32,0.0,431.23,11.9,-1.66
4.609999999999999,541.67,-6.77,-2.36,0.37,0.0,438.07,11.96,0.35
4.62,543.75,-7.0,-2.19,0.52,0.0,440.63,11.17,0.29
4.63,544.21,-6.77,-1.38,-1.04,0.0,441.92,8.18,-0.01
4.64,546.1999999999999,-6.91,-2.44,1.58,0.0,443.01,7.94,-0.38
4.6499999999999995,547.1,-7.12,-3.33,-0.61,0.0,443.99,5.55,-1.05
4.66,548.8199999999999,-7.13,-2.38,-0.23,0.0,444.85,4.27,-2.27
4.67,550.27,-7.47,-3.57,0.3,0.0,444.11,3.24,-3.31
4.68,551.54,-7.21,-3.18,-1.04,0.0,444.91,4.52,-4.71
4.6899999999999995,553.17,-7.35,-2.98,0.17,0.0,442.77,3.48,-6.0
4.7,554.17,-7.33,-4.62,-0.95,0.0,443.81,3.05,-7.4
4.71,556.25,-6.93,-2.8,-0.02,0.0,439.05,1.22,-9.96
4.72,557.25,-7.35,-2.95,-2.04,0.0,435.2,3.17,-11.06
4.7299999999999995,559.61,-7.08,-3.41,-0.37,0.0,433.86,3.54,-12.1
4.74,560.06,-7.29,-1.75,-0.89,0.0,431.42,4.64,-12.95
4.75,561.88,-7.24,-1.94,-1.59,0.0,431.17,5.98,-13.08
4.76,563.6,-7.29,-2.42,0.09,0.0,430.32,6.65,-13.81
4.77,564.96,-7.07,-1.14,-2.22,0.0,428.49,5.55,-14.6
4.78,566.96,-6.78,-0.73,-0.91,0.0,429.83,6.71,-13.87
4.79,567.59,-6.65,-1.77,-0.45,0.0,431.11,7.45,-13.08
4.8,569.23,-6.95,-0.61,-1.24,0.0,432.21,8.3,-12.65
4.8,569.23,-6.95,-0.61,-1.24,0.0,432.21,8.3,-12.65
4.81,570.86,-6.79,-1.06,-0.74,0.0,436.48,9.83,-10.33
4.819999999999999,572.68,-7.05,-2.47,-0.58,0.0,436.91,9.16,-10.15
4.83,574.22,-7.12,-0.09,-0.9,0.0,439.78,9.34,-9.17
4.84,575.31,-6.77,-1.5,0.07,0.0,441.61,9.4,-8.01
4.85,577.22,-6.7,-1.82,0.0,0.0,445.09,8.97,-7.22
4.859999999999999,578.12,-6.95,-0.92,-1.03,0.0,444.91,7.94,-7.77
4.87,579.58,-6.86,-1.15,-0.28,0.0,449.06,7.81,-6.18
4.88,581.76,-6.81,-1.95,-0.49,0.0,452.23,6.84,-5.75
4.89,582.58,-6.85,-1.77,-0.49,0.0,450.95,4.88,-6.36
4.8999999999999995,584.39,-7.02,-1.21,-0.3,0.0,451.93,4.33,-6.12
4.91,585.76,-6.69,-2.58,0.24,0.0,455.28,4.52,-5.94
4.92,587.03,-6.85,-1.39,-1.04,0.0,455.34,4.33,-6.0
4.93,587.49,-6.54,-2.41,-0.41,0.0,453.88,4.82,-6.48
4.9399999999999995,589.39,-6.54,-1.4,-0.28,0.0,449.79,2.81,-7.95
4.95,590.76,-6.54,-1.38,-0.34,0.0,450.28,2.62,-7.58
4.96,592.31,-6.68,-2.79,-1.46,0.0,448.2,2.81,-7.77
4.97,593.22,-6.95,-2.04,-0.94,0.0,445.76,1.59,-8.87
4.9799999999999995,595.13,-6.8,-1.53,-1.19,0.0,445.09,2.69,-8.56
4.99,596.31,-6.59,-2.29,-1.61,0.0,444.05,3.6,-9.78
5.0,597.4,-6.78,-2.4,-1.16,0.0,442.77,3.3,-10.21
5.01,599.31,-6.56,-2.23,-0.44,0.0,441.06,5.43,-10.45
5.02,600.22,-6.48,-1.55,-1.56,0.0,438.8,5.98,-11.06
5.03,601.77,-6.9,-0.8,-0.98,0.0,437.09,6.41,-10.57
5.04,603.5,-6.73,-1.34,-1.76,0.0,439.05,8.42,-8.68
5.05,605.05,-6.52,-1.58,-0.95,0.0,438.74,7.63,-8.13
5.06,606.6,-6.72,-1.32,-1.3,0.0,438.99,6.47,-8.19
5.069999999999999,608.15,-6.34,-2.14,-0.11,0.0,438.44,7.02,-7.89
5.08,608.88,-6.59,-0.61,-0.7,0.0,438.31,7.81,-8.25
5.09,610.88,-6.42,-0.07,-0.67,0.0,440.82,8.85,-6.18
5.1,612.16,-6.34,-1.44,-0.36,0.0,439.29,7.14,-6.42
5.109999999999999,613.43,-6.34,-1.62,-0.51,0.0,441.55,6.29,-5.69
5.12,614.43,-6.33,-0.82,-0.64,0.0,443.44,6.65,-4.59
5.12,614.43,-6.33,-0.82,-0.64,0.0,443.44,6.65,-4.59
5.13,617.17,-6.54,-1.43,-0.69,0.0,444.36,5.13,-3.92
5.14,618.17,-6.33,-0.56,-0.66,0.0,447.35,4.52,-3.86
5.1499999999999995,619.27,-6.2,-0.92,-0.92,0.0,448.2,5.19,-3.43
5.16,620.09,-6.22,-2.05,0.45,0.0,445.7,2.87,-3.49
5.17,621.73,-6.17,-1.92,-0.28,0.0,446.25,3.66,-3.19
5.18,623.1899999999999,-6.37,-1.27,-2.24,0.0,444.85,2.26,-3.68
5.1899999999999995,625.02,-6.36,-1.74,-0.18,0.0,441.55,2.99,-3.07
5.2,626.11,-6.56,-2.29,-1.47,0.0,439.66,2.93,-3.25
5.21,627.5699999999999,-6.44,-1.56,-1.47,0.0,438.07,3.91,-3.68
5.22,629.12,-6.27,-2.11,-1.28,0.0,436.67,4.21,-3.86
5.2299999999999995,630.31,-6.33,-1.58,-1.64,0.0,435.02,3.85,-4.17
5.24,631.59,-6.36,-1.24,-0.53,0.0,434.84,4.33,-4.04
5.25,632.87,-6.14,-2.01,-2.47,0.0,432.27,3.54,-4.78
5.26,634.6899999999999,-6.38,-1.21,-1.4,0.0,432.7,5.86,-3.86
5.27,635.61,-6.29,-1.47,-1.79,0.0,426.53,6.59,-4.41
5.28,636.98,-6.62,-1.76,-2.17,0.0,427.69,6.9,-3.62
5.29,638.62,-6.41,-2.06,-1.93,0.0,426.23,8.06,-3.01
5.3,639.63,-6.27,-2.04,-1.08,0.0,422.2,7.51,-4.23
5.31,641.0,-6.13,-1.75,-1.51,0.0,421.59,9.16,-4.17
5.319999999999999,642.0,-5.99,-1.21,-0.58,0.0,422.75,10.19,-3.49
5.33,643.1899999999999,-5.89,-2.33,-1.36,0.0,421.16,10.74,-2.82
5.34,645.3,-6.23,-2.41,-0.87,0.0,419.64,9.46,-2.94
5.35,646.48,-5.96,-2.09,-0.38,0.0,417.2,8.79,-3.49
5.359999999999999,647.86,-6.26,-2.27,-1.58,0.0,415.85,9.4,-3.74
5.37,649.05,-6.19,-1.66,-0.16,0.0,415.3,8.67,-3.8
5.38,650.6,-5.9,-2.72,-0.32,0.0,415.55,8.48,-4.17
5.39,652.16,-5.95,-2.74,-0.19,0.0,413.9,8.79,-4.47
5.3999999999999995,653.0699999999999,-5.86,-1.65,0.45,0.0,412.19,8.42,-5.33
5.41,654.26,-5.85,-2.01,-0.62,0.0,410.6,7.2,-5.57
5.42,656.37,-5.95,-2.12,-0.14,0.0,409.02,6.71,-6.36
5.43,656.92,-6.19,-1.88,-0.59,0.0,406.27,6.71,-7.28
5.4399999999999995,658.84,-6.21,-2.46,-1.1,0.0,405.05,7.08,-7.34
5.4399999999999995,658.84,-6.21,-2.46,-1.1,0.0,405.05,7.08,-7.34
5.45,660.76,-6.08,-1.71,0.47,0.0,404.62,6.96,-7.64
5.46,661.58,-5.81,-1.34,0.43,0.0,403.71,6.53,-8.44
5.47,663.14,-5.7,-1.9,-0.06,0.0,405.29,6.65,-8.01
5.4799999999999995,664.15,-5.98,-1.7,0.43,0.0,405.23,6.47,-8.56
5.49,666.17,-5.96,-1.61,0.12,0.0,407.92,5.31,-9.05
5.5,667.63,-5.87,-2.07,0.28,0.0,410.48,5.01,-8.62
5.51,668.36,-5.85,-1.61,-0.8,0.0,411.03,3.11,-9.66
5.52,669.65,-6.02,-1.71,0.17,0.0,412.43,3.54,-9.84
5.53,671.21,-5.88,-1.83,-0.26,0.0,413.11,4.21,-9.66
5.54,672.86,-5.77,-1.23,-0.77,0.0,415.3,3.54,-9.9
5.55,673.77,-5.69,-0.88,-0.39,0.0,417.07,2.69,-10.7
5.56,675.24,-5.87,-0.95,-0.48,0.0,422.38,3.54,-10.09
5.569999999999999,676.16,-5.62,-1.49,-0.08,0.0,423.48,2.14,-10.51
5.58,677.81,-5.65,-1.48,0.32,0.0,425.13,2.38,-11.18
5.59,679.09,-5.57,-0.68,-0.43,0.0,425.92,1.22,-11.31
5.6,679.92,-5.77,-1.4,-0.13,0.0,429.22,2.44,-10.39
5.609999999999999,681.66,-5.87,-0.83,-1.02,0.0,430.2,2.26,-10.21
5.62,683.13,-5.49,-1.21,-0.06,0.0,431.3,2.56,-10.57
5.63,684.14,-5.55,-1.49,-0.11,0.0,434.41,2.69,-10.33
5.64,685.61,-5.52,-1.1,-0.87,0.0,433.0,2.26,-10.39
5.6499999999999995,687.08,-5.77,-1.44,-0.73,0.0,431.78,2.08,-10.45
5.66,687.9,-5.54,-0.88,-0.67,0.0,429.83,2.32,-10.51
5.67,688.91,-5.69,-0.89,-0.63,0.0,428.06,2.56,-10.15
5.68,690.29,-5.78,-1.73,-0.78,0.0,426.66,2.44,-9.96
5.6899999999999995,692.31,-5.87,-1.12,-1.1,0.0,425.8,3.3,-10.33
5.7,693.78,-5.54,-0.72,-1.36,0.0,425.8,3.66,-9.11
5.71,694.61,-5.49,-1.49,-0.83,0.0,423.42,4.46,-9.23
5.72,695.53,-5.43,-1.29,-0.73,0.0,422.87,5.13,-9.17
5.7299999999999995,697.64,-5.54,-0.87,-0.91,0.0,420.49,5.31,-8.5
5.74,698.38,-5.51,-2.02,-1.67,0.0,421.1,6.1,-7.83
5.75,699.5699999999999,-5.54,-0.4,-0.87,0.0,420.86,7.2,-7.71
5.76,701.3199999999999,-5.75,-0.89,-1.57,0.0,419.58,6.41,-7.28
5.76,701.3199999999999,-5.75,-0.89,-1.57,0.0,419.58,6.41,-7.28
5.77,702.5200000000001,-5.65,-1.47,-0.12,0.0,418.11,7.63,-5.94
5.78,703.2499999999999,-5.51,-2.0,-1.36,0.0,416.16,7.14,-5.63
5.79,704.7199999999999,-5.21,-0.98,-0.02,0.0,413.41,6.29,-5.69
5.8,706.1899999999999,-5.63,-2.09,-1.64,0.0,414.08,6.96,-5.08
5.81,707.85,-5.36,-1.67,-0.05,0.0,414.69,8.12,-5.2
5.819999999999999,709.0500000000001,-5.18,-1.47,0.49,0.0,412.92,6.23,-5.14
5.83,710.15,-5.6,-1.75,-1.12,0.0,413.23,5.98,-4.96
5.84,711.35,-5.33,-1.37,0.22,0.0,411.09,5.43,-5.45
5.85,713.2800000000001,-5.58,-2.29,-1.08,0.0,411.58,5.86,-5.14
5.859999999999999,714.4799999999999,-5.57,-1.86,-0.17,0.0,411.03,5.8,-5.57
5.87,715.4,-5.55,-1.19,-1.11,0.0,411.21,5.49,-5.94
5.88,717.33,-5.57,-2.36,-1.04,0.0,411.89,5.13,-6.18
5.89,717.7900000000001,-5.44,-1.44,-0.61,0.0,410.54,5.19,-7.16
5.8999999999999995,718.5300000000001,-5.22,-1.25,-0.11,0.0,410.91,5.13,-7.16
5.91,719.91,-5.37,-2.21,-1.08,0.0,411.03,4.88,-7.58
5.92,721.1999999999999,-5.28,-0.85,-1.47,0.0,410.85,5.37,-7.58
5.93,722.86,-5.54,-1.97,-1.65,0.0,409.81,5.8,-7.46
5.9399999999999995,723.87,-5.53,-1.69,-0.57,0.0,409.02,6.1,-7.71
5.95,725.07,-5.54,-0.9,-2.3,0.0,410.42,7.32,-7.28
5.96,726.36,-5.36,-1.22,-0.48,0.0,410.24,6.9,-7.58
5.97,727.84,-5.26,-1.06,-1.13,0.0,409.57,6.71,-8.07
5.9799999999999995,728.57,-5.22,-1.14,-1.44,0.0,410.85,7.45,-7.22
5.99,730.32,-5.12,-1.83,-0.68,0.0,410.05,8.24,-6.79
6.0,731.62,-5.38,-1.09,-0.93,0.0,409.32,8.0,-6.67
6.01,732.63,-5.17,-1.55,-0.79,0.0,410.54,8.48,-5.45
6.02,734.38,-5.26,-1.64,-1.19,0.0,408.83,8.61,-6.12
6.03,735.58,-5.04,-0.71,-0.06,0.0,409.69,8.85,-5.2
6.04,736.87,-5.14,-2.46,-0.72,0.0,409.63,8.55,-4.47
6.05,738.35,-5.32,-1.75,-1.09,0.0,410.66,8.36,-4.17
6.06,739.7299999999999,-5.2,-0.46,-0.83,0.0,410.12,8.42,-4.71
6.069999999999999,740.5600000000001,-5.33,-1.17,-1.46,0.0,412.68,8.97,-3.19
6.08,742.0400000000001,-4.99,-1.91,-0.51,0.0,410.66,8.73,-4.29
6.08,742.0400000000001,-4.99,-1.91,-0.51,0.0,410.66,8.73,-4.29
6.09,742.6899999999999,-5.18,-0.94,-0.65,0.0,412.01,8.18,-3.01
6.1,744.07,-5.11,-1.63,-2.05,0.0,411.58,8.18,-2.76
6.109999999999999,745.64,-5.13,-1.36,-0.59,0.0,410.54,7.14,-2.7
6.12,747.12,-5.25,-0.7,-1.33,0.0,411.09,7.45,-2.52
6.13,748.0400000000001,-5.0,-1.88,0.23,0.0,411.89,8.18,-2.4
6.14,749.61,-5.13,-1.7,-0.08,0.0,412.25,7.32,-2.94
6.1499999999999995,750.7199999999999,-5.03,-2.11,-0.1,0.0,409.63,7.26,-3.49
6.16,752.11,-4.83,-2.48,0.46,0.0,409.32,6.84,-3.62
6.17,752.66,-4.97,-1.59,-1.64,0.0,405.96,5.01,-4.53
6.18,754.6,-5.1,-1.11,-1.42,0.0,404.87,5.37,-4.71
6.1899999999999995,755.9,-5.24,-2.36,-1.16,0.0,405.17,5.37,-4.53
6.2,757.1899999999999,-4.98,-1.41,-0.5,0.0,406.27,5.49,-4.41
6.21,757.93,-5.01,-1.51,-0.85,0.0,405.29,5.74,-4.96
6.22,759.32,-5.21,-1.47,-0.87,0.0,405.96,5.25,-5.08
6.2299999999999995,760.0600000000001,-4.86,-1.71,-0.53,0.0,406.15,6.04,-5.08
6.24,761.08,-4.96,-1.41,-1.81,0.0,402.55,5.62,-5.81
6.25,762.2800000000001,-5.0,-1.49,-0.5,0.0,402.79,7.08,-5.26
6.26,763.85,-5.05,-1.03,-1.38,0.0,399.43,7.45,-5.57
6.27,765.33,-5.08,-1.39,-1.22,0.0,399.37,8.0,-5.02
6.28,766.4399999999999,-5.04,-2.34,-1.87,0.0,399.92,9.58,-4.71
6.29,767.37,-5.11,-0.69,-1.19,0.0,399.19,9.09,-4.65
6.3,768.57,-4.85,-1.62,0.05,0.0,400.29,8.67,-3.98
6.31,770.14,-5.01,-1.69,-0.97,0.0,400.17,8.67,-4.47
6.319999999999999,771.5300000000001,-4.78,-1.17,-1.15,0.0,401.94,9.58,-3.98
6.33,772.37,-4.9,-2.19,0.2,0.0,400.96,9.83,-4.47
6.34,773.2900000000001,-4.94,-0.78,-1.21,0.0,399.86,9.28,-4.59
6.35,774.9599999999999,-4.81,-0.66,-0.77,0.0,399.68,8.36,-4.41
6.359999999999999,775.6999999999999,-4.84,-2.07,-0.47,0.0,400.59,8.0,-3.62
6.37,778.4799999999999,-4.86,-0.84,0.36,0.0,400.9,8.12,-3.43
6.38,779.0400000000001,-4.8,-0.81,-0.37,0.0,400.17,7.39,-3.55
6.39,780.15,-4.92,-2.04,-0.33,0.0,400.23,5.98,-3.98
6.3999999999999995,781.4399999999999,-4.79,-0.81,0.27,0.0,400.78,4.39,-3.98
6.3999999999999995,781.4399999999999,-4.79,-0.81,0.27,0.0,400.78,4.39,-3.98
6.41,783.3000000000001,-4.64,-1.95,0.76,0.0,402.79,4.03,-3.55
6.42,784.13,-4.78,-2.45,1.95,0.0,402.06,2.38,-4.84
6.43,785.8000000000001,-4.72,-1.07,-0.39,0.0,402.18,1.22,-5.63
6.4399999999999995,786.82,-4.82,-2.01,0.07,0.0,402.36,0.55,-5.81
6.45,787.5600000000001,-4.72,-2.18,-0.21,0.0,398.82,-0.49,-7.58
6.46,788.4899999999999,-4.81,-0.97,-1.12,0.0,397.05,-0.43,-8.56
6.47,789.6999999999999,-4.85,-2.25,-0.83,0.0,395.16,0.06,-8.62
6.4799999999999995,791.64,-4.87,-1.72,-0.44,0.0,389.73,0.37,-11.06
6.49,792.0099999999999,-4.87,-0.77,-1.07,0.0,388.45,0.24,-11.49
6.5,793.3100000000001,-4.7,-2.48,-0.36,0.0,386.92,0.55,-11.18
6.51,793.9599999999999,-4.84,-1.91,-1.14,0.0,383.08,0.61,-13.08
6.52,795.82,-4.75,-0.54,-1.37,0.0,382.59,2.14,-13.44
6.53,797.12,-4.79,-2.6,-2.16,0.0,382.16,3.85,-13.75
6.54,798.0500000000001,-4.73,-1.71,-0.03,0.0,381.12,3.66,-14.36
6.55,799.16,-4.61,-1.05,-1.75,0.0,381.31,5.07,-14.18
6.56,801.0200000000001,-4.97,-2.05,-0.65,0.0,381.37,5.98,-14.42
6.569999999999999,801.39,-4.7,-0.51,-0.04,0.0,380.94,7.32,-15.15
6.58,803.0600000000001,-4.76,-0.11,-1.24,0.0,382.77,6.96,-15.09
6.59,804.2700000000001,-4.59,-0.46,0.19,0.0,386.86,8.85,-12.28
6.6,805.2900000000001,-4.65,-0.29,-0.05,0.0,388.33,8.36,-11.67
6.609999999999999,806.13,-4.62,-0.16,-0.42,0.0,390.58,7.94,-11.0
6.62,807.7099999999999,-4.51,0.61,-0.82,0.0,394.0,8.18,-10.02
6.63,808.4499999999999,-4.59,-0.13,-1.41,0.0,395.16,6.35,-7.83
6.64,810.0300000000001,-4.4,-0.44,0.17,0.0,397.24,6.41,-6.55
6.6499999999999995,811.2399999999999,-4.64,-0.63,-0.57,0.0,400.23,6.23,-5.69
6.66,812.35,-4.47,-0.9,-0.39,0.0,403.65,5.19,-4.9
6.67,813.84,-4.66,-0.36,-0.18,0.0,404.5,4.03,-4.71
6.68,814.58,-4.36,-0.14,-0.81,0.0,405.48,3.54,-4.29
6.6899999999999995,816.07,-4.65,-0.74,-0.45,0.0,408.28,2.5,-3.55
6.7,817.09,-4.55,-1.45,-0.18,0.0,410.54,1.95,-3.98
6.71,818.12,-4.52,-1.27,-1.8,0.0,409.75,1.53,-4.17
6.72,819.2299999999999,-4.43,-1.5,-0.8,0.0,409.08,1.47,-3.92
6.72,819.2299999999999,-4.43,-1.5,-0.8,0.0,409.08,1.47,-3.92
6.7299999999999995,820.91,-4.56,-1.22,-0.7,0.0,408.83,1.4,-4.41
6.74,821.2800000000001,-4.43,-1.58,-1.31,0.0,407.37,2.08,-4.71
6.75,822.58,-4.22,-2.14,-0.17,0.0,407.37,2.56,-4.59
6.76,823.9799999999999,-4.3,-0.93,-0.75,0.0,406.45,2.69,-4.96
6.77,824.9999999999999,-4.45,-1.21,-2.72,0.0,406.58,3.72,-4.96
6.78,825.7499999999999,-4.52,-1.47,-0.83,0.0,405.35,4.39,-4.71
6.79,826.68,-4.54,-1.29,-1.69,0.0,403.71,4.09,-5.2
6.8,828.17,-4.34,-0.99,-1.1,0.0,404.01,4.52,-5.08
6.81,828.82,-4.49,-0.99,-1.77,0.0,404.62,6.59,-4.53
6.819999999999999,830.4899999999999,-4.29,-1.07,-1.27,0.0,403.71,6.35,-4.65
6.83,831.5200000000001,-4.2,-1.45,-0.95,0.0,403.77,6.84,-4.29
6.84,833.2900000000001,-4.3,-1.27,-1.08,0.0,404.32,7.2,-3.98
6.85,833.66,-4.4,-0.47,-1.39,0.0,403.28,7.14,-3.74
6.859999999999999,835.34,-4.44,-0.69,-1.31,0.0,402.79,7.02,-3.62
6.87,836.2700000000001,-4.57,-0.95,-1.04,0.0,401.81,6.96,-2.58
6.88,837.85,-4.41,-1.21,-1.27,0.0,400.17,6.59,-2.21
6.89,838.41,-4.41,-1.15,-1.45,0.0,400.04,6.96,-1.78
6.8999999999999995,839.9999999999999,-4.3,-1.12,-1.13,0.0,399.01,7.45,-1.91
6.91,841.0200000000001,-4.14,-1.52,-0.8,0.0,398.27,7.81,-2.27
6.92,842.6999999999999,-4.12,-1.28,-0.97,0.0,398.46,8.06,-1.78
6.93,843.35,-4.26,-0.95,-0.83,0.0,399.25,8.61,-1.66
6.9399999999999995,844.66,-4.07,-1.06,-0.86,0.0,397.79,8.06,-1.66
6.95,845.9599999999999,-3.92,-2.25,-0.79,0.0,396.5,8.61,-1.42
6.96,846.7099999999999,-4.09,-1.85,-0.83,0.0,393.33,8.55,-2.03
6.97,847.4599999999999,-4.24,-1.99,-1.72,0.0,392.41,8.55,-1.97
6.9799999999999995,848.86,-4.32,-1.6,-1.14,0.0,390.64,9.03,-2.4
6.99,850.5400000000001,-4.09,-1.61,-1.78,0.0,387.96,8.67,-3.25
7.0,851.7499999999999,-4.16,-2.17,-1.66,0.0,386.8,9.16,-3.31
7.01,853.0600000000001,-3.99,-2.18,-1.39,0.0,385.27,10.25,-3.07
7.02,853.5200000000001,-3.98,-1.95,-2.14,0.0,380.7,10.44,-3.55
7.03,855.3000000000001,-4.18,-1.58,-1.82,0.0,377.22,11.23,-4.59
7.04,855.7599999999999,-4.05,-1.99,-1.62,0.0,376.61,12.76,-4.04
7.04,855.7599999999999,-4.05,-1.99,-1.62,0.0,376.61,12.76,-4.04
7.05,857.7199999999999,-3.98,-2.32,-1.01,0.0,374.35,13.49,-3.62
7.06,857.63,-4.14,-2.83,-1.1,0.0,370.69,13.73,-3.8
7.069999999999999,859.2199999999999,-4.16,-1.85,-1.33,0.0,363.54,13.61,-5.69
7.08,860.15,-4.19,-1.38,-1.45,0.0,362.57,14.89,-5.14
7.09,861.09,-4.01,-2.09,0.19,0.0,361.35,15.44,-5.2
7.1,862.67,-4.04,-1.36,-0.9,0.0,359.82,16.3,-5.69
7.109999999999999,863.6999999999999,-4.06,-2.04,0.51,0.0,358.91,15.44,-5.51
7.12,864.7299999999999,-3.93,-1.92,0.45,0.0,357.81,15.14,-5.45
7.13,866.4999999999999,-3.98,-1.4,0.71,0.0,355.3,13.61,-6.18
7.14,867.2499999999999,-4.03,-1.07,0.26,0.0,352.37,11.54,-6.67
7.1499999999999995,868.65,-3.96,-0.6,0.64,0.0,352.31,11.6,-6.18
7.16,869.87,-3.95,-1.24,0.56,0.0,350.91,10.19,-5.2
7.17,870.9899999999999,-4.06,-1.82,1.62,0.0,349.26,7.81,-4.9
7.18,872.58,-3.96,-1.11,1.48,0.0,349.2,6.1,-4.78
7.1899999999999995,873.2399999999999,-3.85,-1.28,1.17,0.0,347.61,3.97,-5.02
7.2,874.5400000000001,-3.92,-1.04,1.66,0.0,346.45,2.62,-5.51
7.21,876.0400000000001,-4.0,-1.7,0.6,0.0,347.06,0.67,-6.24
7.22,876.32,-4.03,-1.81,0.75,0.0,348.28,-1.1,-7.03
7.2299999999999995,877.35,-3.83,-1.92,0.29,0.0,348.22,-3.17,-8.38
7.24,878.57,-3.79,-1.73,1.56,0.0,347.06,-3.48,-9.84
7.25,879.13,-3.76,-1.71,1.24,0.0,343.58,-4.21,-11.86
7.26,880.2499999999999,-3.99,-1.95,0.55,0.0,342.91,-4.7,-12.34
7.27,880.9999999999999,-3.96,-0.93,-0.51,0.0,341.81,-4.52,-13.5
7.28,882.4999999999999,-3.99,-0.97,-0.1,0.0,340.78,-4.52,-14.54
7.29,883.7099999999999,-4.06,-0.91,-1.33,0.0,340.53,-3.85,-15.27
7.3,883.9999999999999,-4.07,-0.74,-0.33,0.0,341.57,-2.38,-15.64
7.31,886.0500000000001,-3.74,-0.54,-1.17,0.0,340.78,-1.4,-16.43
7.319999999999999,886.62,-4.06,-0.56,0.16,0.0,341.08,-0.79,-16.49
7.33,887.93,-3.83,-0.87,-1.39,0.0,339.98,0.31,-16.62
7.34,889.33,-3.92,-0.29,-0.23,0.0,337.79,0.49,-16.37
7.35,889.9899999999999,-3.69,0.12,-1.04,0.0,334.0,1.22,-15.15
7.359999999999999,891.86,-3.64,-0.56,-0.56,0.0,330.83,2.93,-12.59
7.359999999999999,891.86,-3.64,-0.56,-0.56,0.0,330.83,2.93,-12.59
7.37,892.5200000000001,-3.85,-0.21,-0.55,0.0,329.36,2.87,-12.65
7.38,893.4499999999999,-3.76,0.09,-0.98,0.0,327.53,3.24,-11.37
7.39,894.3000000000001,-3.86,0.45,-0.81,0.0,325.7,3.78,-9.9
7.3999999999999995,896.17,-3.75,0.04,-0.2,0.0,325.64,3.91,-7.89
7.41,897.1999999999999,-3.58,0.15,-0.21,0.0,322.47,3.91,-7.22
7.42,898.14,-3.71,0.32,-0.24,0.0,320.57,4.09,-5.63
7.43,898.89,-3.64,-0.15,-0.1,0.0,318.44,4.03,-4.23
7.4399999999999995,900.3000000000001,-3.58,0.57,-0.94,0.0,315.57,3.36,-3.31
7.45,901.5200000000001,-3.76,0.56,-0.38,0.0,314.41,3.24,-1.91
7.46,902.5500000000001,-3.76,0.75,0.09,0.0,315.75,2.26,-0.63
7.47,903.9499999999999,-3.72,0.01,0.42,0.0,312.88,0.98,1.39
7.4799999999999995,905.36,-3.57,-0.14,0.66,0.0,311.36,0.06,2.0
7.49,906.3000000000001,-3.63,-0.01,0.21,0.0,311.11,-0.55,3.22
7.5,907.2399999999999,-3.7,-0.38,-0.48,0.0,310.99,-1.46,4.2
7.51,907.7099999999999,-3.65,-0.79,0.39,0.0,310.38,-3.11,4.44
7.52,908.5500000000001,-3.84,-1.28,-1.35,0.0,310.93,-4.03,3.65
7.53,909.7700000000001,-3.82,-0.98,-0.49,0.0,312.7,-4.52,3.28
7.54,910.7099999999999,-3.84,-0.82,-0.77,0.0,312.58,-4.52,2.06
7.55,911.65,-3.69,-0.61,-1.59,0.0,313.8,-3.85,1.69
7.56,913.2499999999999,-3.67,-1.0,-0.79,0.0,314.1,-3.66,1.14
7.569999999999999,914.4699999999999,-3.66,-1.13,-1.39,0.0,314.65,-3.78,0.66
7.58,915.6899999999999,-3.58,-0.68,-1.09,0.0,311.66,-2.5,-0.87
7.59,916.0600000000001,-3.57,-0.74,-1.2,0.0,310.5,-2.01,-0.75
7.6,917.66,-3.78,-1.94,-1.36,0.0,310.32,-0.92,-0.75
7.609999999999999,918.6,-3.61,-1.31,-0.83,0.0,307.08,-0.55,-2.15
7.62,919.4399999999999,-3.76,-0.92,-1.86,0.0,304.89,0.43,-2.88
7.63,920.38,-3.68,-0.52,-0.88,0.0,302.87,1.53,-2.88
7.64,921.89,-3.6,-1.39,-0.63,0.0,302.45,2.38,-2.82
7.6499999999999995,923.0099999999999,-3.64,-1.55,-0.93,0.0,303.18,2.14,-3.43
7.66,924.14,-3.72,-1.2,-1.67,0.0,302.69,2.99,-3.92
7.67,924.5200000000001,-3.69,-1.05,-1.0,0.0,300.92,4.33,-4.04
7.68,925.65,-3.59,-0.79,-0.97,0.0,296.89,5.31,-4.17
7.68,925.65,-3.59,-0.79,-0.97,0.0,296.89,5.31,-4.17
7.6899999999999995,927.0600000000001,-3.51,-0.53,-0.94,0.0,292.5,6.78,-4.29
7.7,927.9,-3.67,-0.68,-1.05,0.0,289.99,6.65,-4.47
7.71,929.2199999999999,-3.64,-0.8,-1.99,0.0,287.06,7.69,-4.17
7.72,930.35,-3.62,-0.89,-0.85,0.0,284.13,8.73,-3.49
7.7299999999999995,930.5400000000001,-3.51,-1.22,-1.47,0.0,281.63,9.34,-3.86
7.74,931.2900000000001,-3.41,-0.77,-0.36,0.0,283.4,10.01,-3.37
7.75,932.6,-3.62,-0.76,-1.4,0.0,281.88,10.56,-3.62
7.76,933.4499999999999,-3.58,-0.73,-0.54,0.0,280.05,11.54,-3.31
7.77,934.58,-3.53,-1.17,-1.37,0.0,281.88,11.9,-2.46
7.78,935.9,-3.55,-0.86,-0.41,0.0,284.26,11.41,-2.27
7.79,937.4999999999999,-3.48,-0.56,-0.92,0.0,285.9,12.15,-2.09
7.8,938.2499999999999,-3.5,-0.98,-0.8,0.0,287.06,12.39,-1.36
7.81,938.63,-3.34,-1.1,-0.11,0.0,287.92,12.57,-0.99
7.819999999999999,940.13,-3.46,-0.69,-1.22,0.0,289.08,12.82,-0.81
7.83,940.32,-3.45,-0.76,-0.63,0.0,289.2,12.76,-0.93
7.84,941.83,-3.39,-0.6,-0.24,0.0,290.48,12.51,-0.75
7.85,942.86,-3.45,-0.68,-0.11,0.0,292.68,13.25,-0.08
7.859999999999999,944.09,-3.5,-0.74,-0.19,0.0,294.45,13.18,0.23
7.87,945.0300000000001,-3.31,-0.93,-0.38,0.0,295.67,12.7,0.47
7.88,946.2499999999999,-3.31,-1.29,-0.38,0.0,297.01,12.57,0.78
7.89,947.38,-3.28,-1.56,-0.32,0.0,297.93,11.9,0.66
7.8999999999999995,948.0400000000001,-3.18,-0.72,-0.79,0.0,297.14,12.02,0.41
7.91,949.08,-3.45,-1.32,-0.82,0.0,298.11,12.15,0.11
7.92,950.4899999999999,-3.3,-1.05,-0.3,0.0,298.23,12.27,-0.2
7.93,951.91,-3.27,-0.51,-0.21,0.0,299.58,11.96,-0.14
7.9399999999999995,952.57,-3.28,-0.94,-0.07,0.0,301.04,11.35,0.6
7.95,953.41,-3.27,-0.79,-0.76,0.0,301.41,11.17,0.35
7.96,954.7299999999999,-3.33,-0.56,-0.11,0.0,302.32,10.25,0.47
7.97,955.87,-3.31,-1.53,0.03,0.0,303.54,10.44,0.29
7.9799999999999995,956.5300000000001,-3.3,-0.82,-0.35,0.0,304.7,9.52,0.17
7.99,957.5600000000001,-3.28,-1.38,0.22,0.0,304.52,8.48,-0.2
8.0,958.5099999999999,-3.17,-1.29,0.22,0.0,304.64,8.3,-0.44
8.0,958.5099999999999,-3.17,-1.29,0.22,0.0,304.64,8.3,-0.44
8.01,959.92,-3.19,-1.39,0.05,0.0,304.64,7.2,-0.69
8.02,960.9599999999999,-3.32,-1.68,0.2,0.0,306.41,7.51,-1.66
8.030000000000001,961.34,-3.31,-1.18,-0.57,0.0,305.93,7.02,-2.33
8.040000000000001,963.41,-3.36,-1.43,-0.46,0.0,305.38,6.78,-2.64
8.05,963.5099999999999,-3.35,-1.58,-1.16,0.0,303.06,5.98,-3.74
8.06,964.64,-3.22,-1.34,-0.56,0.0,303.48,6.41,-4.04
8.07,965.4899999999999,-3.29,-0.99,-0.66,0.0,303.61,6.9,-4.53
8.08,965.9599999999999,-3.26,-1.25,0.34,0.0,303.91,7.08,-4.71
8.09,967.85,-3.14,-1.44,-0.64,0.0,305.19,6.71,-5.33
8.1,968.6999999999999,-3.24,-0.91,0.5,0.0,306.11,6.9,-5.39
8.11,968.9799999999999,-3.23,-0.93,-0.29,0.0,306.05,6.29,-5.57
8.120000000000001,970.68,-3.27,-0.77,-0.91,0.0,306.72,6.65,-5.69
8.13,971.15,-3.32,-1.14,-0.61,0.0,307.08,6.41,-5.69
8.14,972.66,-3.24,-1.06,0.27,0.0,307.63,6.53,-5.69
8.15,972.9499999999999,-3.09,-1.04,0.49,0.0,305.5,6.16,-5.51
8.16,973.89,-3.21,-1.37,-0.01,0.0,304.15,5.37,-5.45
8.17,975.68,-3.23,-0.7,0.76,0.0,300.98,4.39,-5.63
8.18,976.4399999999999,-3.21,-1.57,0.01,0.0,299.39,3.97,-5.75
8.19,977.0099999999999,-3.09,-0.81,0.18,0.0,298.23,3.36,-5.75
8.200000000000001,978.2399999999999,-3.01,-0.92,0.2,0.0,295.24,2.38,-6.12
8.21,979.5600000000001,-3.16,-0.85,-0.04,0.0,293.29,1.71,-6.36
8.22,980.0300000000001,-3.14,-0.75,0.21,0.0,291.22,1.16,-6.42
8.23,981.35,-3.16,-0.93,0.35,0.0,290.06,1.34,-6.42
8.24,981.35,-3.14,-0.54,0.29,0.0,286.64,0.67,-7.03
8.25,983.0600000000001,-3.2,-0.38,-0.38,0.0,285.48,0.43,-6.91
8.26,984.2800000000001,-3.08,-0.77,-0.02,0.0,284.2,0.49,-6.85
8.27,985.2299999999999,-3.11,-0.82,0.05,0.0,281.57,-0.18,-7.22
8.280000000000001,985.89,-3.04,-0.37,0.11,0.0,280.17,0.0,-7.1
8.290000000000001,987.3100000000001,-3.04,-0.83,-0.39,0.0,281.27,0.12,-6.85
8.3,987.6899999999999,-3.04,-0.49,0.35,0.0,281.33,0.24,-6.97
8.31,989.3000000000001,-3.21,-0.52,-1.1,0.0,282.49,0.12,-7.22
8.32,989.9599999999999,-2.97,-0.46,0.12,0.0,282.55,-0.43,-7.52
8.32,989.9599999999999,-2.97,-0.46,0.12,0.0,282.55,-0.43,-7.52
8.33,990.9999999999999,-3.05,-0.61,-0.58,0.0,283.46,0.18,-7.58
8.34,992.0400000000001,-2.99,-0.65,-0.09,0.0,282.73,0.31,-7.64
8.350000000000001,992.9899999999999,-3.2,-0.38,-0.41,0.0,281.69,0.18,-7.16
8.360000000000001,994.3100000000001,-3.04,-0.52,-0.2,0.0,282.3,0.67,-7.03
8.370000000000001,994.41,-3.12,-0.39,-0.59,0.0,281.75,0.55,-7.4
8.38,995.5400000000001,-2.99,-0.87,-0.22,0.0,282.36,0.37,-7.28
8.39,996.87,-3.07,-0.85,-0.87,0.0,282.98,1.34,-7.22
8.4,997.9999999999999,-2.99,-0.4,-0.01,0.0,283.1,2.01,-7.46
8.41,997.8100000000001,-3.07,-0.3,-0.76,0.0,282.98,1.77,-7.28
8.42,999.42,-3.08,-0.39,-1.01,0.0,283.22,1.83,-7.58
8.430000000000001,1000.65,-3.05,-0.3,-0.32,0.0,283.04,1.95,-7.4
8.440000000000001,1000.9399999999999,-3.14,-0.6,-0.5,0.0,283.28,2.87,-7.22
8.450000000000001,1002.4499999999999,-2.96,-0.58,0.27,0.0,283.28,2.87,-7.16
8.46,1003.3100000000001,-2.93,-0.38,0.02,0.0,283.71,2.81,-6.97
8.47,1003.59,-3.08,-0.56,-1.13,0.0,283.59,2.99,-6.79
8.48,1005.1999999999999,-2.98,-0.71,-0.39,0.0,284.01,3.11,-6.61
8.49,1006.43,-2.92,-0.43,-1.02,0.0,283.52,3.17,-6.42
8.5,1006.2399999999999,-2.99,-0.44,-0.04,0.0,283.65,3.48,-6.24
8.510000000000002,1008.0400000000001,-2.83,-0.14,-0.15,0.0,281.94,3.05,-5.39
8.520000000000001,1008.9899999999999,-3.11,0.06,-0.45,0.0,281.08,3.3,-5.02
8.530000000000001,1009.9399999999999,-2.85,-0.51,0.31,0.0,278.82,2.44,-4.9
8.540000000000001,1010.9799999999999,-2.97,-0.7,-0.16,0.0,276.2,1.65,-4.47
8.55,1011.36,-2.85,-0.23,0.93,0.0,274.61,1.22,-4.04
8.56,1012.88,-3.0,-0.09,-0.48,0.0,273.33,0.79,-3.68
8.57,1013.92,-2.98,-0.64,0.23,0.0,270.04,0.06,-3.86
8.58,1014.11,-2.76,-0.38,-0.19,0.0,269.3,-0.18,-3.68
8.59,1015.34,-2.88,-0.1,0.02,0.0,267.53,-0.79,-3.55
8.600000000000001,1015.91,-2.78,-0.23,-0.3,0.0,266.98,-0.92,-2.88
8.610000000000001,1016.9599999999999,-2.99,-0.71,-0.09,0.0,265.58,-1.46,-3.01
8.620000000000001,1018.38,-3.0,-0.62,0.12,0.0,263.75,-1.83,-3.25
8.63,1019.0400000000001,-2.93,-0.52,-0.27,0.0,262.77,-1.89,-3.68
8.64,1019.9899999999999,-2.89,-0.55,-0.75,0.0,263.14,-2.08,-3.74
8.64,1019.9899999999999,-2.89,-0.55,-0.75,0.0,263.14,-2.08,-3.74
8.65,1021.32,-2.94,-0.77,-0.16,0.0,263.02,-2.2,-4.1
8.66,1021.6999999999999,-2.88,-0.43,-0.77,0.0,263.5,-1.89,-4.35
8.67,1022.65,-2.88,-0.51,-0.43,0.0,263.02,-2.32,-4.53
8.680000000000001,1023.9799999999999,-2.76,-0.71,-0.1,0.0,264.85,-1.83,-4.96
8.690000000000001,1025.21,-2.94,-0.6,-0.99,0.0,265.4,-1.71,-5.02
8.700000000000001,1025.5,-2.81,-0.45,-0.16,0.0,265.46,-1.65,-5.63
8.71,1026.92,-2.78,-0.33,-0.35,0.0,265.76,-1.1,-5.63
8.72,1027.7800000000002,-2.84,-0.48,-0.35,0.0,265.88,-0.73,-5.75
8.73,1027.9699999999998,-3.05,-0.75,-0.92,0.0,264.36,-0.49,-5.94
8.74,1029.1,-2.85,-0.57,-0.73,0.0,261.67,-0.06,-5.75
8.75,1030.2399999999998,-2.79,-0.79,-0.53,0.0,259.11,0.55,-5.57
8.760000000000002,1031.29,-2.85,-0.4,-0.48,0.0,256.12,0.73,-5.63
8.770000000000001,1032.4299999999998,-2.82,-0.33,-0.34,0.0,254.59,1.53,-5.57
8.780000000000001,1032.62,-2.86,-0.19,-0.12,0.0,252.4,1.83,-5.45
8.790000000000001,1034.52,-2.79,-0.29,-0.45,0.0,248.55,2.5,-5.08
8.8,1034.52,-2.7,-0.34,-0.33,0.0,246.54,2.75,-4.9
8.81,1035.1799999999998,-2.83,-0.35,-0.16,0.0,243.0,2.38,-4.84
8.82,1036.71,-2.76,-0.52,-0.64,0.0,242.08,3.17,-4.84
8.83,1037.4699999999998,-2.64,-0.11,0.2,0.0,239.76,3.42,-4.41
8.84,1038.23,-2.79,-0.45,-0.57,0.0,236.59,3.66,-4.17
8.850000000000001,1039.27,-2.7,-0.2,0.28,0.0,234.08,3.85,-3.68
8.860000000000001,1040.13,-2.78,-0.57,-0.62,0.0,231.64,4.58,-3.25
8.870000000000001,1041.5500000000002,-2.67,0.07,0.07,0.0,228.9,4.52,-3.37
8.88,1041.8400000000001,-2.76,-0.27,-0.09,0.0,227.25,5.01,-2.7
8.89,1043.17,-2.78,-0.75,-0.87,0.0,225.36,5.01,-2.46
8.9,1043.9299999999998,-2.64,-0.32,-0.25,0.0,224.5,5.25,-2.46
8.91,1043.8400000000001,-2.71,-0.2,-0.11,0.0,223.95,5.13,-2.52
8.92,1045.7399999999998,-2.66,-0.71,0.28,0.0,223.95,5.62,-2.4
8.930000000000001,1047.0700000000002,-2.68,-0.65,-0.59,0.0,222.85,5.74,-2.27
8.940000000000001,1047.83,-2.72,-0.8,-0.25,0.0,222.73,5.68,-2.27
8.950000000000001,1048.5900000000001,-2.67,-0.86,-0.41,0.0,223.77,6.1,-2.27
8.96,1049.6399999999999,-2.62,-0.63,-0.17,0.0,223.95,6.23,-3.01
8.96,1049.6399999999999,-2.62,-0.63,-0.17,0.0,223.95,6.23,-3.01
8.97,1050.5,-2.78,-0.52,-0.04,0.0,225.54,6.23,-3.07
8.98,1051.54,-2.65,-0.17,-0.53,0.0,225.6,5.86,-3.01
8.99,1052.4899999999998,-2.72,-0.77,-0.7,0.0,225.84,6.16,-3.07
9.0,1053.2599999999998,-2.66,-0.68,-0.27,0.0,225.97,6.35,-3.07
9.010000000000002,1054.1100000000001,-2.66,-0.44,-0.32,0.0,225.91,6.47,-3.19
9.020000000000001,1055.6399999999999,-2.65,-0.19,0.21,0.0,226.27,7.08,-3.19
9.030000000000001,1055.54,-2.56,-0.57,-0.52,0.0,226.82,6.78,-3.19
9.040000000000001,1056.6799999999998,-2.62,-0.68,0.15,0.0,226.52,7.08,-3.25
9.05,1057.35,-2.58,-0.59,-0.02,0.0,225.97,7.08,-3.49
9.06,1058.87,-2.61,-0.4,-0.74,0.0,225.91,7.2,-3.37
9.07,1059.4499999999998,-2.66,-0.44,-0.62,0.0,226.21,6.65,-3.19
9.08,1060.02,-2.66,-0.53,-1.21,0.0,225.97,7.08,-3.25
9.09,1061.2599999999998,-2.63,-0.33,0.39,0.0,225.72,6.84,-3.31
9.100000000000001,1062.7800000000002,-2.52,-0.32,-0.33,0.0,224.87,6.41,-3.07
9.110000000000001,1062.6799999999998,-2.57,-0.48,0.43,0.0,223.95,6.78,-2.88
9.120000000000001,1063.6399999999999,-2.56,-0.34,-0.24,0.0,223.16,6.23,-2.58
9.13,1064.7800000000002,-2.6,-0.57,-0.06,0.0,222.43,6.53,-2.76
9.14,1064.5900000000001,-2.67,-0.1,-0.66,0.0,221.39,6.47,-2.4
9.15,1065.83,-2.6,-0.23,-0.06,0.0,220.29,5.98,-2.21
9.16,1066.69,-2.61,-0.06,0.0,0.0,219.25,6.59,-2.09
9.17,1067.7399999999998,-2.59,-0.65,-0.48,0.0,218.58,6.04,-1.91
