time,baro_altitude,accl_x,accl_y,accl_z,gps_altitude,gyro_roll,gyro_pitch,gyro_yaw
0.0,0.0,9.87,-0.22,-0.06,0.0,0.47,0.0,0.01
0.010000000000000009,0.4200000000000017,9.89,-0.19,-0.08,0.0,0.35,0.0,-0.05
0.019999999999999962,0.3400000000000034,9.89,-0.23,-0.03,0.0,0.16,0.0,0.01
0.02999999999999997,0.3400000000000034,9.87,-0.19,-0.05,0.0,-0.02,-0.06,0.01
0.03999999999999998,0.3400000000000034,9.9,-0.17,0.0,0.0,-0.26,0.06,0.01
0.04999999999999999,0.0,9.87,-0.14,-0.04,0.0,-0.32,-0.06,0.01
0.06,0.3400000000000034,9.88,-0.16,-0.04,0.0,-0.57,0.0,0.13
0.06999999999999998,0.3400000000000034,9.9,-0.22,0.0,0.0,-0.75,-0.06,0.01
0.07999999999999999,0.5,9.87,-0.18,0.0,0.0,-0.87,-0.06,0.07
0.09,0.4200000000000017,9.89,-0.09,-0.01,0.0,-0.93,-0.06,0.07
0.09999999999999998,0.1700000000000017,9.86,-0.13,0.01,0.0,-1.06,-0.06,0.13
0.10999999999999999,0.0,9.86,-0.14,0.04,0.0,-1.06,0.0,0.13
0.12,0.4200000000000017,9.88,-0.13,0.04,0.0,-0.99,0.0,0.01
0.12999999999999998,0.4200000000000017,9.83,-0.13,0.07,0.0,-0.99,0.0,0.01
0.13999999999999999,0.4200000000000017,9.87,-0.15,0.04,0.0,-0.87,-0.06,0.07
0.15,0.1700000000000017,9.85,-0.11,0.04,0.0,-0.69,-0.06,-0.05
0.15999999999999998,0.1700000000000017,9.85,-0.14,0.03,0.0,-0.57,0.0,0.01
0.16999999999999998,0.4200000000000017,9.89,-0.13,0.02,0.0,-0.45,-0.06,-0.05
0.18,0.3400000000000034,9.9,-0.16,0.05,0.0,-0.32,0.0,-0.05
0.19,0.25,9.92,-0.1,0.0,0.0,-0.26,0.0,0.01
0.19999999999999998,0.1700000000000017,10.03,-0.15,0.06,0.0,-0.26,0.06,-0.05
0.21,0.09000000000000341,9.8,-0.04,0.06,0.0,-0.32,0.06,-0.05
0.21999999999999997,0.3400000000000034,10.08,-0.03,0.0,0.0,-0.45,0.24,-0.11
0.22999999999999998,0.4200000000000017,11.77,-0.85,-0.06,0.0,-1.73,0.18,-0.29
0.24,1.1700000000000017,28.9,-1.41,-0.38,0.0,0.16,-0.67,0.56
0.25,1.4300000000000068,57.22,-0.17,-2.64,0.0,5.17,-0.25,0.87
0.26,1.5100000000000051,72.3,-1.59,-4.84,0.0,11.09,-0.37,2.03
0.27,1.5900000000000034,106.78,-0.1,-3.98,0.0,10.97,-3.05,0.81
0.27999999999999997,2.6000000000000085,121.03,-2.79,-3.36,0.0,9.32,-4.34,-1.7
0.29,2.180000000000007,127.81,-2.4,-0.88,0.0,17.13,-5.01,-0.11
0.3,3.3500000000000085,136.55,1.83,0.0,0.0,24.7,-3.97,-0.05
0.3,3.3500000000000085,136.55,1.83,0.0,0.0,24.7,-3.97,-0.05
0.3,3.3500000000000085,136.55,1.83,0.0,0.0,24.7,-3.97,-0.05
0.3,3.3500000000000085,136.55,1.83,0.0,0.0,24.7,-3.97,-0.05
0.3,3.3500000000000085,136.55,1.83,0.0,0.0,24.7,-3.97,-0.05
0.3,3.3500000000000085,136.55,1.83,0.0,0.0,24.7,-3.97,-0.05
0.3,3.3500000000000085,136.55,1.83,0.0,0.0,24.7,-3.97,-0.05
0.3,3.3500000000000085,136.55,1.83,0.0,0.0,24.7,-3.97,-0.05
0.3,3.3500000000000085,136.55,1.83,0.0,0.0,24.7,-3.97,-0.05
0.3,3.3500000000000085,136.55,1.83,0.0,0.0,24.7,-3.97,-0.05
0.3,3.3500000000000085,136.55,1.83,0.0,0.0,24.7,-3.97,-0.05
0.3,3.3500000000000085,136.55,1.83,0.0,0.0,24.7,-3.97,-0.05
0.3,3.3500000000000085,136.55,1.83,0.0,0.0,24.7,-3.97,-0.05
0.3,3.3500000000000085,136.55,1.83,0.0,0.0,24.7,-3.97,-0.05
0.3,3.3500000000000085,136.55,1.83,0.0,0.0,24.7,-3.97,-0.05
0.3,3.3500000000000085,136.55,1.83,0.0,0.0,24.7,-3.97,-0.05
0.3,3.3500000000000085,136.55,1.83,0.0,0.0,24.7,-3.97,-0.05
0.3,3.3500000000000085,136.55,1.83,0.0,0.0,24.7,-3.97,-0.05
0.3,3.3500000000000085,136.55,1.83,0.0,0.0,24.7,-3.97,-0.05
0.3,3.3500000000000085,136.55,1.83,0.0,0.0,24.7,-3.97,-0.05
0.3,3.3500000000000085,136.55,1.83,0.0,0.0,24.7,-3.97,-0.05
0.3,3.3500000000000085,136.55,1.83,0.0,0.0,24.7,-3.97,-0.05
0.3,3.3500000000000085,136.55,1.83,0.0,0.0,24.7,-3.97,-0.05
0.3,3.3500000000000085,136.55,1.83,0.0,0.0,24.7,-3.97,-0.05
0.3,3.3500000000000085,136.55,1.83,0.0,0.0,24.7,-3.97,-0.05
0.3,3.3500000000000085,136.55,1.83,0.0,0.0,24.7,-3.97,-0.05
0.3,3.3500000000000085,136.55,1.83,0.0,0.0,24.7,-3.97,-0.05
0.3,3.3500000000000085,136.55,1.83,0.0,0.0,24.7,-3.97,-0.05
0.3,3.3500000000000085,136.55,1.83,0.0,0.0,24.7,-3.97,-0.05
0.3,3.3500000000000085,136.55,1.83,0.0,0.0,24.7,-3.97,-0.05
0.3,3.3500000000000085,136.55,1.83,0.0,0.0,24.7,-3.97,-0.05
0.3,3.3500000000000085,136.55,1.83,0.0,0.0,24.7,-3.97,-0.05
0.3,3.3500000000000085,136.55,1.83,0.0,0.0,24.7,-3.97,-0.05
0.31,3.690000000000012,141.98,0.2,-0.33,0.0,32.58,-2.32,-4.81
0.31,3.690000000000012,141.98,0.2,-0.33,0.0,32.58,-2.32,-4.81
0.32,4.280000000000001,144.05,-2.47,-4.66,0.0,43.2,-0.49,-5.97
0.32,4.280000000000001,144.05,-2.47,-4.66,0.0,43.2,-0.49,-5.97
0.32999999999999996,3.2700000000000102,147.08,-2.88,-4.54,0.0,60.1,-3.18,-4.02
0.33999999999999997,4.190000000000012,146.64,0.89,2.79,0.0,62.85,-4.7,-3.59
0.35,3.440000000000012,145.8,-1.0,-1.69,0.0,58.7,-1.34,-6.21
0.36,4.190000000000012,146.46,-3.28,-5.71,0.0,61.45,-1.22,-7.01
0.37,5.780000000000001,141.35,1.6,-1.08,0.0,49.24,-0.25,-3.35
0.38,4.610000000000014,141.09,0.11,-3.42,0.0,29.4,0.36,-4.08
0.39,4.860000000000014,139.4,-1.38,-3.15,0.0,20.37,-2.08,-4.87
0.4,6.460000000000008,140.39,-1.33,-1.05,0.0,15.91,-2.32,-5.36
0.41,6.790000000000006,135.33,-2.38,-3.53,0.0,8.28,-0.8,-4.08
0.42,6.1200000000000045,136.61,-0.07,-3.2,0.0,3.71,-1.16,-3.22
0.43,6.960000000000008,136.31,-0.48,-3.38,0.0,-3.5,-1.22,-4.08
0.44,7.13000000000001,134.86,-1.09,-2.95,0.0,-3.07,-1.1,-5.85
0.44999999999999996,7.88000000000001,135.51,-0.68,-3.57,0.0,-2.89,-0.49,-6.7
0.45999999999999996,7.800000000000011,135.14,-0.85,-2.77,0.0,-3.25,-0.31,-7.8
0.47,8.13000000000001,134.05,-1.17,-3.85,0.0,-3.5,-0.12,-8.04
0.48,8.13000000000001,132.73,0.08,-3.66,0.0,-3.86,-0.37,-8.35
0.49,8.800000000000011,130.77,-0.95,-3.23,0.0,-3.74,-0.8,-9.02
0.5,9.730000000000004,129.35,-0.57,-3.28,0.0,-3.31,-1.1,-9.2
0.51,10.230000000000004,128.55,0.1,-2.84,0.0,-3.25,-1.77,-9.27
0.52,10.310000000000002,130.89,-0.56,-3.96,0.0,-3.99,-1.71,-9.02
0.53,10.650000000000006,127.16,-0.25,-2.58,0.0,-6.0,-1.71,-8.96
0.54,11.240000000000009,126.09,-0.96,-3.34,0.0,-6.31,-1.65,-9.2
0.55,11.66000000000001,124.13,-1.21,-3.18,0.0,-5.94,-1.41,-8.66
0.56,12.66000000000001,123.5,-0.71,-2.83,0.0,-6.24,-1.59,-7.86
0.5700000000000001,12.66000000000001,121.74,-0.18,-2.38,0.0,-6.85,-1.47,-7.43
0.5800000000000001,13.590000000000003,120.89,-1.11,-2.91,0.0,-7.46,-1.04,-6.82
0.59,13.840000000000003,119.87,-1.14,-2.85,0.0,-8.32,-0.43,-5.79
0.6,14.170000000000002,122.76,-0.44,-3.13,0.0,-8.69,-0.12,-4.93
0.61,14.840000000000003,122.04,-0.76,-2.38,0.0,-8.69,0.3,-4.32
0.62,15.100000000000009,119.68,-0.91,-2.63,0.0,-8.99,0.49,-4.02
0.63,16.02000000000001,119.39,-1.0,-2.21,0.0,-8.81,2.26,-3.96
0.64,17.610000000000014,127.52,-1.35,-4.1,0.0,-8.44,4.94,-4.5
0.64,17.610000000000014,127.52,-1.35,-4.1,0.0,-8.44,4.94,-4.5
0.6499999999999999,16.77000000000001,114.64,-0.79,-1.74,0.0,-8.69,4.52,-4.02
0.6599999999999999,18.290000000000006,116.43,-0.58,-5.52,0.0,-9.3,3.78,-3.28
0.6699999999999999,18.870000000000005,111.0,0.6,-2.37,0.0,-9.66,1.83,-3.28
0.6799999999999999,20.05000000000001,111.04,0.02,-3.73,0.0,-10.82,0.55,-3.35
0.69,21.060000000000002,106.22,-0.34,-3.08,0.0,-11.8,-0.37,-2.98
0.7,21.39,108.04,-0.29,-2.9,0.0,-12.71,-1.22,-2.19
0.71,21.64,105.96,-0.32,-2.87,0.0,-13.81,-1.83,-1.51
0.72,22.320000000000007,107.49,0.11,-2.81,0.0,-14.42,-2.69,-0.78
0.73,23.830000000000013,106.51,0.07,-3.26,0.0,-15.28,-3.72,-0.6
0.74,23.830000000000013,105.59,0.11,-3.05,0.0,-16.19,-4.52,0.32
0.75,25.680000000000007,104.36,-0.24,-4.56,0.0,-17.41,-5.01,1.29
0.76,26.52000000000001,99.47,-0.01,-3.3,0.0,-19.18,-6.23,2.45
0.77,25.760000000000005,100.69,0.66,-3.31,0.0,-21.26,-6.84,2.76
0.78,26.85000000000001,98.35,-0.26,-3.62,0.0,-22.36,-6.96,3.0
0.79,27.360000000000014,97.05,0.18,-3.62,0.0,-23.76,-7.33,3.86
0.8,28.620000000000005,96.76,0.14,-3.42,0.0,-25.47,-7.75,4.47
0.81,29.040000000000006,99.39,-0.32,-1.64,0.0,-26.26,-7.45,5.38
0.8200000000000001,29.620000000000005,97.53,0.11,-3.9,0.0,-28.03,-6.47,6.54
0.8300000000000001,30.460000000000008,95.72,-0.45,-3.31,0.0,-29.19,-6.84,7.82
0.8400000000000001,31.470000000000013,93.85,0.32,-3.15,0.0,-30.96,-6.53,9.59
0.8500000000000001,32.230000000000004,90.5,0.1,-2.83,0.0,-32.61,-6.23,10.14
0.8600000000000001,33.74000000000001,89.47,0.0,-3.07,0.0,-34.08,-5.68,10.94
0.8699999999999999,34.75,89.9,0.1,-2.91,0.0,-36.03,-5.56,11.61
0.8799999999999999,35.09,92.43,0.48,-2.74,0.0,-38.04,-5.13,12.22
0.8899999999999999,35.42,93.25,0.76,-2.2,0.0,-39.69,-4.64,12.34
0.8999999999999999,36.69000000000001,90.62,0.33,-2.15,0.0,-41.46,-3.91,12.59
0.9099999999999999,37.53,89.2,0.63,-2.6,0.0,-43.42,-3.18,12.65
0.9199999999999999,37.860000000000014,89.75,0.35,-3.03,0.0,-44.64,-2.2,12.46
0.9299999999999999,37.95,89.58,-0.11,-3.29,0.0,-45.92,-0.86,12.1
0.94,39.38000000000001,87.84,-0.27,-3.55,0.0,-47.32,0.12,12.04
0.95,40.22000000000001,87.33,0.08,-3.32,0.0,-49.34,0.67,11.49
0.96,40.89,86.95,0.23,-3.33,0.0,-51.53,1.22,10.39
0.96,40.89,86.95,0.23,-3.33,0.0,-51.53,1.22,10.39
0.97,41.230000000000004,86.9,0.12,-3.0,0.0,-53.49,1.71,9.23
0.98,42.07000000000001,86.69,0.12,-3.02,0.0,-55.56,2.26,8.07
0.99,42.83000000000001,86.56,0.09,-2.83,0.0,-57.88,2.93,6.66
1.0,43.84,86.83,0.11,-2.84,0.0,-60.14,3.54,5.2
1.01,44.09,86.82,-0.19,-2.76,0.0,-62.58,3.9,3.74
1.02,45.10000000000001,86.56,0.14,-2.39,0.0,-64.47,4.33,2.15
1.03,46.110000000000014,86.01,0.45,-2.22,0.0,-66.43,4.76,0.68
1.04,46.610000000000014,84.81,1.56,-2.04,0.0,-68.32,4.82,-2.67
1.05,47.71000000000001,85.35,1.18,-2.41,0.0,-70.15,4.58,-6.7
1.06,48.30000000000001,84.93,0.86,-2.91,0.0,-72.1,4.21,-10.24
1.07,49.81,85.02,1.13,-2.92,0.0,-74.67,3.72,-13.54
1.08,50.74000000000001,84.22,0.56,-2.88,0.0,-76.8,3.9,-16.53
1.09,51.5,82.85,0.49,-2.72,0.0,-79.06,3.84,-18.3
1.1,52.84,83.16,1.28,-3.3,0.0,-81.56,3.84,-20.31
1.11,53.18000000000001,82.8,1.13,-2.97,0.0,-84.74,3.48,-22.21
1.1199999999999999,54.360000000000014,82.55,1.24,-3.11,0.0,-87.97,3.36,-23.73
1.13,55.620000000000005,82.27,1.49,-2.56,0.0,-90.96,3.42,-25.01
1.14,56.38000000000001,82.02,1.03,-2.59,0.0,-93.16,3.97,-25.99
1.15,57.480000000000004,81.95,1.53,-2.49,0.0,-95.24,4.21,-26.48
1.16,58.74000000000001,82.15,1.45,-2.73,0.0,-97.8,4.94,-26.3
1.17,59.420000000000016,81.95,1.87,-2.52,0.0,-100.73,5.98,-25.81
1.18,60.599999999999994,80.81,1.51,-3.01,0.0,-102.01,6.22,-25.01
1.19,61.78,81.71,1.22,-3.13,0.0,-103.66,6.16,-23.43
1.2,62.70000000000002,80.04,1.77,-2.54,0.0,-106.04,6.04,-21.6
1.21,63.55000000000001,78.54,1.77,-1.99,0.0,-108.48,5.98,-19.21
1.22,65.06,78.73,1.56,-2.42,0.0,-110.86,6.41,-16.77
1.23,66.16,78.01,1.67,-2.22,0.0,-113.55,6.41,-13.9
1.24,66.5,77.45,1.39,-2.26,0.0,-115.26,7.02,-10.55
1.25,67.85,76.0,1.36,-2.7,0.0,-116.66,7.2,-6.95
1.26,68.94,75.33,1.51,-2.58,0.0,-119.04,7.69,-3.65
1.27,69.70000000000002,74.39,1.42,-2.83,0.0,-121.42,8.3,-0.42
1.28,70.97,73.44,1.86,-3.17,0.0,-124.29,8.91,2.51
1.28,70.97,73.44,1.86,-3.17,0.0,-124.29,8.91,2.51
1.29,71.73000000000002,72.8,1.47,-3.19,0.0,-126.73,9.09,4.96
1.3,72.83000000000001,71.69,1.3,-2.87,0.0,-129.05,9.21,7.58
1.31,74.09,71.51,2.0,-2.42,0.0,-131.8,9.83,10.14
1.32,74.94,70.37,1.74,-2.41,0.0,-134.85,10.8,12.1
1.33,75.36000000000001,70.5,1.8,-2.17,0.0,-138.08,11.66,14.17
1.34,76.20000000000002,70.54,2.1,-2.27,0.0,-140.89,12.82,16.06
1.35,76.88,69.69,1.23,-2.46,0.0,-144.43,13.73,17.29
1.36,77.89000000000001,68.85,1.28,-2.59,0.0,-148.34,14.95,18.45
1.37,78.73000000000002,69.32,1.61,-2.05,0.0,-152.43,14.95,19.18
1.3800000000000001,79.33000000000001,68.07,1.8,-1.61,0.0,-156.09,15.44,18.87
1.3900000000000001,80.25,67.62,1.8,-1.76,0.0,-159.39,15.81,18.45
1.4000000000000001,81.1,66.34,1.59,-1.55,0.0,-162.8,16.17,18.02
1.4100000000000001,81.44,66.57,1.41,-1.42,0.0,-165.31,16.23,17.29
1.4200000000000002,82.53,65.13,1.82,-1.96,0.0,-167.75,15.56,15.45
1.43,83.63,64.91,1.54,-2.01,0.0,-171.23,14.4,14.05
1.44,84.31,64.55,2.02,-1.81,0.0,-173.91,13.18,12.4
1.45,84.9,63.84,0.75,-2.04,0.0,-177.03,11.9,10.21
1.46,86.08000000000001,63.42,0.74,-1.47,0.0,-180.26,10.68,8.44
1.47,87.1,63.38,1.13,-2.5,0.0,-183.25,9.34,6.42
1.48,87.52000000000001,64.92,0.86,-2.83,0.0,-186.06,6.9,4.65
1.49,88.28,65.42,1.65,-1.33,0.0,-188.74,4.58,3.0
1.5,89.63,61.03,1.03,-1.71,0.0,-191.92,3.17,0.38
1.51,90.56,61.62,1.17,-1.98,0.0,-194.91,1.89,-0.54
1.52,91.75,59.54,1.23,-1.91,0.0,-197.9,0.43,-2.37
1.53,93.27000000000001,58.81,1.39,-1.75,0.0,-200.95,-1.28,-3.35
1.54,94.11000000000001,59.06,0.95,-1.49,0.0,-203.7,-2.63,-4.5
1.55,94.70000000000002,57.77,0.98,-2.27,0.0,-205.41,-3.18,-4.2
1.56,96.14000000000001,57.58,1.5,-2.21,0.0,-206.75,-4.4,-4.2
1.57,97.07,57.22,1.24,-1.23,0.0,-208.76,-4.88,-3.65
1.58,99.02000000000001,56.24,1.05,-1.26,0.0,-211.21,-4.52,-2.86
1.59,99.86000000000001,56.07,1.92,-1.36,0.0,-214.08,-4.09,-2.43
1.6,101.13,55.29,1.35,-0.96,0.0,-215.42,-2.93,-1.88
1.6,101.13,55.29,1.35,-0.96,0.0,-215.42,-2.93,-1.88
1.61,102.4,55.74,1.23,-1.02,0.0,-216.21,-1.95,-0.96
1.62,103.25,55.49,1.36,-1.34,0.0,-217.92,0.36,-0.11
1.6300000000000001,104.1,54.61,0.78,-2.16,0.0,-219.14,2.38,0.5
1.6400000000000001,105.53,54.73,1.47,-2.03,0.0,-221.09,3.84,1.11
1.6500000000000001,106.64000000000001,53.34,1.39,-1.18,0.0,-222.99,6.16,2.45
1.6600000000000001,107.65,54.14,0.65,-1.55,0.0,-224.45,7.87,2.33
1.6700000000000002,108.5,53.25,1.05,-0.93,0.0,-226.22,8.42,2.7
1.68,109.77000000000001,51.53,0.93,-1.41,0.0,-227.14,9.76,3.19
1.69,111.46000000000001,51.02,1.58,-1.68,0.0,-227.5,11.41,3.86
1.7,111.46000000000001,50.97,1.62,-1.02,0.0,-229.09,12.39,3.74
1.71,112.82,50.64,1.35,-2.33,0.0,-230.25,13.18,4.22
1.72,113.58000000000001,50.77,1.55,-2.15,0.0,-231.17,13.06,4.47
1.73,115.19,50.24,1.46,-1.8,0.0,-232.2,13.37,4.59
1.74,116.04000000000002,50.42,1.73,-1.89,0.0,-233.42,14.34,4.47
1.75,116.55000000000001,49.34,1.15,-2.95,0.0,-234.77,14.22,3.98
1.76,117.9,49.36,2.38,-2.15,0.0,-236.54,13.18,3.98
1.77,119.85,48.11,2.37,-2.23,0.0,-238.8,13.06,3.12
1.78,121.21000000000001,46.25,1.69,-1.31,0.0,-241.66,12.82,2.15
1.79,121.72,44.81,2.05,-1.43,0.0,-244.78,12.76,1.78
1.8,123.07,42.8,0.72,-1.51,0.0,-246.73,11.78,1.78
1.81,124.35,40.27,1.12,-1.41,0.0,-248.56,10.98,2.09
1.82,125.53,37.49,1.12,-1.23,0.0,-250.88,9.83,2.39
1.83,126.64000000000001,33.96,1.47,-1.11,0.0,-253.44,9.4,2.45
1.84,127.91,31.02,1.59,-0.93,0.0,-255.95,8.67,2.94
1.85,129.43,27.72,1.44,-0.19,0.0,-257.35,8.06,3.74
1.86,130.62,25.39,1.7,-1.38,0.0,-258.39,7.2,4.96
1.87,132.15,22.24,1.37,-0.56,0.0,-259.12,5.98,6.42
1.8800000000000001,133.59,20.07,1.79,-0.14,0.0,-260.22,5.55,7.4
1.8900000000000001,134.53,18.93,1.32,-0.35,0.0,-261.07,5.25,8.62
1.9000000000000001,135.21,17.68,0.65,-0.31,0.0,-261.81,4.45,9.59
1.9100000000000001,136.48000000000002,16.75,1.82,0.19,0.0,-263.15,3.54,10.69
1.9200000000000002,137.84,15.84,2.02,-0.21,0.0,-264.13,2.62,11.36
1.9200000000000002,137.84,15.84,2.02,-0.21,0.0,-264.13,2.62,11.36
1.93,138.26000000000002,15.37,1.21,-0.27,0.0,-264.43,1.1,11.85
1.94,139.54000000000002,14.61,1.78,-0.04,0.0,-265.9,0.49,12.16
1.95,140.22,13.57,1.12,-0.44,0.0,-266.99,-0.25,12.4
1.96,140.81,12.59,0.45,0.07,0.0,-269.25,-1.16,13.32
1.97,142.25,11.66,0.84,-0.28,0.0,-270.78,-1.41,14.72
1.98,143.19,11.04,1.7,-0.45,0.0,-272.3,-1.1,14.97
1.99,143.1,10.16,0.47,-0.24,0.0,-273.53,-0.92,13.99
2.0,143.95000000000002,9.6,0.78,-0.59,0.0,-275.48,-0.73,13.44
2.01,144.89000000000001,9.3,1.19,0.55,0.0,-275.54,0.18,11.91
2.02,146.5,9.15,0.67,-0.72,0.0,-275.6,1.04,9.29
2.03,148.12,7.92,0.71,-1.02,0.0,-275.42,0.85,7.09
2.04,149.14000000000001,7.49,1.91,-0.72,0.0,-275.23,0.67,4.1
2.05,150.41,6.68,0.49,-0.99,0.0,-275.36,0.73,-0.11
2.06,151.35,6.48,0.97,-1.13,0.0,-275.48,0.55,-2.31
2.07,151.94,6.95,0.67,-0.41,0.0,-275.91,-0.31,-4.57
2.08,153.22,5.86,1.43,-0.41,0.0,-276.03,0.73,-6.34
2.09,154.41,5.63,-0.33,-0.56,0.0,-276.39,0.67,-8.78
2.1,156.03,4.8,0.76,-0.54,0.0,-277.0,0.97,-10.06
2.11,157.81,4.19,0.81,-0.33,0.0,-277.43,1.28,-10.67
2.12,158.66,4.87,1.26,-0.4,0.0,-278.47,1.71,-11.71
2.13,159.0,5.46,1.52,-0.99,0.0,-279.02,2.38,-11.65
2.14,161.64000000000001,4.29,0.95,-0.22,0.0,-281.22,2.62,-11.04
2.15,163.43,4.27,2.08,-0.96,0.0,-283.05,3.36,-9.63
2.16,164.88,3.28,2.13,0.83,0.0,-284.63,4.52,-8.29
2.17,167.52,2.36,0.81,-1.1,0.0,-285.12,5.55,-6.52
2.1799999999999997,168.79000000000002,2.39,0.79,-0.6,0.0,-285.92,5.19,-2.43
2.1799999999999997,168.79000000000002,2.39,0.79,-0.6,0.0,-285.92,5.19,-2.43
2.19,170.5,2.05,0.91,-0.64,0.0,-286.83,6.1,1.78
2.1999999999999997,171.61,1.99,1.28,-1.2,0.0,-287.81,6.71,5.14
2.21,172.37,1.63,1.22,-0.49,0.0,-288.48,7.38,8.25
2.2199999999999998,173.48000000000002,2.26,1.02,-0.81,0.0,-289.21,8.6,10.51
2.23,173.48000000000002,2.25,1.48,-0.3,0.0,-290.01,10.31,12.46
2.2399999999999998,174.59,0.91,0.52,-0.32,0.0,-291.29,11.23,13.38
2.2399999999999998,174.59,0.91,0.52,-0.32,0.0,-291.29,11.23,13.38
2.25,175.61,-0.06,0.87,-1.34,0.0,-292.2,13.12,14.72
2.26,177.4,-0.76,1.37,-0.67,0.0,-292.51,14.34,14.05
2.27,179.36,-1.77,1.06,0.01,0.0,-291.41,15.81,12.77
2.28,179.96,-3.06,1.24,-1.65,0.0,-290.68,17.03,11.24
2.29,181.41,-1.66,1.11,-0.51,0.0,-289.76,15.81,10.33
2.3,181.92000000000002,-0.74,0.77,-0.58,0.0,-289.64,15.2,8.19
2.3099999999999996,183.03,-1.01,1.17,0.44,0.0,-288.72,13.91,5.87
2.32,182.6,-1.13,0.66,-0.75,0.0,-288.17,13.18,3.43
2.3299999999999996,182.69,-1.4,0.47,0.3,0.0,-287.44,10.92,2.21
2.34,183.63,-2.09,1.3,1.16,0.0,-286.65,10.25,0.26
2.3499999999999996,183.97,-2.39,0.64,-1.36,0.0,-287.75,8.24,-1.39
2.36,184.99,-3.04,0.52,1.28,0.0,-287.32,5.55,-1.88
2.3699999999999997,186.53,-3.07,0.97,-0.73,0.0,-285.73,5.0,-2.8
2.38,187.55,-3.14,0.2,0.4,0.0,-283.96,2.32,-2.67
2.3899999999999997,188.82999999999998,-3.46,1.85,0.09,0.0,-281.89,1.59,-2.12
2.4,190.28000000000003,-3.22,0.02,0.43,0.0,-277.43,-0.61,-2.25
2.4099999999999997,191.05,-3.55,1.26,1.09,0.0,-273.16,-1.47,-1.58
2.42,192.32999999999998,-3.7,0.68,0.26,0.0,-267.97,-2.02,-0.78
2.4299999999999997,193.35000000000002,-3.6,1.12,1.05,0.0,-265.83,-2.75,0.26
2.44,194.45999999999998,-3.86,0.9,0.12,0.0,-263.52,-3.05,1.78
2.4499999999999997,195.49,-3.89,-0.15,-0.02,0.0,-258.2,-4.15,3.98
2.46,197.28000000000003,-4.33,0.36,0.6,0.0,-253.5,-3.24,6.18
2.4699999999999998,197.37,-4.35,-0.2,-0.23,0.0,-251.12,-1.22,8.92
2.48,199.16000000000003,-4.37,0.62,1.64,0.0,-249.23,0.36,11.0
2.4899999999999998,200.10000000000002,-4.41,0.4,0.77,0.0,-247.52,2.74,11.49
2.5,201.20999999999998,-4.58,0.24,0.62,0.0,-245.63,4.33,12.65
2.51,202.24,-4.87,0.33,0.54,0.0,-242.21,5.67,12.59
2.52,203.60000000000002,-4.98,0.59,0.06,0.0,-238.49,6.65,12.04
2.53,203.95,-5.15,0.96,0.09,0.0,-235.19,7.32,11.3
2.54,205.48000000000002,-5.19,0.59,0.07,0.0,-233.0,7.44,9.66
2.55,206.0,-5.33,0.39,0.03,0.0,-230.37,7.57,8.07
2.5599999999999996,207.62,-5.48,0.89,0.05,0.0,-227.44,7.57,7.34
2.5599999999999996,207.62,-5.48,0.89,0.05,0.0,-227.44,7.57,7.34
2.57,208.3,-5.45,1.2,0.67,0.0,-224.45,7.87,5.44
2.5799999999999996,209.32999999999998,-5.39,0.45,-0.5,0.0,-222.8,7.32,3.55
2.59,210.53000000000003,-5.52,1.25,0.67,0.0,-220.97,7.02,2.45
2.5999999999999996,211.20999999999998,-5.16,0.36,0.67,0.0,-217.86,7.26,0.93
2.61,212.15000000000003,-5.17,1.36,0.88,0.0,-215.85,6.35,-0.17
2.6199999999999997,213.78000000000003,-5.31,1.66,0.91,0.0,-214.69,5.8,-1.27
2.63,214.8,-5.44,1.36,0.27,0.0,-213.4,5.8,-2.31
2.6399999999999997,215.49,-5.51,0.91,0.1,0.0,-211.39,5.8,-3.22
2.65,217.03000000000003,-5.6,1.34,0.68,0.0,-208.64,5.25,-3.16
2.6599999999999997,217.54000000000002,-5.34,1.19,-0.44,0.0,-206.02,5.31,-3.59
2.67,218.74,-5.34,1.0,0.31,0.0,-202.84,4.21,-3.41
2.6799999999999997,219.85000000000002,-5.43,0.64,0.68,0.0,-200.28,4.15,-3.1
2.69,220.97000000000003,-5.42,1.31,0.79,0.0,-198.08,4.45,-2.61
2.6999999999999997,222.42000000000002,-5.41,1.02,0.42,0.0,-195.95,4.15,-2.73
2.71,223.79000000000002,-5.44,1.62,0.62,0.0,-194.24,4.03,-2.12
2.7199999999999998,224.56,-5.54,1.17,0.69,0.0,-192.53,4.03,-2.06
2.73,226.26999999999998,-5.49,1.32,0.36,0.0,-190.88,3.72,-1.51
2.7399999999999998,227.13,-5.38,1.14,0.98,0.0,-188.56,3.54,-0.72
2.75,228.67000000000002,-5.32,0.68,0.06,0.0,-186.91,3.48,0.07
2.76,229.79000000000002,-5.63,2.17,0.44,0.0,-185.2,2.68,1.72
2.77,230.64,-5.56,1.41,-0.04,0.0,-183.13,2.5,1.78
2.78,231.5,-5.4,1.55,0.69,0.0,-181.42,2.32,3.19
2.79,233.47000000000003,-5.41,0.87,0.13,0.0,-179.41,2.62,5.57
2.8,234.41000000000003,-5.32,1.4,1.0,0.0,-177.76,2.56,6.73
2.8099999999999996,235.61,-5.45,1.36,0.85,0.0,-176.05,3.11,5.75
2.82,236.56,-5.51,2.0,-0.43,0.0,-174.4,2.93,6.54
2.8299999999999996,237.59000000000003,-5.49,1.04,0.11,0.0,-173.3,2.2,6.05
2.84,238.62,-5.4,1.75,0.38,0.0,-172.26,2.99,7.28
2.8499999999999996,239.99,-5.36,1.24,0.53,0.0,-171.65,4.15,7.58
2.86,240.84000000000003,-5.33,0.88,-0.21,0.0,-170.68,5.0,8.25
2.8699999999999997,242.22000000000003,-5.33,1.04,0.49,0.0,-169.64,5.25,8.56
2.88,243.32999999999998,-5.5,2.03,1.25,0.0,-169.21,6.9,8.19
2.88,243.32999999999998,-5.5,2.03,1.25,0.0,-169.21,6.9,8.19
2.8899999999999997,244.01999999999998,-5.47,0.71,-0.52,0.0,-167.32,7.44,6.3
2.9,245.22000000000003,-5.48,1.82,0.77,0.0,-165.92,6.71,6.18
2.9099999999999997,246.16000000000003,-5.42,0.62,0.21,0.0,-164.51,6.65,4.83
2.92,247.28000000000003,-5.53,1.41,0.65,0.0,-164.51,6.22,3.8
2.9299999999999997,248.40000000000003,-5.53,1.02,0.07,0.0,-166.28,5.98,2.21
2.94,249.25,-5.62,1.57,-0.22,0.0,-169.21,4.52,1.05
2.9499999999999997,250.37,-5.48,1.11,0.0,0.0,-170.86,2.68,-0.96
2.96,251.74,-5.37,1.13,0.22,0.0,-168.91,2.2,-1.39
2.9699999999999998,252.34000000000003,-5.41,1.15,0.64,0.0,-167.14,1.95,-2.19
2.98,253.63,-5.54,1.7,0.81,0.0,-166.16,2.2,-2.92
2.9899999999999998,255.01,-5.33,0.71,0.32,0.0,-164.64,1.71,-2.92
3.0,256.21,-5.45,1.39,0.5,0.0,-163.17,1.1,-2.61
3.01,256.90000000000003,-5.45,1.75,-0.05,0.0,-161.58,0.36,-2.86
3.02,258.96,-5.36,1.82,0.63,0.0,-160.85,-0.67,-2.86
3.03,259.73,-5.28,0.49,-0.44,0.0,-160.36,-1.47,-1.45
3.04,260.76,-5.21,1.37,0.62,0.0,-160.73,-2.38,0.56
3.05,261.79,-5.22,1.02,0.15,0.0,-159.2,-2.5,1.35
3.0599999999999996,263.17,-5.31,0.91,0.19,0.0,-156.27,-2.32,2.39
3.07,264.2,-5.22,1.48,0.25,0.0,-154.32,-2.2,3.98
3.0799999999999996,265.32,-5.21,1.27,0.37,0.0,-153.04,-1.59,4.41
3.09,267.04,-5.23,0.97,-0.27,0.0,-150.84,-1.34,5.81
3.0999999999999996,267.3,-5.23,0.96,-0.06,0.0,-149.56,-1.1,6.85
3.11,268.5,-5.16,1.07,0.07,0.0,-148.95,-0.25,7.4
3.1199999999999997,269.53000000000003,-5.24,1.24,0.12,0.0,-149.99,1.28,7.09
3.13,270.99,-5.21,1.27,0.36,0.0,-150.66,2.87,6.91
3.1399999999999997,271.68,-5.21,1.08,-0.18,0.0,-151.57,4.33,5.99
3.15,273.32,-5.16,1.36,0.63,0.0,-152.18,5.61,5.26
3.1599999999999997,273.57,-5.26,2.25,0.06,0.0,-152.79,6.96,3.92
3.17,275.29,-5.23,0.56,-0.47,0.0,-152.24,7.26,2.64
3.1799999999999997,275.55,-5.09,1.15,0.41,0.0,-151.76,7.63,2.33
3.19,277.88,-5.19,1.38,0.56,0.0,-151.63,8.3,1.54
3.1999999999999997,278.74,-5.29,0.97,-0.49,0.0,-150.17,8.79,0.74
3.1999999999999997,278.74,-5.29,0.97,-0.49,0.0,-150.17,8.79,0.74
3.21,279.17,-5.14,0.98,-0.28,0.0,-148.52,8.12,0.62
3.2199999999999998,280.98,-5.06,2.17,1.27,0.0,-147.97,8.67,-0.29
3.23,282.01,-5.24,1.0,-0.36,0.0,-145.84,9.46,-1.45
3.2399999999999998,284.16,-5.09,1.33,0.7,0.0,-143.58,8.12,-0.42
3.25,284.85,-5.17,1.1,0.1,0.0,-142.42,7.38,-0.23
3.26,284.33,-5.22,1.27,0.06,0.0,-141.38,5.92,0.44
3.27,286.92,-5.14,1.19,0.19,0.0,-140.65,4.45,1.23
3.28,287.09000000000003,-5.07,1.1,-0.34,0.0,-139.79,3.17,1.84
3.29,287.52,-5.18,1.16,-0.09,0.0,-138.57,1.65,2.03
3.3,288.47,-4.99,1.27,0.07,0.0,-135.83,0.55,2.33
3.3099999999999996,291.05,-4.96,0.65,-0.32,0.0,-133.26,-0.49,2.33
3.32,291.57,-5.09,1.24,0.09,0.0,-131.37,-0.86,2.88
3.3299999999999996,292.69,-5.04,1.78,0.42,0.0,-130.21,-0.37,2.58
3.34,294.76,-4.97,1.04,0.3,0.0,-128.75,0.3,2.33
3.3499999999999996,294.16,-4.98,0.91,-0.18,0.0,-126.3,0.0,3.31
3.36,295.88,-4.98,0.98,-0.01,0.0,-124.29,-0.06,3.37
3.3699999999999997,297.09000000000003,-4.99,1.15,0.01,0.0,-123.5,0.12,3.37
3.38,297.18,-4.92,1.1,-0.13,0.0,-123.31,0.43,3.31
3.3899999999999997,299.33,-4.94,1.34,0.06,0.0,-123.01,0.73,3.0
3.4,299.94,-4.85,0.55,-0.04,0.0,-123.5,1.59,3.06
3.4099999999999997,300.71,-5.05,1.38,0.66,0.0,-124.59,2.56,2.94
3.42,302.61,-5.07,1.47,-0.06,0.0,-125.82,3.42,1.6
3.4299999999999997,304.16,-5.06,1.4,-0.04,0.0,-126.12,3.6,0.5
3.44,303.99,-4.94,0.96,0.15,0.0,-125.45,3.48,0.13
3.4499999999999997,305.37,-4.76,1.7,0.22,0.0,-124.59,3.9,0.38
3.46,306.32,-4.78,0.94,-0.41,0.0,-122.09,3.72,0.2
3.4699999999999998,308.05,-4.84,1.3,0.12,0.0,-120.38,3.29,1.29
3.48,308.48,-4.87,0.96,-0.1,0.0,-119.41,3.48,1.6
3.4899999999999998,309.95,-4.9,1.39,-0.25,0.0,-118.25,3.29,1.35
3.5,310.81,-4.87,0.59,-0.4,0.0,-116.42,2.99,1.23
3.51,311.67,-4.84,1.58,0.53,0.0,-116.9,3.42,1.6
3.52,312.11,-4.78,1.26,-0.19,0.0,-117.51,4.15,1.11
3.52,312.11,-4.78,1.26,-0.19,0.0,-117.51,4.15,1.11
3.53,313.66,-4.86,1.36,0.05,0.0,-118.12,4.58,0.32
3.54,314.26,-4.93,1.35,-0.26,0.0,-117.58,4.7,0.38
3.55,316.08,-4.83,1.11,-0.37,0.0,-116.23,4.39,0.2
3.5599999999999996,317.63,-4.73,1.63,0.22,0.0,-116.23,4.39,0.38
3.57,317.81,-4.74,0.19,-0.22,0.0,-114.83,4.7,0.44
3.5799999999999996,318.84000000000003,-4.84,1.58,0.15,0.0,-112.51,4.88,1.6
3.59,319.88,-4.67,0.47,-0.37,0.0,-110.43,4.82,0.99
3.5999999999999996,321.0,-4.7,1.59,0.44,0.0,-109.88,4.76,1.11
3.61,321.87,-4.8,1.07,-0.54,0.0,-109.76,4.88,0.87
3.6199999999999997,322.65000000000003,-4.75,1.5,0.07,0.0,-109.03,4.64,1.05
3.63,323.94,-4.72,1.11,-0.14,0.0,-108.05,4.58,0.56
3.6399999999999997,325.07,-4.78,1.42,0.02,0.0,-108.11,4.39,0.38
3.65,326.02,-4.7,1.34,-0.14,0.0,-107.38,4.45,0.07
3.6599999999999997,327.23,-4.69,1.13,-0.01,0.0,-107.5,4.45,-0.11
3.67,327.32,-4.64,0.96,-0.32,0.0,-107.5,4.58,-0.17
3.6799999999999997,329.05,-4.64,1.14,-0.09,0.0,-107.2,4.33,0.2
3.69,330.17,-4.67,1.08,-0.3,0.0,-106.47,4.15,0.26
3.6999999999999997,331.04,-4.66,1.26,-0.06,0.0,-105.8,3.9,0.32
3.71,332.51,-4.53,1.09,0.11,0.0,-105.0,3.48,0.38
3.7199999999999998,332.85,-4.62,0.86,-0.27,0.0,-103.17,3.17,0.81
3.73,334.15000000000003,-4.55,1.37,-0.15,0.0,-101.89,2.87,1.17
3.7399999999999998,335.54,-4.64,1.11,-0.07,0.0,-101.95,2.99,1.29
3.75,336.23,-4.57,1.31,0.2,0.0,-102.01,2.99,1.72
3.76,337.01,-4.57,0.94,-0.15,0.0,-101.83,2.81,1.9
3.77,337.87,-4.56,1.41,0.13,0.0,-101.4,2.2,2.51
3.78,338.65000000000003,-4.65,0.87,-0.01,0.0,-100.36,1.59,2.27
3.79,339.86,-4.54,0.8,-0.32,0.0,-99.33,1.22,2.58
3.8,341.08,-4.64,1.15,0.01,0.0,-99.26,0.79,2.64
3.8099999999999996,342.2,-4.62,0.99,-0.27,0.0,-98.84,0.97,2.7
3.82,342.64,-4.53,1.13,-0.06,0.0,-99.2,1.16,2.51
3.8299999999999996,344.71,-4.49,0.96,0.03,0.0,-99.75,0.79,2.45
3.84,345.32,-4.36,1.17,-0.22,0.0,-100.24,0.55,2.64
3.84,345.32,-4.36,1.17,-0.22,0.0,-100.24,0.55,2.64
3.8499999999999996,346.27,-4.48,0.93,-0.31,0.0,-100.06,0.43,2.7
3.86,346.88,-4.48,1.33,-0.06,0.0,-100.3,0.67,2.64
3.8699999999999997,347.57,-4.46,0.94,-0.29,0.0,-102.26,1.16,2.45
3.88,348.96,-4.5,1.27,-0.21,0.0,-102.13,1.71,2.39
3.8899999999999997,349.91,-4.34,1.33,0.11,0.0,-103.48,2.13,1.84
3.9,350.52,-4.3,0.75,-0.25,0.0,-104.51,2.74,1.54
3.9099999999999997,351.65000000000003,-4.39,1.31,0.26,0.0,-106.53,2.99,1.54
3.92,352.69,-4.35,0.89,-0.13,0.0,-108.6,3.48,0.68
3.9299999999999997,353.99,-4.46,1.2,-0.12,0.0,-111.11,4.03,0.44
3.94,355.12,-4.43,0.94,-0.19,0.0,-113.43,4.27,-0.17
3.9499999999999997,355.55,-4.54,1.15,-0.11,0.0,-115.81,4.58,-0.48
3.96,356.94,-4.38,0.96,-0.29,0.0,-117.76,4.94,-0.78
3.9699999999999998,357.37,-4.21,0.5,0.13,0.0,-119.53,4.82,-1.45
3.98,358.76,-4.44,1.23,-0.1,0.0,-120.08,5.0,-1.76
3.9899999999999998,359.45,-4.33,1.19,-0.61,0.0,-120.44,4.52,-2.37
4.0,360.06,-4.3,0.69,0.29,0.0,-120.38,3.97,-2.92
4.01,361.27,-4.27,0.92,-0.32,0.0,-119.22,4.09,-2.37
4.0200000000000005,362.66,-4.28,1.3,-0.16,0.0,-118.74,4.21,-2.19
4.03,363.27,-4.23,0.86,-0.16,0.0,-118.06,3.84,-1.82
4.04,363.97,-4.24,1.17,0.13,0.0,-117.33,3.66,-1.51
4.05,365.44,-4.2,1.36,-0.15,0.0,-116.78,3.6,-1.09
4.06,366.05,-4.27,1.35,-0.25,0.0,-116.17,3.42,-0.9
4.07,367.52,-4.2,1.07,-0.27,0.0,-115.01,3.29,-0.23
4.08,368.31,-4.09,1.02,-0.44,0.0,-113.91,3.17,0.68
4.09,369.17,-4.12,1.27,-0.4,0.0,-112.51,3.05,1.6
4.1,369.87,-4.07,1.15,-0.17,0.0,-111.53,3.05,2.09
4.11,370.65000000000003,-4.07,1.13,0.02,0.0,-110.86,3.23,2.58
4.12,371.78000000000003,-4.08,1.29,-0.2,0.0,-110.43,3.78,2.94
4.13,372.47,-3.99,-0.1,0.55,0.0,-110.68,4.52,3.49
4.14,373.43,-3.96,1.09,0.42,0.0,-113.97,5.86,4.89
4.15,374.39,-4.17,1.31,-0.68,0.0,-118.8,5.43,3.74
4.16,375.34000000000003,-4.1,0.85,-0.64,0.0,-119.71,3.48,2.76
4.16,375.34000000000003,-4.1,0.85,-0.64,0.0,-119.71,3.48,2.76
4.17,376.65000000000003,-4.07,1.54,0.64,0.0,-119.96,2.5,1.42
4.18,377.43,-3.98,0.77,-0.93,0.0,-120.02,2.62,0.26
4.19,377.86,-3.84,1.54,-0.23,0.0,-120.26,1.71,-0.17
4.2,378.64,-3.89,0.85,-0.18,0.0,-121.18,1.4,-0.84
4.21,380.12,-3.97,0.93,-0.18,0.0,-121.73,1.65,-1.15
4.22,381.16,-4.01,0.89,-0.6,0.0,-121.97,2.07,-1.21
4.23,381.51,-3.92,1.13,-0.41,0.0,-122.21,2.56,-1.21
4.24,382.38,-3.87,1.6,-0.08,0.0,-122.58,2.99,-1.58
4.25,383.77,-3.96,0.85,-0.28,0.0,-121.67,3.66,-1.88
4.26,384.64,-3.89,1.0,0.34,0.0,-120.38,4.58,-1.58
4.2700000000000005,385.77,-3.86,0.78,-0.11,0.0,-119.22,5.61,-1.21
4.28,386.73,-3.91,0.56,-0.48,0.0,-118.12,5.92,-1.21
4.29,388.12,-3.91,0.98,-0.18,0.0,-117.58,6.65,-0.48
4.3,388.91,-3.77,1.07,-0.4,0.0,-117.76,7.63,-0.84
4.31,389.6,-3.81,1.06,-0.51,0.0,-117.58,8.24,-0.6
4.319999999999999,390.38,-3.86,1.12,-0.09,0.0,-116.35,8.67,-0.42
4.33,390.99,-3.85,1.15,-0.31,0.0,-115.62,9.46,-0.11
4.34,392.3,-3.73,0.79,-0.24,0.0,-114.77,10.07,-0.05
4.35,393.08,-3.74,0.97,-0.57,0.0,-113.67,10.56,0.56
4.359999999999999,393.95,-3.75,1.01,0.0,0.0,-112.75,10.74,0.68
4.37,394.82,-3.71,0.87,-0.34,0.0,-112.08,11.11,1.11
4.38,395.52,-3.85,1.12,-0.04,0.0,-111.29,11.29,1.23
4.39,396.65000000000003,-3.74,0.76,-0.13,0.0,-109.88,11.66,1.48
4.3999999999999995,397.35,-3.56,0.73,0.08,0.0,-108.66,11.05,1.72
4.41,397.96,-3.66,0.63,-0.02,0.0,-107.5,10.62,2.21
4.42,399.0,-3.72,1.36,-0.57,0.0,-107.38,9.95,2.15
4.43,399.87,-3.82,0.74,-0.44,0.0,-107.38,8.73,1.54
4.4399999999999995,400.31,-3.74,1.02,0.11,0.0,-107.32,7.81,1.84
4.45,401.96,-3.67,0.85,-0.19,0.0,-107.08,6.83,1.78
4.46,402.66,-3.66,1.09,0.04,0.0,-106.41,6.16,1.78
4.47,403.45,-3.71,0.88,-0.27,0.0,-106.16,5.19,1.97
4.4799999999999995,403.97,-3.61,0.97,-0.4,0.0,-105.43,3.78,2.03
4.4799999999999995,403.97,-3.61,0.97,-0.4,0.0,-105.43,3.78,2.03
4.49,405.01,-3.65,1.15,-0.31,0.0,-105.12,2.26,2.03
4.5,406.32,-3.6,1.01,-0.23,0.0,-105.25,1.46,1.84
4.51,407.45,-3.6,1.01,-0.38,0.0,-105.67,1.46,2.09
4.52,407.98,-3.7,1.08,-0.28,0.0,-105.73,1.04,2.21
4.53,408.5,-3.6,0.83,-0.16,0.0,-105.55,0.61,2.27
4.54,409.90000000000003,-3.57,0.74,0.32,0.0,-105.19,0.3,2.39
4.55,410.42,-3.53,0.7,-0.06,0.0,-105.31,0.67,2.51
4.56,411.46,-3.67,0.77,-0.45,0.0,-105.61,0.73,2.51
4.569999999999999,412.69,-3.64,1.02,-0.71,0.0,-105.67,0.43,2.21
4.58,412.69,-3.47,1.16,-0.46,0.0,-106.59,0.24,1.6
4.59,413.91,-3.47,1.02,-0.31,0.0,-106.04,1.22,1.11
4.6,414.95,-3.53,1.37,-0.33,0.0,-105.12,2.5,0.93
4.609999999999999,416.0,-3.47,0.77,-0.62,0.0,-104.15,3.54,0.5
4.62,416.79,-3.47,1.31,-0.04,0.0,-103.72,4.64,0.2
4.63,417.66,-3.55,0.99,-0.55,0.0,-101.95,6.47,-0.54
4.64,418.62,-3.52,0.96,-0.7,0.0,-102.01,7.57,-0.78
4.6499999999999995,419.49,-3.51,1.19,-0.05,0.0,-101.83,8.85,-1.15
4.66,420.71,-3.47,1.48,-0.17,0.0,-101.16,10.8,-2.0
4.67,421.5,-3.4,0.97,0.0,0.0,-99.33,11.96,-2.73
4.68,422.28000000000003,-3.46,1.06,-0.59,0.0,-98.35,13.0,-2.55
4.6899999999999995,422.89,-3.5,0.92,-0.34,0.0,-98.29,13.43,-2.19
4.7,423.5,-3.49,1.19,-0.57,0.0,-98.23,14.34,-1.94
4.71,424.47,-3.46,0.76,-0.12,0.0,-98.17,14.65,-1.76
4.72,425.69,-3.42,0.67,-0.35,0.0,-97.01,15.38,-1.39
4.7299999999999995,426.39,-3.51,1.09,-0.34,0.0,-96.88,15.75,-1.03
4.74,427.78000000000003,-3.48,0.77,-0.26,0.0,-96.52,15.68,-1.39
4.75,428.05,-3.47,0.4,0.17,0.0,-95.85,16.11,-1.27
4.76,428.66,-3.56,0.61,-0.58,0.0,-96.03,16.17,-1.27
4.77,430.05,-3.65,0.85,-0.89,0.0,-96.7,14.46,-2.12
4.78,430.49,-3.53,0.73,-0.16,0.0,-97.19,12.82,-3.04
4.79,431.19,-3.33,0.69,-0.04,0.0,-97.13,12.08,-4.08
4.8,432.15000000000003,-3.48,0.98,-0.05,0.0,-98.78,11.41,-4.93
4.8,432.15000000000003,-3.48,0.98,-0.05,0.0,-98.78,11.41,-4.93
4.81,432.76,-3.51,0.98,-0.25,0.0,-99.69,10.5,-6.03
4.819999999999999,433.55,-3.53,0.9,-0.21,0.0,-100.79,9.15,-6.58
4.83,434.86,-3.48,1.28,-0.01,0.0,-101.28,7.51,-7.31
4.84,435.3,-3.28,0.61,0.04,0.0,-102.26,5.92,-8.04
4.85,436.35,-3.37,0.7,0.31,0.0,-102.07,4.58,-7.8
4.859999999999999,437.22,-3.47,1.25,-0.65,0.0,-102.07,3.23,-7.68
4.87,438.36,-3.38,0.97,-0.33,0.0,-102.26,0.85,-7.56
4.88,439.06,-3.38,1.02,0.11,0.0,-104.21,-0.98,-6.64
4.89,439.76,-3.28,0.6,0.68,0.0,-105.06,-1.59,-5.48
4.8999999999999995,440.63,-3.27,0.45,0.54,0.0,-107.02,-2.2,-4.02
4.91,441.85,-3.34,1.17,-0.13,0.0,-108.3,-3.54,-2.61
4.92,442.47,-3.36,1.14,-0.08,0.0,-109.88,-5.5,-1.82
4.93,443.34,-3.25,0.75,0.2,0.0,-113.61,-7.2,-0.78
4.9399999999999995,443.78000000000003,-3.34,1.12,-0.09,0.0,-116.23,-8.55,0.56
4.95,444.65000000000003,-3.24,0.38,-0.26,0.0,-118.25,-9.58,1.23
4.96,445.00000000000006,-3.21,0.91,-0.02,0.0,-119.59,-10.38,2.39
4.97,446.40000000000003,-3.29,0.9,-0.24,0.0,-121.36,-10.99,2.7
4.9799999999999995,447.01000000000005,-3.17,0.45,0.36,0.0,-121.85,-11.35,3.0
4.99,447.71,-3.15,0.41,-0.25,0.0,-121.24,-10.93,3.61
5.0,448.42,-3.21,0.88,-0.14,0.0,-120.44,-10.81,3.8
5.01,449.03000000000003,-3.11,0.98,-0.01,0.0,-119.04,-10.13,3.25
5.02,450.52000000000004,-3.06,0.91,0.08,0.0,-117.58,-9.1,2.64
5.03,451.04,-3.04,1.3,0.15,0.0,-116.66,-7.88,1.72
5.04,451.65000000000003,-3.09,1.23,-0.71,0.0,-115.5,-6.41,0.68
5.05,452.7,-3.07,1.04,0.07,0.0,-114.28,-5.13,0.13
5.06,453.67,-3.06,0.75,0.24,0.0,-113.79,-3.48,-0.23
5.069999999999999,454.37000000000006,-3.07,1.23,0.47,0.0,-112.45,-1.77,-0.84
5.08,455.59,-3.02,0.8,-0.16,0.0,-111.59,0.18,-1.21
5.09,455.77000000000004,-2.84,0.41,-1.02,0.0,-109.76,1.1,-1.15
5.1,456.56,-2.9,1.65,0.3,0.0,-108.3,1.4,-1.21
5.109999999999999,457.60999999999996,-2.94,0.74,-0.67,0.0,-106.04,3.29,-2.0
5.12,458.40000000000003,-3.05,1.34,0.3,0.0,-104.27,4.33,-2.06
5.12,458.40000000000003,-3.05,1.34,0.3,0.0,-104.27,4.33,-2.06
5.13,459.35999999999996,-2.94,0.1,-0.5,0.0,-101.95,5.19,-2.25
5.14,459.96999999999997,-2.98,0.81,0.01,0.0,-101.89,6.1,-1.7
5.1499999999999995,461.02000000000004,-3.06,0.62,-0.62,0.0,-101.71,7.2,-2.12
5.16,461.98999999999995,-3.06,1.46,-0.18,0.0,-99.94,7.99,-2.55
5.17,462.51000000000005,-2.92,0.74,-0.1,0.0,-98.35,8.6,-3.41
5.18,463.57,-3.06,0.96,-0.89,0.0,-96.7,9.09,-3.04
5.1899999999999995,464.09,-2.9,0.34,-0.06,0.0,-95.3,9.09,-2.92
5.2,464.79,-2.93,0.23,0.22,0.0,-94.2,9.95,-2.49
5.21,465.67,-2.87,1.06,0.34,0.0,-92.37,10.8,-2.12
5.22,466.02000000000004,-3.0,0.77,-0.27,0.0,-91.21,11.29,-2.67
5.2299999999999995,467.07,-2.94,0.91,-0.08,0.0,-91.21,10.98,-3.04
5.24,467.95,-2.91,1.09,-0.1,0.0,-92.49,10.44,-3.35
5.25,468.83,-2.95,0.83,0.06,0.0,-94.38,9.76,-3.53
5.26,469.60999999999996,-2.99,0.41,-0.29,0.0,-95.79,8.91,-2.86
5.27,470.05,-2.94,1.13,-0.13,0.0,-98.35,7.81,-2.06
5.28,470.93,-2.98,1.02,0.05,0.0,-100.67,6.53,-1.7
5.29,471.97999999999996,-2.96,0.8,-0.04,0.0,-102.38,5.31,-0.84
5.3,473.12000000000006,-2.91,0.98,-0.15,0.0,-105.61,3.78,0.2
5.31,473.56,-2.89,0.9,-0.43,0.0,-107.75,2.01,0.93
5.319999999999999,474.34999999999997,-2.92,1.01,-0.23,0.0,-109.58,0.55,2.03
5.33,475.32,-2.85,0.68,-0.1,0.0,-111.23,-0.37,2.82
5.34,475.93,-2.84,0.74,0.08,0.0,-112.88,-1.28,3.86
5.35,476.46,-2.78,0.9,-0.3,0.0,-114.77,-2.2,4.65
5.359999999999999,477.51000000000005,-2.83,0.94,-0.11,0.0,-116.35,-3.05,5.38
5.37,477.68,-2.83,0.67,-0.06,0.0,-116.84,-3.54,5.81
5.38,478.83,-2.83,0.53,-0.12,0.0,-116.29,-3.66,6.73
5.39,479.96999999999997,-2.84,0.79,-0.48,0.0,-115.68,-3.72,7.28
5.3999999999999995,479.96999999999997,-2.83,0.7,-0.06,0.0,-115.99,-4.21,7.34
5.41,480.93,-2.72,0.89,-0.09,0.0,-114.52,-3.54,7.34
5.42,482.25000000000006,-2.69,0.64,-0.13,0.0,-112.94,-3.18,7.15
5.43,483.04,-2.68,0.92,0.16,0.0,-111.29,-2.69,7.28
5.4399999999999995,483.13000000000005,-2.71,0.61,0.18,0.0,-109.09,-1.77,6.91
5.4399999999999995,483.13000000000005,-2.71,0.61,0.18,0.0,-109.09,-1.77,6.91
5.45,483.57,-2.67,1.17,0.1,0.0,-107.38,-0.86,6.91
5.46,484.53000000000003,-2.71,0.64,-0.35,0.0,-106.28,-0.37,6.3
5.47,486.03000000000003,-2.71,0.96,-0.21,0.0,-104.82,-0.37,6.12
5.4799999999999995,486.55,-2.72,0.62,-0.31,0.0,-103.6,-0.06,5.51
5.49,487.34,-2.73,1.22,0.11,0.0,-101.83,0.24,5.2
5.5,488.05,-2.65,0.58,0.2,0.0,-101.64,0.73,4.1
5.51,488.31,-2.65,0.59,0.19,0.0,-100.18,1.28,3.61
5.52,489.28000000000003,-2.61,0.57,-0.11,0.0,-100.18,1.34,3.0
5.53,490.23999999999995,-2.72,1.08,-0.16,0.0,-100.61,1.22,2.39
5.54,491.21,-2.66,0.85,-0.22,0.0,-101.03,1.04,1.54
5.55,491.3,-2.69,0.77,-0.05,0.0,-100.42,0.73,1.11
5.56,492.18,-2.58,0.73,-0.09,0.0,-100.36,0.49,0.74
5.569999999999999,492.88000000000005,-2.68,0.84,-0.31,0.0,-100.42,0.06,0.5
5.58,493.58,-2.66,0.81,0.05,0.0,-100.55,-0.49,0.01
5.59,494.10999999999996,-2.66,0.85,-0.21,0.0,-100.3,-0.61,-0.6
5.6,495.43,-2.66,0.73,-0.23,0.0,-100.24,-0.92,-1.39
5.609999999999999,496.04,-2.6,0.77,0.06,0.0,-100.67,-1.16,-2.06
5.62,497.01000000000005,-2.65,0.58,-0.18,0.0,-100.73,-1.28,-2.67
5.63,497.63000000000005,-2.65,0.6,-0.08,0.0,-100.67,-1.47,-3.1
5.64,498.59,-2.67,0.64,-0.35,0.0,-100.24,-1.34,-3.53
5.6499999999999995,498.77000000000004,-2.66,0.77,-0.16,0.0,-100.18,-1.65,-4.14
5.66,499.46999999999997,-2.6,0.94,-0.1,0.0,-100.06,-2.02,-4.63
5.67,500.26000000000005,-2.58,0.64,-0.16,0.0,-99.69,-2.38,-5.18
5.68,501.22999999999996,-2.61,0.79,0.05,0.0,-98.84,-2.44,-5.18
5.6899999999999995,501.41,-2.54,0.41,-0.27,0.0,-97.62,-2.26,-5.05
5.7,502.64000000000004,-2.52,0.51,-0.01,0.0,-96.21,-2.38,-4.63
5.71,502.72999999999996,-2.53,0.69,-0.33,0.0,-94.99,-2.02,-4.44
5.72,504.40000000000003,-2.54,0.68,-0.39,0.0,-93.59,-1.71,-4.32
5.7299999999999995,504.57,-2.6,0.55,-0.33,0.0,-91.63,-1.59,-4.14
5.74,505.37000000000006,-2.47,0.39,-0.01,0.0,-89.93,-1.34,-4.02
5.75,506.16,-2.44,0.76,-0.08,0.0,-88.09,-0.67,-3.96
5.76,507.21,-2.49,0.66,-0.24,0.0,-86.26,-0.06,-4.26
5.76,507.21,-2.49,0.66,-0.24,0.0,-86.26,-0.06,-4.26
5.77,507.92,-2.45,0.43,-0.28,0.0,-84.62,0.3,-4.14
5.78,508.8,-2.52,0.59,-0.19,0.0,-83.21,0.49,-3.89
5.79,509.23999999999995,-2.48,0.61,-0.12,0.0,-81.87,0.91,-3.89
5.8,510.12000000000006,-2.46,0.72,-0.12,0.0,-79.92,1.4,-3.83
5.81,511.00000000000006,-2.49,0.5,-0.08,0.0,-78.27,1.95,-3.89
5.819999999999999,511.34999999999997,-2.47,0.73,-0.24,0.0,-76.8,2.38,-4.08
5.83,512.1400000000001,-2.47,0.68,-0.37,0.0,-75.28,2.87,-4.2
5.84,513.29,-2.42,0.63,-0.01,0.0,-73.57,3.11,-4.14
5.85,513.9100000000001,-2.48,0.49,-0.44,0.0,-72.04,3.48,-3.83
5.859999999999999,514.4300000000001,-2.49,0.88,-0.27,0.0,-70.7,3.97,-3.53
5.87,514.96,-2.51,0.67,-0.34,0.0,-69.05,4.27,-3.35
5.88,515.5799999999999,-2.42,0.76,-0.17,0.0,-68.2,4.52,-2.86
5.89,516.46,-2.46,0.66,-0.28,0.0,-68.14,4.88,-2.37
5.8999999999999995,517.0799999999999,-2.44,0.61,-0.06,0.0,-68.14,5.06,-2.0
5.91,517.96,-2.49,0.8,-0.19,0.0,-68.2,5.31,-1.64
5.92,518.75,-2.43,0.78,-0.41,0.0,-68.32,5.37,-1.33
5.93,519.19,-2.46,0.93,-0.35,0.0,-68.81,4.94,-1.45
5.9399999999999995,520.0699999999999,-2.35,0.89,0.16,0.0,-68.99,4.82,-1.27
5.95,520.8700000000001,-2.41,0.77,-0.36,0.0,-70.03,4.94,-0.96
5.96,521.3900000000001,-2.47,0.91,-0.36,0.0,-70.52,4.88,-0.29
5.97,522.6300000000001,-2.49,0.69,-0.4,0.0,-70.82,4.7,0.13
5.9799999999999995,523.1600000000001,-2.42,0.68,-0.24,0.0,-71.25,4.64,0.87
5.99,523.8599999999999,-2.34,0.48,-0.11,0.0,-72.1,4.33,1.23
6.0,524.5699999999999,-2.34,0.75,-0.14,0.0,-72.53,4.45,1.54
6.01,525.01,-2.35,0.99,-0.21,0.0,-72.1,4.7,1.84
6.02,525.8,-2.42,0.69,-0.47,0.0,-71.86,4.76,1.84
6.03,526.6800000000001,-2.37,0.86,-0.41,0.0,-71.92,4.7,2.39
6.04,527.48,-2.34,0.79,-0.1,0.0,-71.98,4.58,2.7
6.05,527.8299999999999,-2.38,0.81,-0.06,0.0,-72.35,4.82,3.0
6.06,528.54,-2.35,0.69,-0.2,0.0,-72.65,4.94,3.55
6.069999999999999,528.8900000000001,-2.34,0.49,-0.1,0.0,-72.9,4.88,4.04
6.08,529.6800000000001,-2.33,0.54,-0.17,0.0,-73.08,4.76,4.71
6.08,529.6800000000001,-2.33,0.54,-0.17,0.0,-73.08,4.76,4.71
6.09,531.0899999999999,-2.27,0.79,-0.12,0.0,-73.93,4.39,5.08
6.1,530.8299999999999,-2.26,0.61,-0.25,0.0,-75.34,4.15,5.38
6.109999999999999,531.98,-2.36,0.73,-0.17,0.0,-77.17,3.66,5.63
6.12,531.98,-2.28,0.78,0.09,0.0,-77.96,3.17,5.63
6.13,532.95,-2.2,0.79,-0.04,0.0,-79.18,2.81,5.32
6.14,533.9200000000001,-2.25,0.85,-0.14,0.0,-81.01,2.38,5.26
6.1499999999999995,534.0,-2.32,0.68,-0.24,0.0,-82.3,1.52,4.89
6.16,535.24,-2.32,0.65,-0.15,0.0,-83.21,0.79,4.83
6.17,535.8599999999999,-2.32,0.75,-0.27,0.0,-84.92,0.18,4.53
6.18,536.48,-2.34,0.87,-0.33,0.0,-85.47,-0.37,4.04
6.1899999999999995,537.8,-2.3,0.78,-0.16,0.0,-85.53,-0.98,3.61
6.2,537.98,-2.19,0.69,-0.01,0.0,-85.59,-1.47,3.19
6.21,538.3299999999999,-2.33,0.85,-0.03,0.0,-85.59,-2.02,2.76
6.22,539.21,-2.23,0.53,-0.16,0.0,-85.65,-2.5,2.27
6.2299999999999995,540.27,-2.3,0.83,-0.08,0.0,-85.59,-2.87,1.97
6.24,540.98,-2.26,0.79,-0.09,0.0,-85.9,-3.42,1.48
6.25,541.77,-2.29,0.57,-0.27,0.0,-86.45,-3.91,0.93
6.26,542.3,-2.26,0.99,-0.12,0.0,-87.12,-4.52,0.81
6.27,542.48,-2.24,0.84,-0.31,0.0,-87.36,-4.88,0.5
6.28,543.01,-2.21,0.54,0.0,0.0,-87.24,-5.56,-0.05
6.29,543.98,-2.21,0.6,-0.3,0.0,-86.93,-5.68,-0.11
6.3,544.4200000000001,-2.27,0.95,-0.18,0.0,-86.32,-5.98,-0.42
6.31,545.6600000000001,-2.21,0.67,-0.24,0.0,-85.35,-6.23,-1.03
6.319999999999999,546.28,-2.19,0.72,-0.08,0.0,-84.37,-6.04,-1.51
6.33,546.72,-2.21,0.55,-0.34,0.0,-82.97,-5.86,-1.82
6.34,546.98,-2.19,0.64,-0.06,0.0,-81.69,-5.86,-1.94
6.35,547.8700000000001,-2.17,0.52,-0.16,0.0,-80.47,-5.68,-2.12
6.359999999999999,547.96,-2.18,0.53,-0.1,0.0,-79.55,-5.68,-2.25
6.37,548.49,-2.1,0.8,-0.28,0.0,-78.39,-5.68,-2.49
6.38,549.72,-2.16,0.64,-0.33,0.0,-76.99,-5.5,-2.73
6.39,550.6099999999999,-2.18,0.63,-0.31,0.0,-75.15,-5.37,-2.92
6.3999999999999995,551.1400000000001,-2.12,0.82,-0.33,0.0,-74.0,-5.37,-2.92
6.3999999999999995,551.1400000000001,-2.12,0.82,-0.33,0.0,-74.0,-5.37,-2.92
6.41,551.76,-2.11,0.38,-0.37,0.0,-72.9,-5.25,-3.04
6.42,552.46,-2.14,0.64,-0.13,0.0,-70.94,-4.88,-2.98
6.43,553.3499999999999,-2.18,0.59,-0.05,0.0,-69.48,-4.27,-3.22
6.4399999999999995,553.44,-2.16,0.72,-0.23,0.0,-68.38,-3.6,-3.22
6.45,554.5899999999999,-2.06,0.76,0.04,0.0,-67.28,-3.11,-3.47
6.46,555.3800000000001,-2.09,0.82,-0.12,0.0,-66.18,-2.32,-3.59
6.47,555.8199999999999,-2.06,0.62,-0.15,0.0,-65.08,-1.65,-3.77
6.4799999999999995,556.0,-2.13,0.53,-0.3,0.0,-63.99,-1.16,-3.83
6.49,557.24,-2.06,0.77,-0.34,0.0,-62.7,-0.61,-3.71
6.5,557.77,-1.96,0.51,-0.08,0.0,-61.6,-0.06,-3.65
6.51,558.48,-2.0,0.52,-0.29,0.0,-60.63,0.43,-3.41
6.52,559.27,-2.07,0.59,-0.43,0.0,-59.47,0.85,-3.41
6.53,559.8,-2.11,0.75,-0.44,0.0,-58.0,1.16,-3.22
6.54,560.1600000000001,-1.92,0.57,-0.22,0.0,-57.03,1.46,-2.98
6.55,560.95,-1.96,0.53,-0.17,0.0,-55.99,2.26,-2.61
6.56,561.75,-1.98,0.61,-0.23,0.0,-54.95,3.11,-2.31
6.569999999999999,562.02,-1.99,0.67,-0.32,0.0,-53.91,3.78,-2.25
6.58,562.72,-1.97,0.72,-0.23,0.0,-53.3,4.27,-2.12
6.59,563.78,-1.99,0.73,-0.12,0.0,-52.45,4.76,-2.12
6.6,563.78,-1.93,0.73,-0.23,0.0,-51.66,5.31,-2.06
6.609999999999999,564.76,-1.98,0.76,-0.09,0.0,-51.78,5.49,-1.82
6.62,565.02,-1.99,0.65,-0.15,0.0,-52.08,5.8,-1.51
6.63,566.1700000000001,-1.92,0.57,-0.36,0.0,-52.82,6.04,-1.33
6.64,566.6200000000001,-2.01,0.61,-0.29,0.0,-53.24,6.04,-0.78
6.6499999999999995,566.79,-1.9,0.7,-0.37,0.0,-53.73,6.16,-0.29
6.66,567.8599999999999,-1.94,0.59,-0.23,0.0,-54.1,6.1,0.13
6.67,568.48,-1.91,0.57,-0.24,0.0,-54.28,6.29,0.74
6.68,568.56,-1.93,0.68,-0.35,0.0,-54.71,6.41,1.29
6.6899999999999995,569.54,-1.95,0.66,-0.2,0.0,-55.44,6.22,1.72
6.7,569.8900000000001,-1.96,0.54,-0.19,0.0,-56.11,6.16,1.97
6.71,570.96,-1.82,0.59,0.0,0.0,-57.15,6.29,2.09
6.72,571.22,-1.81,0.67,-0.17,0.0,-57.88,6.41,2.15
6.72,571.22,-1.81,0.67,-0.17,0.0,-57.88,6.41,2.15
6.7299999999999995,572.2,-1.83,0.49,-0.15,0.0,-58.74,6.65,2.27
6.74,572.2,-1.86,0.59,-0.47,0.0,-59.41,6.53,2.39
6.75,573.0799999999999,-1.89,0.63,-0.17,0.0,-60.2,6.29,2.51
6.76,573.44,-1.87,0.56,-0.02,0.0,-61.12,6.22,2.51
6.77,574.94,-1.92,0.65,-0.18,0.0,-62.21,6.29,2.51
6.78,574.76,-1.89,0.83,-0.15,0.0,-63.99,5.67,2.64
6.79,575.3800000000001,-1.9,0.79,-0.15,0.0,-65.14,5.31,2.27
6.8,576.3599999999999,-1.84,0.72,-0.31,0.0,-66.61,4.64,2.21
6.81,576.8900000000001,-1.84,0.81,-0.27,0.0,-67.89,3.6,2.45
6.819999999999999,577.1600000000001,-1.88,0.34,-0.11,0.0,-69.17,2.87,2.51
6.83,578.04,-1.9,0.65,-0.28,0.0,-70.15,2.32,2.76
6.84,578.4000000000001,-1.86,0.58,-0.3,0.0,-71.19,1.52,2.76
6.85,579.46,-1.8,0.49,-0.21,0.0,-72.16,0.85,2.88
6.859999999999999,579.9000000000001,-1.79,0.65,-0.03,0.0,-72.77,0.18,3.06
6.87,580.3499999999999,-1.81,0.58,-0.23,0.0,-73.63,0.0,3.12
6.88,580.97,-1.82,0.64,-0.32,0.0,-74.61,-0.55,3.25
6.89,581.6800000000001,-1.84,0.53,-0.06,0.0,-75.28,-0.86,3.19
6.8999999999999995,582.03,-1.72,0.69,-0.02,0.0,-75.89,-0.92,3.12
6.91,583.01,-1.81,0.56,-0.17,0.0,-76.56,-0.98,3.0
6.92,583.01,-1.85,0.36,-0.06,0.0,-77.23,-1.28,3.06
6.93,584.0699999999999,-1.73,0.49,0.0,0.0,-78.08,-1.53,2.94
6.9399999999999995,584.69,-1.79,0.52,-0.1,0.0,-78.08,-1.83,2.45
6.95,585.4000000000001,-1.77,0.71,-0.33,0.0,-78.21,-2.14,2.21
6.96,585.9300000000001,-1.76,0.61,-0.2,0.0,-78.82,-2.63,1.84
6.97,585.76,-1.78,0.52,-0.08,0.0,-79.12,-2.93,1.54
6.9799999999999995,586.6400000000001,-1.76,0.61,-0.09,0.0,-79.37,-3.18,1.29
6.99,587.3499999999999,-1.74,0.66,-0.11,0.0,-79.24,-3.24,1.05
7.0,587.71,-1.75,0.73,-0.15,0.0,-78.94,-3.48,0.62
7.01,588.1500000000001,-1.68,0.81,-0.21,0.0,-78.33,-3.48,0.26
7.02,588.5899999999999,-1.68,0.79,0.09,0.0,-77.9,-3.66,-0.23
7.03,589.8399999999999,-1.64,0.74,-0.16,0.0,-77.54,-3.6,-0.66
7.04,590.3700000000001,-1.65,0.63,-0.21,0.0,-76.92,-3.72,-0.78
7.04,590.3700000000001,-1.65,0.63,-0.21,0.0,-76.92,-3.72,-0.78
7.05,590.6300000000001,-1.73,0.54,-0.25,0.0,-76.5,-3.79,-0.84
7.06,591.4300000000001,-1.7,0.6,0.06,0.0,-76.5,-3.72,-0.72
7.069999999999999,591.7,-1.68,0.64,-0.04,0.0,-76.13,-3.42,-0.6
7.08,593.03,-1.62,0.61,0.13,0.0,-75.58,-2.87,-0.54
7.09,593.74,-1.58,0.54,-0.05,0.0,-75.64,-2.26,-0.42
7.1,594.27,-1.68,0.6,-0.1,0.0,-74.97,-1.71,-0.42
7.109999999999999,594.54,-1.65,0.57,-0.17,0.0,-74.42,-1.34,-0.23
7.12,594.8900000000001,-1.52,0.46,-0.13,0.0,-74.18,-0.98,-0.17
7.13,595.78,-1.63,0.54,-0.21,0.0,-73.38,-0.49,-0.11
7.14,595.5999999999999,-1.58,0.64,-0.02,0.0,-72.71,0.12,0.01
7.1499999999999995,596.31,-1.56,0.68,-0.18,0.0,-72.16,0.49,0.07
7.16,596.76,-1.58,0.64,-0.1,0.0,-71.25,0.97,0.07
7.17,598.0,-1.61,0.6,-0.07,0.0,-70.7,1.4,0.01
7.18,598.8,-1.58,0.63,-0.09,0.0,-70.15,1.83,0.07
7.1899999999999995,598.53,-1.55,0.6,-0.31,0.0,-69.3,2.13,0.32
7.2,598.98,-1.55,0.69,-0.29,0.0,-69.48,2.44,0.5
7.21,599.8700000000001,-1.57,0.57,-0.24,0.0,-69.84,2.68,0.68
7.22,600.4000000000001,-1.53,0.6,-0.15,0.0,-69.91,2.93,0.93
7.2299999999999995,600.75,-1.52,0.42,-0.19,0.0,-69.91,3.23,1.17
7.24,601.55,-1.53,0.67,-0.11,0.0,-70.15,3.6,1.48
7.25,602.3499999999999,-1.49,0.66,-0.01,0.0,-70.64,3.78,1.54
7.26,602.6200000000001,-1.54,0.61,-0.02,0.0,-71.13,4.15,1.78
7.27,603.24,-1.49,0.54,-0.13,0.0,-71.31,4.58,2.03
7.28,603.4200000000001,-1.52,0.7,-0.2,0.0,-71.61,4.88,2.21
7.29,604.5699999999999,-1.54,0.58,-0.2,0.0,-72.35,5.06,2.51
7.3,604.49,-1.55,0.49,-0.17,0.0,-73.02,5.06,2.82
7.31,605.3700000000001,-1.48,0.6,-0.1,0.0,-73.75,5.13,3.12
7.319999999999999,606.0899999999999,-1.52,0.64,-0.12,0.0,-74.12,5.25,3.25
7.33,606.26,-1.49,0.56,-0.13,0.0,-74.79,5.25,3.19
7.34,607.06,-1.47,0.53,0.2,0.0,-75.7,5.31,3.25
7.35,607.8599999999999,-1.47,0.54,-0.12,0.0,-76.68,5.49,3.37
7.359999999999999,608.1300000000001,-1.47,0.68,0.01,0.0,-77.47,5.49,3.67
7.359999999999999,608.1300000000001,-1.47,0.68,0.01,0.0,-77.47,5.49,3.67
7.37,608.6600000000001,-1.48,0.68,-0.12,0.0,-78.76,5.19,3.74
7.38,609.3700000000001,-1.46,0.45,-0.01,0.0,-80.47,4.88,3.8
7.39,610.44,-1.43,0.53,-0.07,0.0,-81.93,4.7,3.92
7.3999999999999995,610.0799999999999,-1.46,0.57,-0.18,0.0,-83.27,4.52,3.92
7.41,610.3499999999999,-1.51,0.67,-0.12,0.0,-83.88,3.97,3.61
7.42,611.77,-1.49,0.62,-0.12,0.0,-84.37,3.72,3.25
7.43,611.95,-1.5,0.58,-0.23,0.0,-84.68,3.23,3.0
7.4399999999999995,612.4000000000001,-1.41,0.61,-0.1,0.0,-85.1,2.74,2.82
7.45,613.3700000000001,-1.43,0.51,-0.09,0.0,-84.92,2.38,2.76
7.46,613.3700000000001,-1.38,0.62,-0.1,0.0,-84.62,1.95,2.64
7.47,614.0,-1.44,0.67,-0.16,0.0,-84.98,1.46,2.45
7.4799999999999995,614.44,-1.44,0.43,-0.32,0.0,-85.65,0.91,2.39
7.49,614.98,-1.4,0.54,-0.14,0.0,-86.32,0.49,2.51
7.5,615.4200000000001,-1.39,0.47,-0.21,0.0,-87.73,0.0,2.7
7.51,615.5999999999999,-1.39,0.52,-0.06,0.0,-88.83,-0.37,2.82
7.52,616.5799999999999,-1.43,0.63,-0.11,0.0,-89.8,-0.67,2.82
7.53,617.29,-1.41,0.69,-0.23,0.0,-90.6,-0.8,2.88
7.54,617.47,-1.38,0.55,-0.09,0.0,-91.63,-0.98,2.82
7.55,618.44,-1.4,0.45,-0.05,0.0,-92.61,-1.04,2.76
7.56,618.98,-1.36,0.57,-0.01,0.0,-92.98,-1.1,2.76
7.569999999999999,619.0699999999999,-1.35,0.49,0.04,0.0,-93.34,-0.98,2.7
7.58,619.78,-1.33,0.35,-0.11,0.0,-93.59,-0.92,2.88
7.59,620.49,-1.36,0.39,-0.03,0.0,-94.02,-0.86,3.0
7.6,620.76,-1.38,0.41,-0.03,0.0,-94.14,-0.8,3.06
7.609999999999999,620.94,-1.36,0.56,-0.12,0.0,-94.02,-0.61,3.19
7.62,622.0,-1.36,0.48,-0.14,0.0,-93.34,-0.43,2.82
7.63,622.27,-1.34,0.51,-0.08,0.0,-92.61,-0.25,2.7
7.64,622.54,-1.3,0.52,-0.18,0.0,-91.76,0.0,2.51
7.6499999999999995,622.98,-1.35,0.55,-0.15,0.0,-91.02,0.06,2.39
7.66,624.05,-1.31,0.55,-0.19,0.0,-90.48,0.24,2.45
7.67,624.4100000000001,-1.34,0.52,-0.11,0.0,-89.68,0.3,2.33
7.68,625.21,-1.32,0.38,0.03,0.0,-89.25,0.36,2.27
7.68,625.21,-1.32,0.38,0.03,0.0,-89.25,0.36,2.27
7.6899999999999995,625.56,-1.31,0.53,0.03,0.0,-88.77,0.36,2.21
7.7,625.6500000000001,-1.26,0.6,-0.08,0.0,-88.03,0.73,2.09
7.71,627.1700000000001,-1.25,0.72,-0.12,0.0,-87.42,0.79,1.84
7.72,626.6300000000001,-1.36,0.45,-0.19,0.0,-87.0,0.91,1.42
7.7299999999999995,627.4300000000001,-1.25,0.45,0.0,0.0,-86.69,0.97,1.42
7.74,628.06,-1.23,0.42,-0.06,0.0,-86.69,1.22,1.42
7.75,628.24,-1.26,0.33,-0.18,0.0,-86.81,1.22,1.35
7.76,628.95,-1.27,0.51,-0.11,0.0,-86.63,1.4,1.48
7.77,629.3,-1.23,0.47,-0.22,0.0,-86.02,1.59,1.42
7.78,629.6600000000001,-1.22,0.58,-0.11,0.0,-85.47,1.83,1.29
7.79,630.2,-1.24,0.46,-0.16,0.0,-85.1,2.07,1.23
7.8,631.26,-1.22,0.31,0.06,0.0,-84.43,2.13,1.11
7.81,631.44,-1.25,0.41,-0.03,0.0,-83.88,2.38,1.11
7.819999999999999,631.98,-1.2,0.55,-0.23,0.0,-83.52,2.56,0.81
7.83,632.4200000000001,-1.23,0.48,-0.19,0.0,-83.09,2.74,0.62
7.84,632.96,-1.21,0.54,0.01,0.0,-82.72,2.87,0.44
7.85,633.31,-1.23,0.67,0.01,0.0,-81.81,3.29,0.2
7.859999999999999,633.8499999999999,-1.2,0.66,-0.03,0.0,-81.2,3.48,0.13
7.87,634.74,-1.16,0.5,-0.13,0.0,-80.89,3.72,0.01
7.88,635.1800000000001,-1.2,0.5,-0.19,0.0,-80.53,3.78,0.07
7.89,635.6300000000001,-1.24,0.53,-0.05,0.0,-80.22,3.78,0.13
7.8999999999999995,636.0799999999999,-1.19,0.63,-0.11,0.0,-79.85,4.03,0.2
7.91,636.8800000000001,-1.19,0.56,-0.26,0.0,-79.55,4.09,0.13
7.92,636.7,-1.18,0.45,-0.23,0.0,-79.61,4.15,0.2
7.93,637.1500000000001,-1.14,0.47,-0.14,0.0,-79.55,4.03,0.44
7.9399999999999995,637.77,-1.12,0.51,-0.14,0.0,-79.18,4.27,0.5
7.95,638.3,-1.13,0.41,-0.06,0.0,-79.0,4.33,0.5
7.96,638.6600000000001,-1.15,0.5,-0.21,0.0,-78.94,4.64,0.56
7.97,639.46,-1.15,0.41,-0.05,0.0,-78.82,4.76,0.68
7.9799999999999995,640.27,-1.1,0.49,0.0,0.0,-78.76,4.94,0.74
7.99,640.0899999999999,-1.11,0.4,-0.12,0.0,-78.69,5.13,0.93
8.0,640.6200000000001,-1.13,0.53,0.0,0.0,-79.12,5.25,0.99
8.0,640.6200000000001,-1.13,0.53,0.0,0.0,-79.12,5.25,0.99
8.01,641.1600000000001,-1.12,0.52,-0.19,0.0,-79.49,5.25,1.05
8.02,641.78,-1.13,0.45,-0.11,0.0,-79.98,5.19,1.17
8.030000000000001,642.05,-1.08,0.39,-0.1,0.0,-80.53,5.19,1.42
8.040000000000001,642.05,-1.09,0.41,-0.12,0.0,-80.89,5.25,1.6
8.05,643.1200000000001,-1.13,0.34,-0.13,0.0,-81.01,5.19,1.6
8.06,643.8299999999999,-1.04,0.39,-0.06,0.0,-80.95,5.13,1.84
8.07,644.55,-1.11,0.44,0.02,0.0,-81.38,4.94,1.97
8.08,644.46,-1.08,0.49,-0.16,0.0,-81.14,4.94,2.09
8.09,645.0799999999999,-1.14,0.58,-0.08,0.0,-81.44,4.94,2.09
8.1,645.44,-1.07,0.55,-0.17,0.0,-81.93,4.82,2.09
8.11,646.1500000000001,-1.1,0.52,-0.07,0.0,-82.66,4.64,2.09
8.120000000000001,646.1500000000001,-1.05,0.35,-0.03,0.0,-83.27,4.64,2.09
8.13,646.95,-1.07,0.38,0.06,0.0,-83.46,4.58,2.21
8.14,647.49,-1.04,0.29,-0.13,0.0,-83.7,4.64,2.39
8.15,647.94,-1.08,0.53,-0.14,0.0,-83.82,4.64,2.58
8.16,648.9200000000001,-1.02,0.49,-0.18,0.0,-83.94,4.7,2.76
8.17,648.74,-1.0,0.38,-0.02,0.0,-84.37,4.58,2.82
8.18,649.45,-1.01,0.45,-0.11,0.0,-84.86,4.52,2.7
8.19,649.45,-1.0,0.45,-0.07,0.0,-85.16,4.52,2.76
8.200000000000001,650.3499999999999,-1.07,0.47,-0.18,0.0,-85.23,4.52,2.82
8.21,651.3299999999999,-1.03,0.46,-0.09,0.0,-85.35,4.27,2.7
8.22,651.3299999999999,-1.01,0.5,-0.09,0.0,-85.65,4.27,2.7
8.23,651.51,-1.01,0.44,-0.1,0.0,-85.9,4.09,2.7
8.24,652.31,-0.98,0.46,-0.16,0.0,-86.02,4.09,2.7
8.25,652.49,-1.02,0.51,-0.08,0.0,-86.2,3.9,2.76
8.26,653.29,-0.98,0.46,0.01,0.0,-86.63,3.84,2.76
8.27,654.01,-0.97,0.45,-0.03,0.0,-86.75,3.9,2.7
8.280000000000001,654.01,-1.01,0.47,-0.14,0.0,-87.0,3.78,2.58
8.290000000000001,654.99,-1.02,0.45,-0.09,0.0,-87.3,3.66,2.58
8.3,654.81,-0.97,0.44,-0.11,0.0,-87.55,3.54,2.39
8.31,655.4300000000001,-0.96,0.5,-0.17,0.0,-87.91,3.48,2.33
8.32,656.06,-1.03,0.49,-0.12,0.0,-87.97,3.36,2.45
8.32,656.06,-1.03,0.49,-0.12,0.0,-87.97,3.36,2.45
8.33,656.1500000000001,-0.99,0.43,-0.08,0.0,-88.34,3.23,2.21
8.34,656.5899999999999,-0.98,0.31,-0.17,0.0,-88.46,3.17,2.15
8.350000000000001,657.5799999999999,-0.98,0.34,-0.21,0.0,-88.83,3.17,2.15
8.360000000000001,657.49,-0.97,0.36,-0.18,0.0,-89.07,3.05,2.09
8.370000000000001,657.9300000000001,-0.97,0.31,-0.16,0.0,-89.13,2.99,1.97
8.38,658.8299999999999,-0.93,0.39,0.01,0.0,-89.13,2.93,2.03
8.39,659.27,-0.96,0.38,0.0,0.0,-88.95,2.93,1.97
8.4,659.27,-0.9,0.32,-0.01,0.0,-88.52,3.05,1.84
8.41,659.6300000000001,-0.94,0.33,-0.16,0.0,-88.09,3.11,1.84
8.42,660.52,-0.91,0.46,-0.05,0.0,-87.67,3.11,1.9
8.430000000000001,660.3499999999999,-0.89,0.34,-0.2,0.0,-87.12,3.23,1.84
8.440000000000001,660.8800000000001,-0.94,0.44,-0.13,0.0,-86.69,3.36,1.78
8.450000000000001,661.4200000000001,-0.9,0.35,-0.12,0.0,-86.69,3.42,1.84
8.46,661.78,-0.9,0.49,-0.06,0.0,-86.63,3.54,1.72
8.47,661.95,-0.89,0.44,0.07,0.0,-86.57,3.54,1.48
8.48,663.03,-0.85,0.57,-0.02,0.0,-86.51,3.78,1.29
8.49,663.29,-0.82,0.56,-0.11,0.0,-86.57,3.9,1.17
8.5,663.56,-0.88,0.48,-0.06,0.0,-86.32,4.03,0.99
8.510000000000002,663.8299999999999,-0.85,0.38,-0.03,0.0,-86.45,4.03,0.87
8.520000000000001,664.3700000000001,-0.9,0.48,-0.04,0.0,-86.57,4.21,0.81
8.530000000000001,664.0999999999999,-0.94,0.52,-0.03,0.0,-86.45,4.45,0.56
8.540000000000001,665.0799999999999,-0.9,0.44,0.01,0.0,-86.32,4.52,0.26
8.55,665.8,-0.83,0.45,-0.01,0.0,-86.51,4.7,0.01
8.56,666.0699999999999,-0.91,0.5,-0.09,0.0,-86.69,4.82,-0.23
8.57,666.24,-0.83,0.4,-0.02,0.0,-86.63,4.7,-0.54
8.58,666.96,-0.83,0.45,0.06,0.0,-86.57,4.82,-0.84
8.59,667.76,-0.84,0.36,-0.08,0.0,-86.81,4.88,-0.96
8.600000000000001,668.5699999999999,-0.8,0.47,-0.03,0.0,-87.24,4.88,-1.15
8.610000000000001,668.1200000000001,-0.87,0.4,-0.14,0.0,-87.85,4.82,-1.33
8.620000000000001,669.0999999999999,-0.81,0.42,-0.17,0.0,-88.52,4.7,-1.51
8.63,669.19,-0.85,0.41,-0.09,0.0,-89.01,4.7,-1.58
8.64,669.73,-0.82,0.33,-0.03,0.0,-89.5,4.64,-1.76
8.64,669.73,-0.82,0.33,-0.03,0.0,-89.5,4.64,-1.76
8.65,670.45,-0.77,0.33,0.0,0.0,-89.93,4.64,-1.82
8.66,670.45,-0.74,0.41,-0.08,0.0,-90.41,4.7,-1.88
8.67,670.8900000000001,-0.78,0.38,-0.02,0.0,-90.84,4.64,-2.06
8.680000000000001,671.97,-0.79,0.29,-0.02,0.0,-91.15,4.64,-2.19
8.690000000000001,671.6099999999999,-0.79,0.34,-0.07,0.0,-91.27,4.64,-2.31
8.700000000000001,672.23,-0.78,0.24,0.0,0.0,-91.76,4.52,-2.37
8.71,672.8599999999999,-0.77,0.35,0.06,0.0,-92.12,4.45,-2.49
8.72,672.6800000000001,-0.76,0.32,-0.11,0.0,-92.18,4.45,-2.55
8.73,673.6700000000001,-0.83,0.34,-0.01,0.0,-92.0,4.39,-2.49
8.74,674.29,-0.78,0.38,-0.11,0.0,-91.88,4.27,-2.55
8.75,674.56,-0.76,0.28,-0.09,0.0,-91.76,4.21,-2.49
8.760000000000002,674.2,-0.78,0.31,-0.07,0.0,-90.96,4.15,-2.55
8.770000000000001,675.19,-0.73,0.28,-0.09,0.0,-90.05,4.15,-2.55
8.780000000000001,675.99,-0.76,0.37,-0.04,0.0,-89.25,4.21,-2.43
8.790000000000001,675.99,-0.75,0.4,-0.02,0.0,-88.34,4.15,-2.43
8.8,676.71,-0.76,0.35,0.03,0.0,-87.55,4.21,-2.43
8.81,676.53,-0.73,0.31,-0.06,0.0,-86.63,4.45,-2.37
8.82,677.1500000000001,-0.75,0.29,0.0,0.0,-85.84,4.45,-2.43
8.83,677.78,-0.67,0.33,0.0,0.0,-84.92,4.58,-2.31
8.84,678.1400000000001,-0.72,0.32,-0.09,0.0,-84.01,4.58,-2.12
8.850000000000001,678.05,-0.71,0.31,-0.03,0.0,-83.33,4.52,-2.0
8.860000000000001,678.4100000000001,-0.76,0.35,-0.16,0.0,-82.54,4.58,-1.88
8.870000000000001,678.23,-0.73,0.4,-0.09,0.0,-81.69,4.64,-1.76
8.88,679.6600000000001,-0.76,0.3,-0.1,0.0,-80.89,4.58,-1.7
8.89,679.21,-0.71,0.28,-0.03,0.0,-80.16,4.64,-1.64
8.9,680.29,-0.69,0.23,-0.13,0.0,-79.43,4.64,-1.64
8.91,663.03,-2.24,0.54,-0.13,0.0,-78.63,4.64,-1.51
8.92,525.45,65.85,-3.37,-6.82,0.0,-77.96,6.59,-2.06
8.930000000000001,295.02,156.79,9.96,3.86,0.0,-76.68,10.44,-0.84
8.940000000000001,390.65000000000003,26.14,-7.35,-3.44,0.0,-75.28,17.58,-12.2
8.950000000000001,602.53,1.04,2.76,1.16,0.0,-72.9,15.99,-8.23
8.96,674.6500000000001,0.3,1.33,-0.32,0.0,-72.23,15.2,-10.0
8.96,674.6500000000001,0.3,1.33,-0.32,0.0,-72.23,15.2,-10.0
8.97,682.0799999999999,-1.78,2.33,-1.82,0.0,-72.35,13.73,-12.13
8.98,682.7,-0.98,0.78,-0.05,0.0,-72.41,13.55,-13.6
8.99,684.23,-0.72,0.77,0.04,0.0,-72.23,12.94,-15.31
9.0,686.2,-1.3,1.48,-0.19,0.0,-72.35,12.88,-16.71
9.010000000000002,686.6400000000001,-0.96,1.1,-0.09,0.0,-72.53,12.14,-18.48
9.020000000000001,687.54,-0.99,1.42,0.18,0.0,-72.71,11.6,-20.37
9.030000000000001,688.3499999999999,-1.03,1.55,0.07,0.0,-72.71,11.35,-21.9
9.040000000000001,689.5999999999999,-1.17,1.46,0.24,0.0,-72.41,11.29,-23.79
9.05,690.76,-2.08,1.17,-0.02,0.0,-67.89,11.47,-27.39
9.06,691.5699999999999,-1.96,1.3,-0.12,0.0,-60.38,11.84,-31.18
9.07,691.75,-1.58,2.82,0.72,0.0,-59.1,11.9,-33.99
9.08,692.47,-1.91,1.93,0.19,0.0,-60.2,12.08,-37.1
9.09,693.3599999999999,-1.93,2.23,0.57,0.0,-59.22,12.21,-40.52
9.100000000000001,694.71,-2.5,2.6,0.5,0.0,-56.84,12.69,-44.18
9.110000000000001,694.98,-13.71,5.84,-2.54,0.0,-67.59,10.68,-45.95
9.120000000000001,695.8700000000001,-12.45,4.13,-0.74,0.0,-85.1,6.35,-51.2
9.13,696.5,-23.94,-0.24,-8.64,0.0,-100.91,7.26,-50.71
9.14,696.05,-21.02,11.18,0.64,0.0,-156.58,1.52,-42.47
9.15,698.03,-11.93,3.12,-0.42,0.0,-209.86,-1.53,-38.75
9.16,697.49,-12.65,-1.74,-3.28,0.0,-256.5,-6.04,-33.8
9.17,696.5899999999999,-20.32,10.71,4.48,0.0,-350.86,-13.73,-17.57
9.180000000000001,696.05,-23.32,-0.63,-12.94,0.0,-409.76,-14.65,-13.11
9.190000000000001,697.94,-11.58,8.64,3.26,0.0,-509.56,-22.28,10.69
9.200000000000001,699.0999999999999,-7.33,1.45,-2.25,0.0,-551.18,-23.38,12.95
9.21,697.76,-47.99,10.02,-13.03,0.0,-555.03,-23.62,15.94
9.22,699.01,-28.98,4.9,15.17,0.0,-612.95,-25.88,34.13
9.23,699.19,-15.99,0.27,-2.5,0.0,-642.43,-7.08,44.02
9.24,699.73,-24.66,0.12,-6.64,0.0,-651.1,-3.72,52.32
9.25,699.3700000000001,-42.6,5.91,-1.22,0.0,-626.32,4.15,53.54
9.260000000000002,694.6200000000001,-117.85,24.88,-16.1,0.0,-551.98,33.57,48.78
9.270000000000001,693.45,-153.67,-69.31,35.61,0.0,-382.42,52.86,1.29
9.280000000000001,688.53,-156.91,-4.82,-0.58,0.0,-132.47,96.68,-17.69
9.280000000000001,688.53,-156.91,-4.82,-0.58,0.0,-132.47,96.68,-17.69
9.290000000000001,691.1200000000001,-156.91,15.61,1.81,0.0,-28.83,100.4,-26.23
9.3,690.94,-156.91,14.42,-14.86,0.0,8.16,103.88,-37.46
9.31,690.94,-146.63,10.28,-14.8,0.0,45.88,113.71,-37.04
9.32,690.6800000000001,-150.99,19.39,-9.85,0.0,5.11,124.7,-15.31
9.33,691.5699999999999,-146.45,16.96,-10.95,0.0,-138.08,128.42,15.76
9.34,692.29,-132.36,12.8,-10.4,0.0,-296.29,132.69,49.39
9.350000000000001,692.6500000000001,-116.49,8.96,-7.32,0.0,-409.15,151.31,77.65
9.360000000000001,693.45,-105.26,8.31,-5.96,0.0,-478.98,179.33,96.82
9.370000000000001,694.8900000000001,-91.26,6.52,-3.86,0.0,-516.82,206.91,102.37
9.38,696.3199999999999,-77.76,4.96,-4.19,0.0,-520.18,231.27,94.56
9.39,696.4100000000001,-75.17,5.93,-4.23,0.0,-493.99,249.82,75.82
9.4,698.1099999999999,-68.93,4.95,-4.16,0.0,-447.24,262.4,48.41
9.41,697.8499999999999,-65.82,6.31,-4.01,0.0,-402.25,266.3,19.06
9.42,698.3800000000001,-62.86,6.69,-3.52,0.0,-371.0,261.66,-11.59
9.430000000000001,697.6700000000001,-56.92,6.95,-2.37,0.0,-355.31,249.7,-40.46
9.440000000000001,698.1099999999999,-48.5,6.72,-1.76,0.0,-367.58,232.12,-64.81
9.450000000000001,697.6700000000001,-43.09,6.28,-0.71,0.0,-395.54,211.19,-86.54
9.46,699.01,-39.62,5.82,0.15,0.0,-436.43,186.83,-105.52
9.47,699.9100000000001,-32.88,4.37,0.99,0.0,-489.66,160.65,-120.6
9.48,700.1800000000001,-31.26,4.61,2.49,0.0,-550.76,132.2,-132.68
9.49,700.8,-29.06,3.13,4.42,0.0,-628.09,101.32,-140.37
