time,baro_altitude,accl_x,accl_y,accl_z,gps_altitude,gyro_roll,gyro_pitch,gyro_yaw
0.0,0.0,-0.01,-0.299999997,-0.015,0.0,0.0,0.0,0.0
0.1,-0.034271240000000036,-0.01,-0.305000007,0.005,0.00499719999993431,0.0,0.0,0.0
0.19999999999999998,-0.034271240000000036,-0.01,-0.280000001,-0.02,0.00499719999993431,0.0,0.0,0.0
0.30000000000000004,0.06997680699999997,-0.01,-0.310000002,-0.005,0.009002699999996366,0.0,0.0,0.0
0.4,0.056243896000000015,-0.01,-0.289999992,-0.005,0.011978099999964797,0.0,0.0,0.0
0.5,-0.07690429700000001,-0.005,-0.325000003,-0.005,0.014991699999995944,0.0,0.0,0.0
0.6,0.14913940400000003,-0.005,-0.289999992,-0.005,0.014991699999995944,0.0,0.0,0.0
0.7000000000000001,-0.10202026399999986,-0.01,-0.284999996,-0.005,0.026969899999926383,0.0,0.0,0.0
0.8,0.058339437000000105,-0.015,-0.295000002,-0.005,0.03097529999990911,0.0,0.0,0.0
0.9,0.03195190400000003,-0.01,-0.289999992,-0.005,0.02998349999995753,0.0,0.0,0.0
1.0,0.15524292000000006,-0.02,-0.289999992,-0.01,0.02998349999995753,0.0,0.0,0.0
1.0999999999999999,-0.17358398399999997,-0.015,-0.295000002,-0.01,0.044975199999953475,0.0,0.0,0.0
1.2,-0.075347901,0.01,-0.300000012,-0.02,0.04798889999995026,0.0,0.0,0.0
1.2999999999999998,-0.08019002299999989,0.006666667,-0.300000002,-0.01,0.05496979999998075,0.0,0.0,0.0
1.4,-0.10049438499999996,0.005,-0.280000001,-0.005,0.05496979999998075,0.0,0.0,0.0
1.5,-0.021331787000000046,0.005,-0.280000001,0.01,0.05699149999998099,0.0,0.0,0.0
1.5999999999999999,0.14987182600000004,0.005,-0.275000006,0.01,0.06099699999992936,0.0,0.0,0.0
1.7,0.024342854999999997,0.005,-0.290000007,-0.015,0.06099699999992936,0.0,0.0,0.0
1.7999999999999998,-0.03732299800000005,0.01,-0.300000012,0.005,0.06298059999994621,0.0,0.0,0.0
1.9,0.0,-0.005,-0.295000002,-0.005,0.07099149999999099,0.0,0.0,0.0
2.0,-0.2541809079999999,-0.005,-0.280000001,-0.005,0.0779723999999078,0.0,0.0,0.0
2.1,0.0015563960000000154,-0.01,-0.300000012,0.02,0.0779723999999078,0.0,0.0,0.0
2.1999999999999997,0.12427775099999994,-0.006666667,-0.306666672,-0.003333333,0.07499689999997372,0.0,0.0,0.0
2.3,0.06466674800000005,-0.006666667,-0.310000002,-0.02,0.08399959999997009,0.0,0.0,0.0
2.4,-0.20474243199999997,-0.006666667,-0.319999993,-0.02,0.08399959999997009,0.0,0.0,0.0
2.5,-0.20474243199999997,-0.006666667,-0.280000001,0.01,0.08399959999997009,0.0,0.0,0.0
2.6,0.21459960899999997,-0.01,-0.289999992,-0.01,0.08499139999992167,0.0,0.0,0.0
2.6999999999999997,0.06314086900000015,-0.01,-0.290000002,-0.01,0.08197780000000421,0.0,0.0,0.0
2.8,-0.119506836,-0.02,-0.289999992,-0.01,0.0899886999999353,0.0,0.0,0.0
2.9,0.06317138700000013,-0.02,-0.284999996,-0.01,0.0899886999999353,0.0,0.0,0.0
3.0,-0.07308959999999987,-0.005,-0.305000007,-0.01,0.0899886999999353,0.0,0.0,0.0
3.1,0.15371704099999994,-0.005,-0.289999992,-0.005,0.0949858999999833,0.0,0.0,0.0
3.1999999999999997,-0.04568481499999999,0.005,-0.300000012,-0.005,0.09197229999995216,0.0,0.0,0.0
3.3,0.056274413999999995,0.005,-0.289999992,0.01,0.09197229999995216,0.0,0.0,0.0
3.4,0.16275024400000015,0.015,-0.304999992,-0.005,0.09098050000000057,0.0,0.0,0.0
3.5,-0.09744262699999995,-0.02,-0.289999992,-0.02,0.08899689999998373,0.0,0.0,0.0
3.6,0.057800293000000114,-0.02,-0.310000002,-0.01,0.08296959999995579,0.0,0.0,0.0
3.6999999999999997,-0.09667968800000004,0.01,-0.310000002,-0.01,0.08296959999995579,0.0,0.0,0.0
3.8,0.025817871000000103,0.01,-0.290000007,-0.005,0.07698059999995621,0.0,0.0,0.0
3.9,0.05219523100000001,-0.01,-0.280000001,-0.005,0.07297510000000784,0.0,0.0,0.0
3.9999999999999996,0.15219116200000005,-0.01,-0.296666672,-0.006666667,0.06797789999995985,0.0,0.0,0.0
4.1000000000000005,0.02957153300000015,-0.01,-0.310000002,-0.01,0.06797789999995985,0.0,0.0,0.0
4.2,0.18258667000000006,-0.01,-0.310000002,-0.01,0.05996699999991506,0.0,0.0,0.0
4.300000000000001,0.05319213900000008,0.01,-0.290000007,-0.01,0.05897519999996348,0.0,0.0,0.0
4.4,0.07911173500000013,0.01,-0.299999997,-0.005,0.05897519999996348,0.0,0.0,0.0
4.5,0.15060424800000005,0.01,-0.280000001,-0.01,0.0579834000000119,0.0,0.0,0.0
4.6000000000000005,0.17648315400000003,-0.01,-0.310000002,-0.01,0.05996699999991506,0.0,0.0,0.0
4.7,0.12170410099999995,0.01,-0.310000002,-0.01,0.06397240000001148,0.0,0.0,0.0
4.800000000000001,0.11257934599999997,0.01,-0.300000012,-0.01,0.06397240000001148,0.0,0.0,0.0
4.9,-0.033599853999999985,0.01,-0.300000002,-0.006666667,0.05996699999991506,0.0,0.0,0.0
5.0,0.12469482400000009,-0.029999999,-0.300000012,-0.006666667,0.06599419999997735,0.0,0.0,0.0
5.1000000000000005,0.16586303700000005,-0.029999999,-0.305000007,0.005,0.06298059999994621,0.0,0.0,0.0
5.2,0.0022277830000001497,0.005,-0.280000001,-0.01,0.06298059999994621,0.0,0.0,0.0
5.300000000000001,-0.0822855629999999,0.005,-0.300000012,0.01,0.061988799999994626,0.0,0.0,0.0
5.4,-0.106597901,-0.006666667,-0.310000002,-0.003333333,0.06599419999997735,0.0,0.0,0.0
5.5,0.13619995100000004,-0.006666667,-0.300000012,-0.01,0.07297510000000784,0.0,0.0,0.0
5.6000000000000005,0.031158447000000145,-0.006666667,-0.295000002,-0.01,0.07297510000000784,0.0,0.0,0.0
5.7,0.12326049800000005,-0.006666667,-0.295000002,-0.015,0.07396689999995942,0.0,0.0,0.0
5.800000000000001,0.046152750999999936,-0.006666667,-0.295000002,-0.02,0.0759886999999253,0.0,0.0,0.0
5.9,0.20697021500000012,-0.006666667,-0.300000012,0.005,0.0779723999999078,0.0,0.0,0.0
6.0,0.09432983400000006,-0.005,-0.290000007,-0.01,0.0779723999999078,0.0,0.0,0.0
6.1000000000000005,0.12322998000000007,-0.005,-0.305000007,-0.005,0.07900229999995645,0.0,0.0,0.0
6.2,0.03494262699999995,0.01,-0.304999992,-0.03,0.08598319999998694,0.0,0.0,0.0
6.300000000000001,-0.223785401,0.01,-0.289999992,-0.01,0.08197780000000421,0.0,0.0,0.0
6.4,0.08370971700000007,0.01,-0.280000001,-0.02,0.08197780000000421,0.0,0.0,0.0
6.5,0.017456055000000026,0.005,-0.299999997,-0.02,0.08499139999992167,0.0,0.0,0.0
6.6000000000000005,0.2457885740000001,0.01,-0.310000002,-0.02,0.09098050000000057,0.0,0.0,0.0
6.7,-0.0030619299999998795,-0.006666667,-0.296666672,-0.016666666,0.08796689999996943,0.0,0.0,0.0
6.800000000000001,0.13848876900000007,-0.006666667,-0.300000012,-0.016666666,0.08796689999996943,0.0,0.0,0.0
6.9,0.06686401400000008,-0.006666667,-0.310000002,-0.029999999,0.08796689999996943,0.0,0.0,0.0
7.0,0.028900146000000015,-0.006666667,-0.299999997,-0.005,0.0899886999999353,0.0,0.0,0.0
7.1000000000000005,-0.12792968800000004,-0.01,-0.290000007,0.01,0.0899886999999353,0.0,0.0,0.0
7.2,0.031127930000000026,-0.015,-0.300000012,-0.01,0.06599419999997735,0.0,0.0,0.0
7.300000000000001,0.06686401400000008,-0.005,-0.284999996,0.005,0.04699699999991935,0.0,0.0,0.0
7.4,-0.06628418000000003,-0.005,-0.295000002,-0.005,0.02998349999995753,0.0,0.0,0.0
7.5,-0.08993530299999986,0.02,-0.289999992,-0.005,0.02998349999995753,0.0,0.0,0.0
7.6000000000000005,0.0684204100000001,-0.005,-0.310000002,-0.005,0.02998349999995753,0.0,0.0,0.0
7.7,-0.026733399000000047,-0.005,-0.310000002,0.01,0.0019836000000168497,0.0,0.0,0.0
7.800000000000001,-0.003082275999999995,0.005,-0.304999992,-0.015,-0.01602180000008957,0.0,0.0,0.0
7.9,-0.045745849999999866,-0.01,-0.290000007,-0.015,-0.01602180000008957,0.0,0.0,0.0
8.0,-0.08580525699999986,0.01,-0.300000012,-0.015,-0.03803260000006503,0.0,0.0,0.0
8.1,0.009063720999999969,-0.01,-0.310000002,0.01,-0.03803260000006503,0.0,0.0,0.0
8.200000000000001,-0.032043456999999886,-0.01,-0.300000012,-0.039999999,-0.059013400000026195,0.0,0.0,0.0
8.3,0.02737426700000012,0.005,-0.314999998,-0.015,-0.059013400000026195,0.0,0.0,0.0
8.4,0.09429931600000008,-0.01,-0.295000002,-0.015,-0.07701880000001893,0.0,0.0,0.0
8.5,-0.11878458699999994,-0.01,-0.310000002,-0.015,-0.0830078000000185,0.0,0.0,0.0
8.6,0.05322265599999998,-0.036666666,-0.326666673,0.113333335,-0.10700230000009014,0.0,0.0,0.0
8.700000000000001,-0.06777954099999994,-0.639999986,-0.610000014,-1.590000033,-0.10700230000009014,0.0,0.0,0.0
8.8,-0.06777954099999994,-0.349999994,0.889999986,-0.219999999,-0.11501320000002124,0.0,0.0,0.0
8.9,-0.44147745800000004,0.219999995,17.75,0.725000024,-0.12500770000008288,0.0,0.0,0.0
9.0,0.755767822,-0.469999909,20.34000015,-0.949999988,0.13999939999996514,0.0,0.0,0.0
9.1,1.031951904,-1.769999981,19.22499943,-0.194999993,0.13999939999996514,0.0,0.0,0.0
9.200000000000001,1.2889709470000001,1.044999942,19.17500019,-1.360000014,0.2249908000000005,0.0,0.0,0.0
9.3,2.695770264,2.055000007,17.68999958,1.810000002,0.3359984999999597,0.0,0.0,0.0
9.4,4.101735433,-1.46666654,15.46999963,3.25333329,0.5949782999999798,0.0,0.0,0.0
9.5,5.4289245600000005,-3.884999916,13.28999996,0.044999987,0.5949782999999798,0.0,0.0,0.0
9.6,6.547363281,1.25999999,14.55000019,1.419999957,0.8049773999999843,0.0,0.0,0.0
9.700000000000001,7.092315674,0.13499999,11.75,3.189999938,0.9399794999999358,0.0,0.0,0.0
9.8,9.534759521,1.480000034,13.26499987,0.304999948,0.9399794999999358,0.0,0.0,0.0
9.9,12.266815186999999,-5.079999924,11.72999954,-1.200000048,0.9399794999999358,0.0,0.0,0.0
10.0,13.719665527,-3.730000019,11.82999992,1.129999995,1.492004399999928,0.0,0.0,0.0
10.1,15.918548587,2.50999999,10.73999977,-0.75,1.492004399999928,0.0,0.0,0.0
10.200000000000001,18.811920167,1.660000041,11.74000025,-1.045000017,1.492004399999928,0.0,0.0,0.0
10.3,21.208099367000003,0.143333336,12.36333338,-0.120000005,1.9209670999999844,0.0,0.0,0.0
10.4,24.209930417000002,0.419999987,11.81999969,-0.25,2.4989699999999857,0.0,0.0,0.0
10.5,26.748352047,0.25999999,12.14000034,-0.429999985,3.0959700999999313,0.0,0.0,0.0
10.6,29.421539307,0.530000009,12.10500002,-0.275000002,3.0959700999999313,0.0,0.0,0.0
10.700000000000001,33.648895267,0.620000005,11.89000034,-0.349999994,3.0959700999999313,0.0,0.0,0.0
10.8,36.791137697,0.613333339,11.9933335,0.006666667,4.146995500000003,0.0,0.0,0.0
10.9,41.077178957,0.910000026,12.01000023,0.01,4.8320006999999805,0.0,0.0,0.0
11.0,43.982299807000004,0.685000002,12.30499983,0.694999993,4.8320006999999805,0.0,0.0,0.0
11.1,47.201110837,0.609999985,12.23500013,1.219999969,5.398979199999985,0.0,0.0,0.0
11.200000000000001,51.951477047000004,0.590000004,12.58500004,1.5,6.068992600000001,0.0,0.0,0.0
11.3,56.060546877,0.425000012,12.65500021,1.569999993,6.517982399999937,0.0,0.0,0.0
11.4,58.946380617,0.189999998,13.01000023,2.690000057,6.517982399999937,0.0,0.0,0.0
11.5,63.798126217000004,0.560000002,12.97000027,1.860000014,6.993980399999941,0.0,0.0,0.0
11.6,71.46109008699999,0.560000002,14.0666666,1.860000014,6.993980399999941,0.0,0.0,0.0
11.700000000000001,74.378631587,0.560000002,14.0,2.573333343,8.456001199999946,0.0,0.0,0.0
11.8,79.355072017,0.553333322,14.50499964,2.849999905,8.456001199999946,0.0,0.0,0.0
11.9,85.136566167,0.645000011,14.03999996,2.960000038,9.783973699999933,0.0,0.0,0.0
12.0,88.86169433699999,0.889999986,14.90499973,3.059999943,10.654983499999958,0.0,0.0,0.0
12.1,95.142466227,1.059999943,15.25999991,2.875,10.654983499999958,0.0,0.0,0.0
12.200000000000001,101.163635257,1.550000012,16.32999992,3.070000013,11.889991699999996,0.0,0.0,0.0
12.3,106.118804937,1.973333359,16.16499996,2.890000105,84.8609543,0.0,0.0,0.0
12.4,111.394012437,2.839999914,16.38500023,2.809999943,93.5129928,0.0,0.0,0.0
12.5,118.960876437,3.090000033,16.77333323,2.879999995,93.5129928,0.0,0.0,0.0
12.6,124.547485337,3.425000072,16.70000076,2.826666673,98.49895470000001,0.0,0.0,0.0
12.700000000000001,129.88803103700002,3.513333321,17.19000053,3.299999952,106.41101829999991,0.0,0.0,0.0
12.8,136.606842037,3.549999952,18.01000023,3.680000067,114.84699249999994,0.0,0.0,0.0
12.9,141.193695037,3.235000014,17.70000076,4.215000153,114.84699249999994,0.0,0.0,0.0
13.0,147.757415737,2.564999938,18.28999996,4.409999847,122.09896079999999,0.0,0.0,0.0
13.1,157.177246137,1.929999948,18.61499977,5.159999847,126.90395349999994,0.0,0.0,0.0
13.200000000000001,164.28860473700001,1.00000003,18.52500057,5.045000076,135.0999832,0.0,0.0,0.0
13.3,168.775360137,0.164999999,18.87000084,5.179999828,135.0999832,0.0,0.0,0.0
13.4,174.374389637,-0.155000001,19.11999989,4.940000057,143.84700769999995,0.0,0.0,0.0
13.5,180.913421637,-0.610000014,19.25333341,4.835000038,149.7179794,0.0,0.0,0.0
13.6,199.407745337,-0.639999986,19.43500042,4.426666578,158.57196799999997,0.0,0.0,0.0
13.700000000000001,207.329040537,-0.476666669,18.89999962,4.24000001,158.57196799999997,0.0,0.0,0.0
13.8,214.511260937,-0.420000002,19.39999962,3.920000076,164.58499899999993,0.0,0.0,0.0
13.9,221.320251437,-0.344999991,19.22999954,4.170000076,173.68198389999998,0.0,0.0,0.0
14.0,230.59741213700002,-0.409999996,19.97500038,3.039999962,182.75402069999996,0.0,0.0,0.0
14.1,258.225860637,-0.879999995,20.45999908,2.38499999,199.06200409999997,0.0,0.0,0.0
14.200000000000001,266.542602537,-1.204999983,20.19499969,2.109999895,199.06200409999997,0.0,0.0,0.0
14.3,277.491607637,-1.299999952,20.25,1.26000005,208.7979507,0.0,0.0,0.0
14.4,287.78494263700003,-1.045000017,20.90999985,0.689999998,218.81000519999998,0.0,0.0,0.0
14.5,291.268341037,-0.419999987,21.20999908,0.589999974,228.32897179999998,0.0,0.0,0.0
14.6,301.120117237,-0.330000013,20.93000031,-0.199999999,228.32897179999998,0.0,0.0,0.0
14.700000000000001,309.64218143700003,0.414999992,20.96000004,-1.069999993,234.76398459999996,0.0,0.0,0.0
14.8,324.709411637,0.905000001,21.23999977,-0.979999989,244.48696129999996,0.0,0.0,0.0
14.9,332.016693137,1.530000031,21.71000004,-1.0,244.48696129999996,0.0,0.0,0.0
15.0,368.343231237,2.160000086,21.89999962,1.109999985,244.48696129999996,0.0,0.0,0.0
15.1,381.736602737,3.649999976,21.98499966,2.279999971,281.2910079999999,0.0,0.0,0.0
15.200000000000001,392.568939237,3.440000057,22.19499969,3.355000019,281.2910079999999,0.0,0.0,0.0
15.3,401.592498737,3.690000057,22.625,4.130000114,291.2569808999999,0.0,0.0,0.0
15.4,419.883717837,3.100000024,22.93000031,4.995000124,297.7529525,0.0,0.0,0.0
15.5,435.713897737,2.480000019,23.42999935,5.403333187,307.5749588,0.0,0.0,0.0
15.6,448.651458737,1.556666692,22.43000031,5.809999943,307.5749588,0.0,0.0,0.0
15.700000000000001,462.445587137,0.520000003,22.5,5.320000172,317.43900299999996,0.0,0.0,0.0
15.8,471.969696037,-0.300000012,21.95999908,5.440000057,317.43900299999996,0.0,0.0,0.0
15.9,471.969696037,-0.970000029,22.39999962,1.74000001,317.43900299999996,0.0,0.0,0.0
16.0,533.056365937,-1.649999976,22.97000027,1.5,355.8769606999999,0.0,0.0,0.0
16.099999999999998,552.830576537,-1.389999986,23.07666715,0.655000001,355.8769606999999,0.0,0.0,0.0
16.2,576.355682337,-0.799999982,22.79500008,0.523333341,363.86699669999996,0.0,0.0,0.0
16.299999999999997,587.321197537,0.293333312,22.60000038,0.805000007,376.7739485999999,0.0,0.0,0.0
16.4,598.278289837,1.550000012,23.32500076,0.805000007,376.7739485999999,0.0,0.0,0.0
16.5,598.278289837,1.550000012,23.43000031,3.559999943,376.7739485999999,0.0,0.0,0.0
16.599999999999998,662.118499737,1.550000012,23.35000038,4.99000001,408.9699935,0.0,0.0,0.0
16.7,674.981536837,4.940000057,22.88000011,6.179999828,419.2840195,0.0,0.0,0.0
16.799999999999997,694.186981237,4.919999838,23.04999924,7.789999962,419.2840195,0.0,0.0,0.0
16.9,716.703094437,4.760000229,23.05999947,9.070000172,426.3000105,0.0,0.0,0.0
17.0,734.369598437,3.63499999,21.64000034,8.81000042,426.3000105,0.0,0.0,0.0
17.099999999999998,734.369598437,2.745000005,22.09000015,10.85999966,426.3000105,0.0,0.0,0.0
17.2,823.023406937,2.390000105,22.54999924,10.85999966,426.3000105,0.0,0.0,0.0
17.299999999999997,864.1065979370001,-2.099999905,23.21000004,10.18499994,474.1720194999999,0.0,0.0,0.0
17.4,887.179473837,-2.099999905,23.37000084,11.95000029,474.1720194999999,0.0,0.0,0.0
17.5,916.545257537,-2.099999905,23.5,11.95000029,474.1720194999999,0.0,0.0,0.0
17.599999999999998,1018.290985537,-0.354999997,22.77500057,17.51000023,458.5609814999999,0.0,0.0,0.0
17.7,1021.803008537,2.61500001,21.03999996,14.96000004,458.5609814999999,0.0,0.0,0.0
17.799999999999997,1022.936187537,2.61500001,20.27499962,11.78999996,519.5349505,0.0,0.0,0.0
17.9,1050.168548537,2.61500001,20.40999985,13.10500002,584.4129565,0.0,0.0,0.0
18.0,1061.252227537,8.425000191,21.76500034,10.44999981,584.4129565,0.0,0.0,0.0
18.099999999999998,1063.168487537,11.05500031,24.44000053,10.57999992,632.6620105000001,0.0,0.0,0.0
18.2,1078.623504537,13.17000008,-9.819999695,13.13000011,698.0320355,0.0,0.0,0.0
18.299999999999997,1180.891815537,8.479999781,10.56999969,23.05500031,761.5169904999999,0.0,0.0,0.0
18.4,1280.524444537,8.230000019,11.19999981,36.59000015,761.5169904999999,0.0,0.0,0.0
18.5,1436.397918537,7.590000153,8.909999847,45.18999863,801.2899395000001,0.0,0.0,0.0
18.599999999999998,1436.397918537,7.819999933,7.786666552,12.52000046,801.2899395000001,0.0,0.0,0.0
18.7,1305.873626537,7.054999828,15.40999985,20.92000008,908.2630535,0.0,0.0,0.0
18.799999999999997,375.956024137,6.139999866,13.01499987,-10.5,908.2630535,0.0,0.0,0.0
18.9,171.97695923700002,0.99000001,10.51000023,-2.789999962,948.6790084999999,0.0,0.0,0.0
19.0,555.683563237,-11.39999962,14.31500006,9.309999784,970.7679365,0.0,0.0,0.0
19.099999999999998,461.730804437,-30.625,17.06999969,27.84000015,999.7759625,0.0,0.0,0.0
19.2,363.952087437,-32.41999817,14.01000023,-10.14500034,999.7759625,0.0,0.0,0.0
19.299999999999997,181.721771237,-24.57999992,7.909999847,3.650000036,1027.0089334999998,0.0,0.0,0.0
19.4,525.828826937,-22.26333364,7.199999809,7.755000114,1044.3529895000001,0.0,0.0,0.0
19.5,922.832672137,-20.12000084,5.264999866,7.684999943,1068.2329945000001,0.0,0.0,0.0
19.599999999999998,813.063751237,-22.47500038,9.404999971,6.71999979,1068.2329945000001,0.0,0.0,0.0
19.7,813.063751237,-11.57499981,9.659999847,9.880000114,1092.1189494999999,0.0,0.0,0.0
19.799999999999997,312.960052537,-5.579999924,15.76000023,19.12000084,1092.1189494999999,0.0,0.0,0.0
19.9,1077.857147537,3.49000001,14.03000005,16.06000042,1092.1189494999999,0.0,0.0,0.0
20.0,570.603851337,6.570000172,7.210000038,-3.894999981,1140.2560045,0.0,0.0,0.0
20.099999999999998,693.699798537,3.470000029,7.545000076,-2.870000005,1167.0469285,0.0,0.0,0.0
20.2,1058.659576537,6.079999924,5.823333253,-0.109999999,1167.0469285,0.0,0.0,0.0
20.299999999999997,1045.418426537,-16.37499952,4.754999876,0.419999997,1190.5309674999999,0.0,0.0,0.0
20.4,918.0320739370001,-19.65499973,12.32999992,16.47999954,1190.5309674999999,0.0,0.0,0.0
20.5,1269.852447537,-10.72000027,12.7750001,21.03999996,1229.6709824999998,0.0,0.0,0.0
20.599999999999998,1227.452362537,-2.789999962,8.579999685,21.03999996,1229.6709824999998,0.0,0.0,0.0
20.7,602.892059337,0.539999962,4.929999888,7.916666826,1253.1550214999997,0.0,0.0,0.0
20.799999999999997,735.747283937,4.360000134,8.769999981,1.945000052,1276.6390605000001,0.0,0.0,0.0
20.9,1164.884490537,0.844999969,10.0,3.680000067,1276.6390605000001,0.0,0.0,0.0
21.0,1244.253082537,0.844999969,8.674999714,2.534999967,1276.6390605000001,0.0,0.0,0.0
21.099999999999998,1173.228240537,0.844999969,5.289999962,5.855000019,1315.7789235,0.0,0.0,0.0
21.2,907.511627237,-7.676666578,6.289999843,13.125,1391.4789965,0.0,0.0,0.0
21.299999999999997,1310.061309537,-2.855000068,6.955000162,26.32000065,1421.7980575000001,0.0,0.0,0.0
21.4,1323.935333537,-1.080000043,8.130000114,30.42000008,1421.7980575000001,0.0,0.0,0.0
21.5,1172.066375537,4.230000019,7.949999809,31.81999969,1449.3929675,0.0,0.0,0.0
21.599999999999998,824.7117614370001,6.390000105,2.945000052,31.81999969,1449.3929675,0.0,0.0,0.0
21.7,1186.738494537,10.16499996,5.444999933,36.49000168,1495.8460615,0.0,0.0,0.0
21.799999999999997,1495.025176537,5.934999943,-0.649999976,31.32500076,1495.8460615,0.0,0.0,0.0
21.9,1383.027069537,2.920000076,-2.774999857,31.32500076,1513.0999374999997,0.0,0.0,0.0
22.0,1009.763885537,1.419999957,-9.420000076,2.904999971,1539.6789165,0.0,0.0,0.0
22.099999999999998,1546.886566537,1.419999957,2.875,-3.50999999,1566.3109964999999,0.0,0.0,0.0
22.2,1479.409149537,1.419999957,-6.880000114,-2.705000103,1566.3109964999999,0.0,0.0,0.0
22.299999999999997,1260.639129537,3.200000048,-7.660000086,-2.705000103,1593.3439254999998,0.0,0.0,0.0
22.4,1235.645111537,-17.93499947,-8.980000019,7.744999886,1611.3199995,0.0,0.0,0.0
22.5,1477.6094665370001,-17.93499947,-7.880000114,13.64000034,1611.3199995,0.0,0.0,0.0
22.599999999999998,1734.926238537,-17.93499947,-11.06000042,14.97000027,1638.0230334999997,0.0,0.0,0.0
22.7,1131.443817537,-9.924999714,-10.20000029,22.08500004,1664.7449874999998,0.0,0.0,0.0
22.799999999999997,941.714813237,-5.944999933,-8.700000048,31.07999992,1691.6270064999999,0.0,0.0,0.0
22.9,1196.362091537,0.404999971,-12.23999977,34.34499931,1691.6270064999999,0.0,0.0,0.0
23.0,1876.440582537,0.404999971,-12.17499971,36.54500008,1709.3749614999997,0.0,0.0,0.0
23.099999999999998,970.996063237,0.404999971,-12.70499992,23.31499958,1736.4060594999996,0.0,0.0,0.0
23.2,1330.535125537,1.469999999,-13.13333352,13.1500001,1763.9939494999999,0.0,0.0,0.0
23.299999999999997,1555.539520537,0.799999952,-9.945000172,6.090000153,1763.9939494999999,0.0,0.0,0.0
23.4,1307.638275537,0.189999998,-10.69999981,5.659999847,1790.8849714999997,0.0,0.0,0.0
23.5,1645.475921537,6.505000234,-8.960000038,15.1699996,1808.3289714999996,0.0,0.0,0.0
23.599999999999998,1247.771575537,14.10999966,-9.664999962,14.80499983,1834.9760054999997,0.0,0.0,0.0
23.7,1247.771575537,12.43000031,-7.869999886,-2.450000048,1834.9760054999997,0.0,0.0,0.0
23.799999999999997,1388.556854537,-1.7700001,-11.23000002,-2.745000064,1852.3870465,0.0,0.0,0.0
23.9,1657.812103537,-1.640000105,-11.64999962,0.684999973,1878.6820604999998,0.0,0.0,0.0
24.0,1685.180145537,3.764999986,-9.980000019,3.049999942,1905.0950245,0.0,0.0,0.0
24.099999999999998,1586.977142537,7.389999866,-8.370000124,5.810000181,1905.0950245,0.0,0.0,0.0
24.2,1450.544525537,5.75,-9.270000458,4.360000134,1931.2029644999998,0.0,0.0,0.0
24.299999999999997,1385.596893537,1.550000042,-9.345000267,6.894999981,1948.4260175,0.0,0.0,0.0
24.4,1363.251230537,-5.449999928,-10.625,9.960000038,1948.4260175,0.0,0.0,0.0
24.5,1439.555389537,-5.610000134,-11.5,10.11999989,1974.4968795,0.0,0.0,0.0
24.599999999999998,1747.166351537,-3.025000095,-10.42333317,7.03000021,2000.0968555,0.0,0.0,0.0
24.7,1965.695159537,1.145000041,-11.34499979,6.960000038,2000.0968555,0.0,0.0,0.0
24.799999999999997,1928.575897537,1.233333329,-8.93999958,3.339999974,2000.0968555,0.0,0.0,0.0
24.9,1843.714569537,-2.264999986,-12.86999989,1.165000007,2000.0968555,0.0,0.0,0.0
25.0,1845.987396537,-5.849999905,-10.03000005,-1.629999995,2068.9048384999996,0.0,0.0,0.0
25.099999999999998,1895.931732537,-4.609999895,-10.60999966,-5.330000162,2086.3010784999997,0.0,0.0,0.0
25.2,1877.029022537,-3.669999957,-10.34499979,-5.964999914,2086.3010784999997,0.0,0.0,0.0
25.299999999999997,1773.281544537,-4.525000095,-8.890000105,-3.6049999,2112.2129434999997,0.0,0.0,0.0
25.4,1718.440277537,-8.244999886,-8.869999886,-3.036666791,2138.3158495,0.0,0.0,0.0
25.5,1811.451873537,-11.22999954,-8.314999819,-3.036666791,2138.3158495,0.0,0.0,0.0
25.599999999999998,1884.442108537,-10.71999979,-9.309999943,-1.439999998,2138.3158495,0.0,0.0,0.0
25.7,1951.998504537,-11.44000006,-10.57999992,0.270000011,2190.0071335,0.0,0.0,0.0
25.799999999999997,1963.754852537,-9.470000267,-8.639999866,2.079999924,2207.1360394999997,0.0,0.0,0.0
25.9,1912.389984537,-6.345000148,-9.900000095,5.49666667,2232.5370405,0.0,0.0,0.0
26.0,1938.473602537,-6.599999905,-9.829999924,5.400000095,2232.5370405,0.0,0.0,0.0
26.099999999999998,1964.865936537,-8.109999895,-11.125,8.320000172,2249.1178514999997,0.0,0.0,0.0
26.2,1984.446095537,-5.443333308,-10.26999998,8.095000267,2274.8670574999996,0.0,0.0,0.0
26.299999999999997,1983.278655537,-5.443333308,-10.98000002,8.764999866,2274.8670574999996,0.0,0.0,0.0
26.4,2027.272186537,-5.443333308,-9.423333168,6.625,2300.5390545,0.0,0.0,0.0
26.5,2090.0052185369996,-0.755000114,-11.56000042,4.61500001,2325.9168624999998,0.0,0.0,0.0
26.599999999999998,2125.617279537,0.479999989,-10.32999992,2.920000076,2282.5840375,0.0,0.0,0.0
26.7,2183.9637145369998,-0.050000001,-10.17999983,-0.870000005,2282.5840375,0.0,0.0,0.0
26.799999999999997,2218.2693785369997,-2.116666714,-10.82000017,-3.335000038,2282.5840375,0.0,0.0,0.0
26.9,2201.714691537,-2.059999943,-9.640000343,-6.329999924,2296.8198775,0.0,0.0,0.0
27.0,2168.866546537,-7.375,-11.10000038,-5.61500001,2312.7100754999997,0.0,0.0,0.0
27.099999999999998,2139.961761537,-5.279999971,-9.53000021,-4.504999876,2312.7100754999997,0.0,0.0,0.0
27.2,2175.6948345369997,-8.725000143,-9.054999828,-4.569999933,2328.1879805,0.0,0.0,0.0
27.299999999999997,2193.2024845369997,-9.805000305,-8.494999886,-4.800000032,2339.5350264999997,0.0,0.0,0.0
27.4,2219.2762145369998,-12.09000015,-8.495000362,-3.039999962,2359.0000535,0.0,0.0,0.0
27.5,2277.012298537,-15.15999985,-7.085000038,-0.949999988,2359.0000535,0.0,0.0,0.0
27.599999999999998,2328.263519537,-12.46999979,-8.455000401,2.204999983,2377.1500775,0.0,0.0,0.0
27.7,2385.3794045369996,-12.00500011,-8.323333581,4.210000038,2389.0958785,0.0,0.0,0.0
27.799999999999997,2409.278655537,-7.769999981,-8.214999676,7.090000153,2406.3129805,0.0,0.0,0.0
27.9,2433.003509537,-7.000000238,-9.815000057,6.489999771,2406.3129805,0.0,0.0,0.0
28.0,2436.2937925369997,-6.609999895,-10.02999973,9.059999943,2423.2508464999996,0.0,0.0,0.0
28.099999999999998,2421.383961537,-5.670000076,-9.509999911,8.474999905,2434.2451094999997,0.0,0.0,0.0
28.2,2420.205902537,-3.080000003,-9.904999733,7.855000019,2450.8390425,0.0,0.0,0.0
28.299999999999997,2419.384368537,-1.269999981,-10.66499996,7.269999981,2450.8390425,0.0,0.0,0.0
28.4,2424.352874537,2.229999959,-10.80000019,7.269999981,2450.8390425,0.0,0.0,0.0
28.5,2454.1062925369997,0.824999973,-9.690000057,3.675000072,2477.9938884999997,0.0,0.0,0.0
28.599999999999998,2476.3045345369997,-0.024999999,-9.974999905,1.550000072,2477.9938884999997,0.0,0.0,0.0
28.7,2540.886077537,-0.769999981,-10.03999996,-1.74333334,2493.0118945,0.0,0.0,0.0
28.799999999999997,2564.9356385369997,-4.150000095,-9.519999981,-1.74333334,2503.2288745,0.0,0.0,0.0
28.9,2590.608001537,-5.560000181,-8.384999752,-4.549999952,2518.4888834999997,0.0,0.0,0.0
29.0,2593.0596615369996,-8.389999866,-8.159999847,-6.800000191,2518.4888834999997,0.0,0.0,0.0
29.099999999999998,2610.4851985369996,-8.024999857,-8.045000076,-6.889999866,2518.4888834999997,0.0,0.0,0.0
29.2,2616.169769537,-11.21000004,-7.025000095,-6.01000007,2545.1578904999997,0.0,0.0,0.0
29.299999999999997,2616.667327537,-11.21000004,-7.064999819,-5.360000134,2566.1759564999998,0.0,0.0,0.0
29.4,2589.591644537,-11.21000004,-6.773333391,-3.689999938,2566.1759564999998,0.0,0.0,0.0
29.5,2611.6844175369997,-12.34499979,-6.989999771,-3.079999924,2576.1851115,0.0,0.0,0.0
29.599999999999998,2605.108571537,-12.57999992,-7.005000114,-0.254999995,2591.5610884999996,0.0,0.0,0.0
29.7,2646.5440365369996,-12.58666674,-6.739999771,1.570000052,2607.3380665,0.0,0.0,0.0
29.799999999999997,2682.9571225369996,-12.58666674,-7.13499999,3.299999952,2607.3380665,0.0,0.0,0.0
29.9,2780.725921537,-12.58666674,-7.434999943,6.485000134,2633.6469644999997,0.0,0.0,0.0
30.0,2807.884857537,-9.295000076,-7.480000019,8.385000229,2644.4199755,0.0,0.0,0.0
30.099999999999998,2827.7708435369996,-8.575000048,-7.085000038,9.039999962,2644.4199755,0.0,0.0,0.0
30.2,2821.111663537,-5.630000114,-8.0,7.934999943,2660.2729415,0.0,0.0,0.0
30.299999999999997,2806.6375425369997,-2.99333334,-8.429999828,8.244999886,2676.0859295,0.0,0.0,0.0
30.4,2808.569508537,0.350000015,-8.309999943,6.400000095,2676.0859295,0.0,0.0,0.0
30.5,2814.173675537,-0.405000011,-8.760000229,4.709999959,2692.0508955,0.0,0.0,0.0
30.599999999999998,2806.7425235369997,0.899999976,-8.720000267,1.629999995,2707.3798755,0.0,0.0,0.0
30.7,2837.478118537,1.329999983,-8.295000076,1.269999981,2717.8001025,0.0,0.0,0.0
30.799999999999997,2846.617767537,2.170000076,-7.809999943,-1.379999995,2717.8001025,0.0,0.0,0.0
30.9,2871.880462537,1.850000024,-7.079999924,-4.720000029,2733.4980395,0.0,0.0,0.0
31.0,2878.4720155369996,0.095000006,-6.819999933,-6.730000019,2748.6338425,0.0,0.0,0.0
31.099999999999998,2899.158050537,-1.685000002,-6.849999905,-7.010000229,2763.8550944999997,0.0,0.0,0.0
31.2,2918.9239195369996,-5.544999838,-5.75,-6.36500001,2763.8550944999997,0.0,0.0,0.0
31.299999999999997,2929.5088805369996,-7.36500001,-5.580000162,-7.284999847,2774.0409465,0.0,0.0,0.0
31.4,2935.039154537,-10.39499998,-5.340000153,-6.849999905,2789.4819254999998,0.0,0.0,0.0
31.5,2930.779876537,-11.97999954,-5.28333346,-5.265000105,2804.6900554999997,0.0,0.0,0.0
31.599999999999998,2927.797210537,-12.24666691,-4.039999962,-4.194999933,2804.6900554999997,0.0,0.0,0.0
31.7,2931.4187925369997,-12.01000023,-4.74000001,-4.194999933,2820.2259445,0.0,0.0,0.0
31.799999999999997,2932.973805537,-12.88000011,-4.589999914,-0.570000008,2830.4719164999997,0.0,0.0,0.0
31.9,2953.864105537,-13.43999958,-4.679999828,1.785000026,2845.9019085,0.0,0.0,0.0
32.0,2964.618499537,-11.07000017,-4.710000038,1.785000026,2845.9019085,0.0,0.0,0.0
32.1,2987.825530537,-9.34499979,-5.159999847,5.670000076,2860.8588795,0.0,0.0,0.0
32.199999999999996,3020.187835537,-8.289999962,-4.86500001,6.03000021,2870.6110765,0.0,0.0,0.0
32.3,3059.592132537,-5.755000114,-5.880000114,8.554999828,2880.0800704999997,0.0,0.0,0.0
32.4,3079.4556575369998,-3.449999928,-5.910000086,9.234999657,2880.0800704999997,0.0,0.0,0.0
32.5,3089.9324645369998,-1.155000031,-5.605000019,9.869999886,2899.7709274999997,0.0,0.0,0.0
32.6,3099.6775815369997,0.469999999,-6.53000021,8.635000229,2909.3650435,0.0,0.0,0.0
32.699999999999996,3116.769866537,1.229999989,-6.849999905,9.529999733,2909.3650435,0.0,0.0,0.0
32.8,3118.911712537,1.229999989,-6.733333429,6.823333263,2924.1160204999996,0.0,0.0,0.0
32.9,3118.911712537,1.229999989,-6.460000038,4.050000191,2814.9460985,0.0,0.0,0.0
33.0,3122.422454537,3.644999981,-6.565000057,2.549999952,2810.5869675,0.0,0.0,0.0
33.1,3107.180999537,2.789999962,-6.569999933,1.139999986,2810.5869675,0.0,0.0,0.0
33.199999999999996,3109.572113537,2.789999962,-6.194999933,0.529999971,2818.8120655,0.0,0.0,0.0
33.3,3105.9949645369998,2.789999962,-5.880000114,-2.650000036,2826.5650554999997,0.0,0.0,0.0
33.4,3114.620941537,2.470000029,-5.944999933,-4.11499989,2833.2688525,0.0,0.0,0.0
33.5,3124.899749537,2.410000086,-5.409999847,-6.099999905,2833.2688525,0.0,0.0,0.0
33.6,3124.369232537,0.270000011,-4.534999847,-8.149999619,2838.7800214999997,0.0,0.0,0.0
33.699999999999996,3141.592783537,-1.049999982,-3.75,-7.815000057,2842.5638965,0.0,0.0,0.0
33.8,3161.964202537,-4.320000172,-3.720000029,-8.275000334,2848.1260294999997,0.0,0.0,0.0
33.9,3172.632171537,-5.829999924,-3.034999967,-8.275000334,2848.1260294999997,0.0,0.0,0.0
34.0,3168.1595155369996,-7.730000019,-2.535000086,-5.690000057,2853.6878585,0.0,0.0,0.0
34.1,3165.1690365369996,-9.920000076,-2.544999957,-6.059999943,2859.5460125,0.0,0.0,0.0
34.199999999999996,3178.1266375369996,-11.89000034,-2.290000081,-4.123333375,2863.2191085,0.0,0.0,0.0
34.3,3185.8489685369996,-11.125,-2.169999957,-2.554999948,2863.2191085,0.0,0.0,0.0
34.4,3193.064300537,-12.45499992,-2.190000057,-0.670000032,2868.7800214999997,0.0,0.0,0.0
34.5,3196.175384537,-12.35000038,-2.25999999,0.414999999,2873.7928395,0.0,0.0,0.0
34.6,3194.878916537,-11.6500001,-2.610000014,3.370000005,2873.7928395,0.0,0.0,0.0
34.699999999999996,3203.6358335369996,-10.78999996,-3.029999971,5.454999924,2876.6990275,0.0,0.0,0.0
34.8,3213.6690365369996,-10.13999987,-2.840000033,6.995000124,2880.6519694999997,0.0,0.0,0.0
34.9,3219.355316537,-7.110000134,-3.284999967,7.849999905,2884.4138715,0.0,0.0,0.0
35.0,3231.4363705369997,-6.49000001,-3.225000024,7.849999905,2884.4138715,0.0,0.0,0.0
35.1,3247.654144537,-4.285000086,-3.745000005,9.355000019,2888.3030314999996,0.0,0.0,0.0
35.199999999999996,3258.997405537,-4.285000086,-3.894999981,10.59500027,2891.1719894999997,0.0,0.0,0.0
35.3,3264.3482365369996,-4.285000086,-3.975000143,9.81000042,2891.1719894999997,0.0,0.0,0.0
35.4,3294.796722537,1.370000005,-4.409999847,8.044999838,2899.1239545,0.0,0.0,0.0
35.5,3304.604095537,1.929999948,-4.215000153,6.725000143,2902.0100024999997,0.0,0.0,0.0
35.6,3294.7493595369997,3.586666743,-4.269999981,4.105000019,2906.1091235,0.0,0.0,0.0
35.699999999999996,3294.0774845369997,5.045000076,-3.950000048,2.180000067,2906.1091235,0.0,0.0,0.0
35.8,3296.919280537,5.86500001,-3.659999967,0.334999993,2910.2329634999996,0.0,0.0,0.0
35.9,3293.9024355369997,5.215000153,-3.400000095,-1.210000038,2913.0680465,0.0,0.0,0.0
36.0,3286.445404537,4.974999905,-2.924999952,-4.189999938,2917.1268845,0.0,0.0,0.0
36.1,3285.484222537,4.734999895,-3.049999952,-5.985000134,2917.1268845,0.0,0.0,0.0
36.199999999999996,3288.204681537,4.13499999,-2.083333333,-7.139999866,2920.7059854999998,0.0,0.0,0.0
36.3,3294.442230537,2.5,-1.539999962,-7.795000076,2922.8590015,0.0,0.0,0.0
36.4,3294.873708537,2.5,-1.605000019,-8.820000172,2922.8590015,0.0,0.0,0.0
36.5,3290.6006775369997,2.5,-1.334999979,-9.144999981,2926.0880665,0.0,0.0,0.0
36.6,3288.894866537,0.069999993,-0.854999989,-9.234999657,2929.5600504999998,0.0,0.0,0.0
36.699999999999996,3289.6956485369997,-2.559999943,-0.365000002,-9.110000134,2932.3429484999997,0.0,0.0,0.0
36.8,3282.912689537,-4.860000134,-0.144999995,-7.845000029,2932.3429484999997,0.0,0.0,0.0
36.9,3287.5530705369997,-8.430000067,0.449999988,-6.949999809,2934.5609664999997,0.0,0.0,0.0
37.0,3294.0037535369997,-9.454999924,0.394999996,-5.414999962,2937.3200604999997,0.0,0.0,0.0
37.1,3300.0069275369997,-10.93499994,0.474999994,-3.080000043,2940.1038745,0.0,0.0,0.0
37.199999999999996,3294.749114537,-11.84000015,0.385000005,-1.439999998,2940.1038745,0.0,0.0,0.0
37.3,3299.141693537,-11.875,0.129999995,-1.439999998,2941.9511035,0.0,0.0,0.0
37.4,3301.004241537,-11.89999962,0.360000014,3.335000038,2948.2648845,0.0,0.0,0.0
37.5,3301.2708435369996,-10.96999979,0.109999998,5.739999771,2948.2648845,0.0,0.0,0.0
37.6,3304.0274355369997,-9.404999733,-0.354999989,6.25,2950.0699995,0.0,0.0,0.0
37.699999999999996,3310.7293395369998,-8.569999695,-0.699999988,7.590000153,2952.6438525,0.0,0.0,0.0
37.8,3326.380869537,-7.109999895,-0.545000009,9.313333511,2952.6438525,0.0,0.0,0.0
37.9,3334.9725035369997,-5.649999857,-0.769999981,9.930000305,2953.4901044999997,0.0,0.0,0.0
38.0,3340.437347537,-2.870000005,-1.149999976,9.805000305,2955.6330485,0.0,0.0,0.0
38.1,3349.181488537,-1.345000029,-0.949999988,10.03000021,2957.7439495,0.0,0.0,0.0
38.199999999999996,3353.025563537,0.705000021,-1.404999971,9.400000095,2957.7439495,0.0,0.0,0.0
38.3,3353.309905537,2.139999986,-1.179999948,9.400000095,2959.2118455,0.0,0.0,0.0
38.4,3344.7388615369996,3.079999924,-1.289999962,6.895000219,2960.2219775,0.0,0.0,0.0
38.5,3343.367279537,5.069999933,-1.299999952,5.5849998,2962.0139695,0.0,0.0,0.0
38.6,3342.4920345369997,6.085000038,-1.373333335,3.559999943,2962.0139695,0.0,0.0,0.0
38.699999999999996,3340.9795835369996,6.919999838,-1.480000019,1.860000014,2963.5920335,0.0,0.0,0.0
38.8,3339.3494565369997,6.919999838,-0.960000008,-0.75000003,2966.0770795,0.0,0.0,0.0
38.9,3330.9019465369997,6.919999838,-0.580000013,-2.50999999,2966.0770795,0.0,0.0,0.0
39.0,3330.9019465369997,6.954999924,-0.319999985,-4.739999771,2966.0770795,0.0,0.0,0.0
39.1,3320.8475035369997,5.599999905,0.234999999,-5.119999886,2970.7011035,0.0,0.0,0.0
39.199999999999996,3305.282318537,5.494999886,0.029999999,-7.015000105,2971.5198895,0.0,0.0,0.0
39.3,3298.7132265369996,4.300000191,0.704999983,-7.825000286,2972.8858565,0.0,0.0,0.0
39.4,3293.902191537,2.033333282,0.959999979,-8.945000172,2972.8858565,0.0,0.0,0.0
39.5,3283.589691537,0.689999998,1.25,-9.440000057,2974.0150065,0.0,0.0,0.0
39.6,3272.923675537,-1.629999995,1.86500001,-9.43999958,2975.3290935,0.0,0.0,0.0
39.699999999999996,3273.9889425369997,-2.954999924,1.950000048,-9.235000134,2975.3290935,0.0,0.0,0.0
39.8,3280.4324645369998,-5.004999876,2.355000019,-8.23999993,2977.3148724999996,0.0,0.0,0.0
39.9,3283.374847537,-5.004999876,2.554999948,-7.495000124,2978.4910204999996,0.0,0.0,0.0
40.0,3275.3826595369997,-5.004999876,2.415000081,-6.71999979,2981.7679974999996,0.0,0.0,0.0
40.1,3265.9644465369997,-8.654999733,2.835000038,-5.150000095,2981.7679974999996,0.0,0.0,0.0
40.199999999999996,3258.0638125369996,-9.980000019,2.735000014,-3.230000019,2983.3048624999997,0.0,0.0,0.0
40.3,3263.150970537,-11.43999958,3.039999962,-2.24999996,2985.9009935,0.0,0.0,0.0
40.4,3264.5276795369996,-11.34000015,2.703333378,-0.550000012,2988.2670215,0.0,0.0,0.0
40.5,3268.643402537,-11.58500004,2.400000095,2.129999995,2988.2670215,0.0,0.0,0.0
40.6,3265.086761537,-10.88500023,2.609999895,3.234999895,2990.0339885,0.0,0.0,0.0
40.699999999999996,3263.4070735369996,-9.930000305,1.549999952,5.75999999,2885.6409835,0.0,0.0,0.0
40.8,3261.134857537,-9.710000038,1.605000019,7.920000076,2876.9779584999997,0.0,0.0,0.0
40.9,3263.467132537,-8.34499979,1.324999988,8.239999771,2876.9779584999997,0.0,0.0,0.0
41.0,3265.400238537,-6.879999876,1.360000014,9.089999676,2870.2311325,0.0,0.0,0.0
41.1,3256.2552185369996,-5.15500021,0.745000005,9.340000153,2866.9819254999998,0.0,0.0,0.0
41.199999999999996,3246.673675537,-3.784999967,0.819999993,9.704999924,2862.2269825,0.0,0.0,0.0
41.3,3242.397064537,-1.440000057,0.590000004,9.349999905,2862.2269825,0.0,0.0,0.0
41.4,3238.6795345369997,-0.535000015,0.839999974,8.444999695,2856.5760425,0.0,0.0,0.0
41.5,3233.4180605369997,1.756666621,0.74000001,8.190000057,2850.9299855,0.0,0.0,0.0
41.6,3223.4941505369998,3.25,0.319999993,6.730000019,2850.9299855,0.0,0.0,0.0
41.699999999999996,3230.4851985369996,4.440000057,0.590000004,5.085000038,2847.2001265,0.0,0.0,0.0
41.8,3217.0657655369996,5.25,0.575000003,3.029999971,2842.2480395,0.0,0.0,0.0
41.9,3212.5232845369997,6.789999962,1.039999962,1.465000033,2837.6469035,0.0,0.0,0.0
42.0,3199.3633725369996,7.383333206,1.599999964,1.25999999,2837.6469035,0.0,0.0,0.0
42.1,3171.812835537,8.130000114,1.955000043,1.25999999,2837.6469035,0.0,0.0,0.0
42.199999999999996,3162.681488537,7.650000095,2.24000001,-3.773333311,2829.2939374999996,0.0,0.0,0.0
42.3,3157.475921537,7.0400002,2.320000052,-5.800000191,2823.2609175,0.0,0.0,0.0
42.4,3161.237884537,6.164999962,2.809999943,-7.039999962,2823.2609175,0.0,0.0,0.0
42.5,3161.237884537,4.304999828,3.540000081,-8.100000381,2823.2609175,0.0,0.0,0.0
42.6,3149.558441537,3.430000067,3.460000038,-8.710000038,2811.5250775,0.0,0.0,0.0
42.699999999999996,3146.3081965369997,1.649999976,3.555000067,-8.535000324,2804.3400195,0.0,0.0,0.0
42.8,3116.4588315369997,0.439999998,3.866666714,-8.13499999,2804.3400195,0.0,0.0,0.0
42.9,3102.6993105369997,-1.209999979,4.169999838,-8.43500042,2796.6288375,0.0,0.0,0.0
43.0,3100.332366537,-3.7700001,4.110000134,-7.370000124,2792.2230145,0.0,0.0,0.0
43.1,3100.332366537,-5.38499999,4.595000029,-5.829999924,2784.9549485,0.0,0.0,0.0
43.199999999999996,3081.575530537,-7.024999857,4.074999928,-3.519999981,2784.9549485,0.0,0.0,0.0
43.3,3079.015472537,-8.160000086,4.144999981,-2.379999995,2777.6969525,0.0,0.0,0.0
43.4,3079.163665537,-9.039999962,4.03000021,-1.50999999,2772.5498585,0.0,0.0,0.0
43.5,3066.267425537,-10.46499968,3.975000024,0.810000002,2772.5498585,0.0,0.0,0.0
43.6,3057.625335537,-10.75999975,3.090000033,2.99000001,2765.1038745,0.0,0.0,0.0
43.699999999999996,3040.546722537,-11.17000008,2.984999895,4.71999979,2765.1038745,0.0,0.0,0.0
43.8,3035.966644537,-11.17000008,2.964999914,5.934999943,2749.9570845,0.0,0.0,0.0
43.9,3034.5320735369996,-11.17000008,2.839999914,6.609999895,2749.9570845,0.0,0.0,0.0
44.0,3030.1567485369997,-9.683333397,2.299999952,8.100000381,2744.7309495,0.0,0.0,0.0
44.1,3032.739105537,-9.050000191,2.400000095,9.105000019,2736.8958665,0.0,0.0,0.0
44.199999999999996,3032.739105537,-7.170000076,2.276666641,8.680000305,2728.8669965,0.0,0.0,0.0
44.3,3026.447357537,-4.739999771,2.680000067,9.115000248,2728.8669965,0.0,0.0,0.0
44.4,3012.9300235369997,-3.055000007,2.355000019,8.255000114,2723.3158495,0.0,0.0,0.0
44.5,3003.8033955369997,-1.069999963,2.49000001,7.329999924,2714.7959515,0.0,0.0,0.0
44.6,2985.842132537,0.154999996,2.589999914,5.576666514,2706.4478685,0.0,0.0,0.0
44.699999999999996,2987.925384537,1.964999974,2.719999949,3.550000072,2706.4478685,0.0,0.0,0.0
44.8,2980.498382537,2.835000038,2.845000029,3.019999981,2697.6710125,0.0,0.0,0.0
44.9,2953.829925537,4.694999933,3.609999895,1.140000015,2691.6828535,0.0,0.0,0.0
45.0,2943.160980537,5.650000095,4.24000001,-1.504999995,2691.6828535,0.0,0.0,0.0
45.1,2932.7737735369997,6.420000076,4.639999866,-4.2700001,2682.6499555,0.0,0.0,0.0
45.199999999999996,2930.1980895369998,6.389999866,4.525000095,-5.96999979,2676.5378954999996,0.0,0.0,0.0
45.3,2912.635345537,6.590000153,4.579999924,-6.440000057,2667.4268724999997,0.0,0.0,0.0
45.4,2906.5418395369998,6.934999943,5.029999971,-7.465000153,2667.4268724999997,0.0,0.0,0.0
45.5,2886.440277537,5.659999847,5.430000067,-7.085000038,2659.0018845,0.0,0.0,0.0
45.6,2865.993743537,4.694999933,5.329999924,-8.190000057,2650.2961345,0.0,0.0,0.0
45.699999999999996,2859.1263125369996,3.50999999,5.375,-7.524999857,2644.1209025,0.0,0.0,0.0
45.8,2843.6307065369997,2.25999999,5.534999847,-6.949999809,2644.1209025,0.0,0.0,0.0
45.9,2828.5188905369996,0.375,4.880000114,-6.260000229,2635.0980755,0.0,0.0,0.0
46.0,2807.602874537,-2.660000086,5.059999943,-4.653333505,2626.4710615,0.0,0.0,0.0
46.1,2781.4568785369997,-4.0,4.420000076,-1.75999999,2617.4210734999997,0.0,0.0,0.0
46.199999999999996,2794.6951595369997,-5.975000143,3.850000024,-1.955000043,2617.4210734999997,0.0,0.0,0.0
46.3,2805.0401305369996,-6.289999962,3.119999886,0.560000017,2611.1469644999997,0.0,0.0,0.0
46.4,2803.327972537,-8.099999905,4.429999828,1.889999986,2601.6898724999996,0.0,0.0,0.0
46.5,2802.551116537,-9.269999981,3.336666663,4.330000003,2592.4299235,0.0,0.0,0.0
46.6,2787.357269537,-10.61999989,3.6450001,5.324999809,2592.4299235,0.0,0.0,0.0
46.699999999999996,2776.064300537,-9.855000019,3.299999952,6.420000076,2582.8919604999996,0.0,0.0,0.0
46.8,2738.8919375369996,-9.539999962,3.185000062,7.944999933,2582.8919604999996,0.0,0.0,0.0
46.9,2725.244720537,-8.739999771,2.725000024,7.795000076,2566.8281174999997,0.0,0.0,0.0
47.0,2715.3025815369997,-8.390000343,2.75333333,7.319999933,2556.8308635,0.0,0.0,0.0
47.1,2707.055999537,-7.200000048,3.475000024,5.900000095,2546.1960985,0.0,0.0,0.0
47.199999999999996,2706.657318537,-5.644999981,3.25,5.420000076,2546.1960985,0.0,0.0,0.0
47.3,2682.4952085369996,-3.360000014,4.514999866,3.534999967,2539.2539595,0.0,0.0,0.0
47.4,2676.972259537,-1.609999955,4.75999999,1.155000001,2528.5819625,0.0,0.0,0.0
47.5,2656.7093205369997,0.314999998,5.069999933,0.045000017,2517.6578904999997,0.0,0.0,0.0
47.6,2627.8257755369996,1.279999971,5.674999952,-0.834999979,2517.6578904999997,0.0,0.0,0.0
47.699999999999996,2617.5073345369997,2.559999943,5.034999847,-4.0,2510.0071335,0.0,0.0,0.0
47.8,2601.837738537,4.036666711,5.795000076,-4.389999866,2510.0071335,0.0,0.0,0.0
47.9,2589.8289485369996,5.170000076,5.284999847,-5.579999924,2486.7759324999997,0.0,0.0,0.0
48.0,2586.0369565369997,5.450000048,4.710000038,-7.3349998,2486.7759324999997,0.0,0.0,0.0
48.1,2570.1263125369996,6.13499999,5.340000153,-7.400000095,2486.7759324999997,0.0,0.0,0.0
48.199999999999996,2563.3343205369997,5.409999847,4.599999905,-7.5,2467.8818895,0.0,0.0,0.0
48.3,2534.187835537,4.783333381,4.760000229,-6.306666692,2456.7759324999997,0.0,0.0,0.0
48.4,2519.396087537,3.605000138,3.754999995,-4.935000181,2456.7759324999997,0.0,0.0,0.0
48.5,2496.731780537,1.899999976,3.809999943,-3.720000029,2445.9098434999996,0.0,0.0,0.0
48.6,2489.6895445369996,-1.175000042,3.376666625,-2.884999931,2438.5389324999996,0.0,0.0,0.0
48.699999999999996,2487.258636537,-3.785000086,3.690000057,-0.180000007,2438.5389324999996,0.0,0.0,0.0
48.8,2463.005950537,-5.264999866,3.080000043,1.683333357,2427.4421315,0.0,0.0,0.0
48.9,2446.712738537,-6.440000057,3.335000038,1.683333357,2427.4421315,0.0,0.0,0.0
49.0,2442.4451595369997,-7.879999876,3.160000086,5.349999905,2404.0778735,0.0,0.0,0.0
49.1,2441.6302185369996,-9.139999866,3.855000019,5.929999828,2404.0778735,0.0,0.0,0.0
49.199999999999996,2409.765472537,-9.929999828,4.650000095,7.164999962,2384.9979785,0.0,0.0,0.0
49.3,2386.8089295369996,-9.140000343,4.724999905,8.010000229,2373.3359904999998,0.0,0.0,0.0
49.4,2383.4368595369997,-9.635000229,4.556666692,7.120000124,2373.3359904999998,0.0,0.0,0.0
49.5,2368.968597537,-8.300000191,4.869999886,6.050000191,2365.4029465,0.0,0.0,0.0
49.6,2346.523935537,-7.699999809,5.205000162,4.689999819,2354.1230395,0.0,0.0,0.0
49.699999999999996,2332.8650815369997,-6.389999866,5.96999979,2.934999943,2342.4909595,0.0,0.0,0.0
49.8,2313.8587345369997,-3.670000076,4.945000172,0.920000017,2342.4909595,0.0,0.0,0.0
49.9,2295.5899355369997,-2.049999952,5.410000006,-0.409999989,2334.8109055,0.0,0.0,0.0
50.0,2275.611175537,-2.059999943,4.039999962,-0.409999989,2322.7619554999997,0.0,0.0,0.0
50.1,2255.327972537,1.12666665,4.960000038,-2.940000057,2310.1890184999997,0.0,0.0,0.0
50.199999999999996,2233.7649845369997,2.644999981,3.910000086,-4.765000105,2310.1890184999997,0.0,0.0,0.0
50.3,2225.824798537,3.25999999,4.146666686,-6.059999943,2298.5679244999997,0.0,0.0,0.0
50.4,2203.6719665369997,4.13499999,3.445000052,-7.034999847,2291.3059614999997,0.0,0.0,0.0
50.5,2171.478118537,4.280000091,3.98999989,-5.805000067,2291.3059614999997,0.0,0.0,0.0
50.6,2160.841644537,4.98333327,3.49000001,-6.050000032,2277.4729534999997,0.0,0.0,0.0
50.699999999999996,2141.9051205369997,4.98333327,3.573333343,-4.929999828,2264.4788745,0.0,0.0,0.0
50.8,2131.2874455369997,4.98333327,3.25999999,-3.584999919,2252.4479294999996,0.0,0.0,0.0
50.9,2119.744232537,3.360000014,4.389999866,-1.565000057,2252.4479294999996,0.0,0.0,0.0
51.0,2103.049652537,1.710000038,3.059999943,0.339999989,2243.7730025,0.0,0.0,0.0
51.1,2086.1687925369997,-1.835000008,4.460000038,0.989999942,2102.1250535,0.0,0.0,0.0
51.199999999999996,2078.9725035369997,-4.329999924,4.440000057,0.989999942,2102.1250535,0.0,0.0,0.0
51.3,2068.5701595369997,-5.305000067,4.669999838,6.960000038,2067.1308515,0.0,0.0,0.0
51.4,2049.044830537,-6.585000038,4.239999771,6.420000076,2055.6251144999997,0.0,0.0,0.0
51.5,2024.483367537,-8.154999971,4.419999838,6.429999987,2037.6310344999997,0.0,0.0,0.0
51.6,2007.651214537,-9.554999828,5.576666673,5.524999857,2037.6310344999997,0.0,0.0,0.0
51.699999999999996,1979.769988537,-8.889999866,5.929999828,5.619999886,2019.1938394999997,0.0,0.0,0.0
51.8,1950.191131537,-9.404999733,4.570000172,4.489999771,2000.2408984999997,0.0,0.0,0.0
51.9,1940.175262537,-9.404999733,4.659999847,3.200000167,2000.2408984999997,0.0,0.0,0.0
52.0,1903.453094537,-9.404999733,4.656666756,0.446666663,1987.3579025,0.0,0.0,0.0
52.1,1903.810882537,-8.420000076,5.260000229,0.446666663,1968.3790205,0.0,0.0,0.0
52.199999999999996,1889.108856537,-6.850000143,4.324999928,-2.75,1950.0379564999998,0.0,0.0,0.0
52.3,1872.455413537,-5.190000057,3.279999971,-4.839999914,1950.0379564999998,0.0,0.0,0.0
52.4,1865.691497537,-3.49000001,3.174999952,-5.090000153,1950.0379564999998,0.0,0.0,0.0
52.5,1847.142791537,-1.860000014,2.664999962,-5.433333397,1919.9749374999997,0.0,0.0,0.0
52.6,1811.038909537,-0.583333313,3.330000043,-5.640000105,1901.2330244999998,0.0,0.0,0.0
52.699999999999996,1781.936614537,1.50999999,2.75,-5.914999962,1901.2330244999998,0.0,0.0,0.0
52.8,1758.707977537,3.080000043,3.394999981,-3.375,1882.5629804999999,0.0,0.0,0.0
52.9,1747.625457537,3.004999995,4.120000045,-3.375,1870.0370404999999,0.0,0.0,0.0
53.0,1754.582611537,3.890000105,3.855000019,0.170000014,1851.0619735,0.0,0.0,0.0
53.1,1739.344329537,2.730000019,3.420000076,1.269999981,1851.0619735,0.0,0.0,0.0
53.199999999999996,1739.344329537,2.730000019,5.234999895,3.160000086,1851.0619735,0.0,0.0,0.0
53.3,1716.502044537,2.730000019,4.670000076,3.799999952,1851.0619735,0.0,0.0,0.0
53.4,1679.910491537,-1.070000052,5.480000019,5.889999866,1851.0619735,0.0,0.0,0.0
53.5,1670.113983537,-2.529999971,4.88499999,6.575000048,1800.0880054999998,0.0,0.0,0.0
53.6,1654.877288537,-4.359999895,4.155000091,6.704999924,1780.5070114999999,0.0,0.0,0.0
53.699999999999996,1657.225555537,-7.224999905,4.369999886,6.599999905,1760.9379194999997,0.0,0.0,0.0
53.8,1612.330373537,-8.329999924,4.889999866,5.440000057,1760.9379194999997,0.0,0.0,0.0
53.9,1595.854583537,-8.760000229,4.0,3.77000006,1747.7210615,0.0,0.0,0.0
54.0,1590.357391537,-9.625,3.814999938,1.039999962,1727.3350145,0.0,0.0,0.0
54.1,1557.982635537,-9.096666654,2.75,-0.185000004,1707.0269395,0.0,0.0,0.0
54.199999999999996,1537.560028537,-9.096666654,3.689999938,-0.185000004,1707.0269395,0.0,0.0,0.0
54.3,1516.422454537,-9.096666654,3.059999943,-3.130000114,1707.0269395,0.0,0.0,0.0
54.4,1498.763885537,-9.909999847,3.0,-5.019999981,1673.6550524999998,0.0,0.0,0.0
54.5,1491.523895537,-7.75999999,3.500000119,-4.320000172,1653.5729594999998,0.0,0.0,0.0
54.6,1454.290618537,-4.630000114,3.220000029,-4.769999981,1653.5729594999998,0.0,0.0,0.0
54.699999999999996,1437.120574537,-3.366666635,3.274999976,-4.219999909,1633.4829335,0.0,0.0,0.0
54.8,1428.382537537,-1.535000026,5.144999981,-3.88500011,1620.0939555,0.0,0.0,0.0
54.9,1399.532440537,-0.800000012,3.730000019,-1.030000001,1599.4709395,0.0,0.0,0.0
55.0,1395.409393537,0.76000002,4.310000062,-0.18999999,1599.4709395,0.0,0.0,0.0
55.1,1377.223846537,0.76000002,4.044999957,0.910000026,1579.2660145,0.0,0.0,0.0
55.199999999999996,1355.847808537,0.76000002,5.400000095,2.63499999,1579.2660145,0.0,0.0,0.0
55.3,1327.675872537,2.019999981,5.444999933,5.660000006,1545.3899764999996,0.0,0.0,0.0
55.4,1320.051300537,3.0,5.71999979,6.0,1524.8910145,0.0,0.0,0.0
55.5,1299.856048537,1.149999976,4.190000057,6.760000229,1504.5739365,0.0,0.0,0.0
55.6,1292.706451537,-0.180000007,4.1049999,6.105000019,1504.5739365,0.0,0.0,0.0
55.699999999999996,1270.335723537,-0.74000001,2.410000026,6.019999981,1490.0219345,0.0,0.0,0.0
55.8,1229.358734537,-2.6049999,4.695000172,2.684999943,1468.5769274999998,0.0,0.0,0.0
55.9,1204.657134537,-4.310000062,3.13499999,0.479999989,1454.1999434999998,0.0,0.0,0.0
56.0,1186.906768537,-6.78000021,4.024999976,-2.450000003,1454.1999434999998,0.0,0.0,0.0
56.1,1173.870941537,-8.069999933,3.099999905,-2.450000003,1454.1999434999998,0.0,0.0,0.0
56.199999999999996,1147.029510537,-9.326666832,2.846666654,-3.160000086,1454.1999434999998,0.0,0.0,0.0
56.3,1130.304962537,-9.640000343,3.830000043,-5.28000021,1454.1999434999998,0.0,0.0,0.0
56.4,1100.652191537,-9.300000191,3.850000083,-5.315000057,1454.1999434999998,0.0,0.0,0.0
56.5,1094.498016537,-9.300000191,3.049999952,-5.754999876,1366.4500045,0.0,0.0,0.0
56.6,1077.903533537,-9.300000191,4.259999911,-3.859999895,1344.5260235,0.0,0.0,0.0
56.699999999999996,1075.692474537,-8.079999924,5.194999933,-3.11500001,1344.5260235,0.0,0.0,0.0
56.8,1029.384002537,-6.416666667,5.625,-1.229999989,1329.6859355000001,0.0,0.0,0.0
56.9,1006.621124537,-5.349999905,4.059999943,1.774999976,1307.6110454999998,0.0,0.0,0.0
57.0,989.422088637,-2.795000076,5.673333327,3.014999986,1285.3260424999999,0.0,0.0,0.0
57.1,966.695037837,-1.729999959,5.579999924,7.019999981,1285.3260424999999,0.0,0.0,0.0
57.199999999999996,949.462738037,-0.285000026,2.930000067,5.8349998,1270.2289965,0.0,0.0,0.0
57.3,949.462738037,1.625,3.505000114,6.715000153,1247.7630235000001,0.0,0.0,0.0
57.4,927.765472437,1.74999994,2.890000105,5.46999979,1224.4799425,0.0,0.0,0.0
57.5,911.362213137,0.689999998,2.433333357,5.019999981,1224.4799425,0.0,0.0,0.0
57.6,913.381073037,1.485000014,2.184999943,4.75,1200.9930034999998,0.0,0.0,0.0
57.699999999999996,867.692311637,-1.500000055,3.819999933,3.629999876,1185.3609845,0.0,0.0,0.0
57.8,802.518402137,-4.149999976,3.960000038,-0.140000001,1185.3609845,0.0,0.0,0.0
57.9,802.518402137,-4.809999943,3.180000067,0.02,1185.3609845,0.0,0.0,0.0
58.0,813.120697037,-5.784999847,3.755000114,-2.789999962,1138.5250474999998,0.0,0.0,0.0
58.1,783.416066537,-7.340000153,3.875,-3.9799999,1122.9099655,0.0,0.0,0.0
58.199999999999996,735.258514437,-8.020000219,3.789999962,-6.049999952,1122.9099655,0.0,0.0,0.0
58.3,730.357513437,-10.68499994,3.890000105,-4.474999905,1099.3819804999998,0.0,0.0,0.0
58.4,712.340240437,-9.504999638,5.054999828,-2.88499999,1076.1059185,0.0,0.0,0.0
58.5,686.946197537,-9.504999638,5.355000019,-3.450000048,1052.4900435,0.0,0.0,0.0
58.6,677.257659937,-9.504999638,3.329999924,-0.209999993,1052.4900435,0.0,0.0,0.0
58.699999999999996,652.782684337,-7.650000095,3.950000048,1.539999962,1036.6199874999998,0.0,0.0,0.0
58.8,641.474456837,-7.260000229,3.073333343,1.539999962,1013.0669784999999,0.0,0.0,0.0
58.9,611.504730237,-4.570000172,4.2299999,4.530000091,989.3290324999999,0.0,0.0,0.0
59.0,593.327484137,-3.73999989,2.339999914,6.234999895,989.3290324999999,0.0,0.0,0.0
59.1,575.9306742370001,-1.129999995,1.959999979,5.305000067,965.2109904999999,0.0,0.0,0.0
59.199999999999996,577.502410937,-0.775000006,2.414999962,6.76666673,949.2890544999999,0.0,0.0,0.0
59.3,545.076751737,0.695000015,3.86500001,6.76666673,949.2890544999999,0.0,0.0,0.0
59.4,545.076751737,0.23999995,3.099999905,4.690000057,949.2890544999999,0.0,0.0,0.0
59.5,478.559051537,-0.104999989,2.5,0.74500002,900.9119795,0.0,0.0,0.0
59.6,460.666392037,0.419999987,2.680000067,0.870000005,884.5919415,0.0,0.0,0.0
59.699999999999996,429.474456837,1.555000067,3.75999999,-1.0066667,860.2599715,0.0,0.0,0.0
59.8,398.349517837,-5.059999943,4.204999924,-4.254999876,860.2599715,0.0,0.0,0.0
59.9,413.623077437,-5.320000172,4.159999967,-3.619999886,835.6029895,0.0,0.0,0.0
60.0,385.857391337,-6.220000029,4.235000014,-5.295000076,811.0979845,0.0,0.0,0.0
60.1,379.197784437,-9.84499979,3.150000095,-4.909999847,811.0979845,0.0,0.0,0.0
60.199999999999996,339.608490037,-9.820000172,4.599999905,-3.159999927,794.9290084999999,0.0,0.0,0.0
60.3,327.342742937,-11.32499981,4.309999943,-1.25000006,770.3750225,0.0,0.0,0.0
60.4,309.394866937,-8.090000153,4.304999948,-1.25000006,745.5540084999999,0.0,0.0,0.0
60.5,278.92257693700003,-9.729999542,3.599999905,2.24000001,745.5540084999999,0.0,0.0,0.0
60.6,245.422973637,-7.470000029,2.700000048,4.75999999,745.5540084999999,0.0,0.0,0.0
60.699999999999996,227.37936403700002,-3.200000115,3.420000037,5.389999866,704.1849894999999,0.0,0.0,0.0
60.8,211.123321537,-2.140000015,4.699999809,6.160000086,679.1499705,0.0,0.0,0.0
60.9,220.239532437,-2.440000087,3.839999914,6.319999933,679.1499705,0.0,0.0,0.0
61.0,211.41474403700002,0.12000002,2.130000114,4.03000021,662.5799945,0.0,0.0,0.0
61.0,211.41474403700002,0.12000002,2.130000114,4.03000021,662.5799945,0.0,0.0,0.0
