time,baro_altitude,accl_x,accl_y,accl_z,gps_altitude,gyro_roll,gyro_pitch,gyro_yaw
0.0,0.0,9.393333333,0.553333333,-0.39,0.0,0.0,0.0,0.0
0.09999999999999998,0.05499999999994998,9.395,0.55,-0.395,0.0,0.0,0.0,0.0
0.2,0.05499999999994998,9.395,0.565,-0.37,0.0,0.0,0.0,0.0
0.3,0.02166669999996884,9.406666667,0.546666667,-0.383333333,0.0,0.0,0.0,0.0
0.39999999999999997,0.07833329999994021,9.396666667,0.556666667,-0.383333333,0.0,0.0,0.0,0.0
0.49999999999999994,0.08833329999993111,9.396666667,0.546666667,-0.383333333,0.0,0.0,0.0,0.0
0.6000000000000001,0.06999999999993634,9.4,0.53,-0.36,0.0,0.0,0.0,0.0
0.7,-0.09000000000003183,9.4,0.55,-0.39,0.0,0.0,0.0,0.0
0.8,-0.14833329999999023,9.396666667,0.543333333,-0.383333333,0.0,0.0,0.0,0.0
0.9000000000000001,-0.055000000000063665,9.4,0.53,-0.4,0.0,0.0,0.0,0.0
1.0,-0.0049999999999954525,9.4,0.55,-0.38,0.0,0.0,0.0,0.0
1.1,-0.029999999999972715,9.396666667,0.55,-0.38,0.0,0.0,0.0,0.0
1.2,-0.024999999999977263,9.393333333,0.553333333,-0.38,0.0,0.0,0.0,0.0
1.3,-0.06166670000004615,9.396666667,0.546666667,-0.376666667,0.0,0.0,0.0,0.0
1.4000000000000001,-0.01999999999998181,9.39,0.55,-0.395,0.0,0.0,0.0,0.0
1.5,0.05999999999994543,9.41,0.535,-0.385,0.0,0.0,0.0,0.0
1.6,0.1516666999999643,9.393333333,0.556666667,-0.383333333,0.0,0.0,0.0,0.0
1.7,0.13833329999999933,9.403333333,0.55,-0.403333333,0.0,0.0,0.0,0.0
1.8,0.13833329999999933,9.4,0.55,-0.36,0.0,0.0,0.0,0.0
1.9000000000000001,0.07499999999993179,9.4,0.5575,-0.3775,0.0,0.0,0.0,0.0
2.0,0.07166669999992337,9.4,0.55,-0.37,0.0,0.0,0.0,0.0
2.0999999999999996,0.125,9.405,0.535,-0.39,0.0,0.0,0.0,0.0
2.1999999999999997,0.06499999999994088,9.39,0.54,-0.35,0.0,0.0,0.0,0.0
2.3,0.04499999999995907,9.405,0.545,-0.385,0.0,0.0,0.0,0.0
2.4,0.0583332999999584,9.395,0.55,-0.385,0.0,0.0,0.0,0.0
2.5,0.07833329999994021,9.3975,0.545,-0.365,0.0,0.0,0.0,0.0
2.5999999999999996,0.04499999999995907,9.395,0.55,-0.37,0.0,0.0,0.0,0.0
2.6999999999999997,0.024999999999977263,9.4,0.55,-0.4,0.0,0.0,0.0,0.0
2.8,0.08499999999992269,9.395,0.5525,-0.3825,0.0,0.0,0.0,0.0
2.9,0.008333300000003874,9.39,0.55,-0.365,0.0,0.0,0.0,0.0
3.0,0.01999999999998181,9.393333333,0.543333333,-0.356666667,0.0,0.0,0.0,0.0
3.0999999999999996,0.07499999999993179,9.39,0.55,-0.395,0.0,0.0,0.0,0.0
3.1999999999999997,0.08999999999991815,9.396666667,0.54,-0.39,0.0,0.0,0.0,0.0
3.3,0.14833329999999023,9.396666667,0.56,-0.38,0.0,0.0,0.0,0.0
3.4,0.1349999999999909,9.39,0.56,-0.39,0.0,0.0,0.0,0.0
3.5,0.16250000000002274,9.405,0.545,-0.3725,0.0,0.0,0.0,0.0
3.5999999999999996,0.2099999999999227,9.385,0.555,-0.38,0.0,0.0,0.0,0.0
3.6999999999999997,0.18499999999994543,9.4,0.55,-0.38,0.0,0.0,0.0,0.0
3.8,0.22500000000002274,9.39,0.56,-0.38,0.0,0.0,0.0,0.0
3.8999999999999995,0.12833330000000842,9.39,0.54,-0.386666667,0.0,0.0,0.0,0.0
4.0,0.07299999999997908,9.3975,0.54,-0.38,0.0,0.0,0.0,0.0
4.1,0.014999999999986358,9.413333333,0.556666667,-0.37,0.0,0.0,0.0,0.0
4.2,0.049999999999954525,9.39,0.56,-0.375,0.0,0.0,0.0,0.0
4.3,0.09833329999992202,9.405,0.535,-0.39,0.0,0.0,0.0,0.0
4.3999999999999995,0.07833329999994021,9.405,0.535,-0.385,0.0,0.0,0.0,0.0
4.5,0.05499999999994998,9.4,0.56,-0.386666667,0.0,0.0,0.0,0.0
4.6,0.09833329999992202,9.405,0.535,-0.37,0.0,0.0,0.0,0.0
4.7,0.1349999999999909,9.396666667,0.553333333,-0.393333333,0.0,0.0,0.0,0.0
4.8,0.125,9.415,0.55,-0.395,0.0,0.0,0.0,0.0
4.8999999999999995,0.049999999999954525,9.395,0.54,-0.39,0.0,0.0,0.0,0.0
5.0,0.01999999999998181,9.405,0.555,-0.38,0.0,0.0,0.0,0.0
5.1,-0.007500000000050022,9.3925,0.54,-0.375,0.0,0.0,0.0,0.0
5.2,-0.05166670000005524,9.396666667,0.556666667,-0.39,0.0,0.0,0.0,0.0
5.3,0.024999999999977263,9.396666667,0.555,-0.39,0.0,0.0,0.0,0.0
5.3999999999999995,0.07499999999993179,9.396666667,0.553333333,-0.375,0.0,0.0,0.0,0.0
5.5,0.048333299999967494,9.3975,0.55,-0.393333333,0.0,0.0,0.0,0.0
5.6,0.06166669999993246,9.403333333,0.545,-0.38,0.0,0.0,0.0,0.0
5.7,0.10500000000001819,9.393333333,0.545,-0.38,0.0,0.0,0.0,0.0
5.8,0.10500000000001819,9.395,0.55,-0.39,0.0,0.0,0.0,0.0
5.8999999999999995,0.17499999999995453,9.4,0.553333333,-0.365,0.0,0.0,0.0,0.0
6.0,0.16499999999996362,9.4,0.545,-0.403333333,-0.09999999999990905,0.0,0.0,0.0
6.1,0.12000000000000455,9.4,0.54,-0.4,-0.09999999999990905,0.0,0.0,0.0
6.2,0.10500000000001819,9.39,0.55,-0.385,-0.09999999999990905,0.0,0.0,0.0
6.3,0.10833330000002661,9.3975,0.55,-0.375,-0.09999999999990905,0.0,0.0,0.0
6.3999999999999995,0.1349999999999909,9.395,0.545,-0.38,-0.09999999999990905,0.0,0.0,0.0
6.5,0.07999999999992724,9.41,0.556666667,-0.39,-0.09999999999990905,0.0,0.0,0.0
6.6,0.008333300000003874,9.39,0.55,-0.403333333,-0.09999999999990905,0.0,0.0,0.0
6.7,-0.024999999999977263,9.4,0.55,-0.38,-0.09999999999990905,0.0,0.0,0.0
6.8,0.09500000000002728,9.4,0.55,-0.375,-0.09999999999990905,0.0,0.0,0.0
6.8999999999999995,0.10500000000001819,9.4,0.525,-0.383333333,-0.1999999999999318,0.0,0.0,0.0
7.0,0.08833329999993111,9.403333333,0.54,-0.39,-0.1999999999999318,0.0,0.0,0.0
7.1,0.0049999999999954525,9.4,0.56,-0.386666667,-0.1999999999999318,0.0,0.0,0.0
7.2,0.06166669999993246,9.396666667,0.545,-0.393333333,-0.1999999999999318,0.0,0.0,0.0
7.3,0.0583332999999584,9.396666667,0.55,-0.395,-0.1999999999999318,0.0,0.0,0.0
7.3999999999999995,0.03499999999996817,9.4,0.545,-0.383333333,-0.1999999999999318,0.0,0.0,0.0
7.5,0.09500000000002728,9.396666667,0.536666667,-0.38,-0.1999999999999318,0.0,0.0,0.0
7.6,0.10833330000002661,9.4,0.55,-0.373333333,-0.1999999999999318,0.0,0.0,0.0
7.7,0.04499999999995907,9.403333333,0.55,-0.385,-0.1999999999999318,0.0,0.0,0.0
7.8,0.0049999999999954525,9.39,0.55,-0.385,-0.1999999999999318,0.0,0.0,0.0
7.8999999999999995,-0.0016666999999870313,9.395,0.555,-0.38,-0.25,0.0,0.0,0.0
7.999999999999999,0.05499999999994998,9.39,0.56,-0.39,-0.25,0.0,0.0,0.0
8.100000000000001,0.049999999999954525,9.4,0.5475,-0.355,-0.2999999999999545,0.0,0.0,0.0
8.200000000000001,0.10749999999995907,9.4,0.56,-0.3775,-0.2999999999999545,0.0,0.0,0.0
8.3,0.10000000000002274,9.4025,0.556666667,-0.39,-0.2999999999999545,0.0,0.0,0.0
8.4,0.04499999999995907,9.4,0.535,-0.376666667,-0.2999999999999545,0.0,0.0,0.0
8.5,0.009999999999990905,9.39,0.5525,-0.385,-0.2999999999999545,0.0,0.0,0.0
8.600000000000001,0.03499999999996817,9.385,0.545,-0.3875,-0.2999999999999545,0.0,0.0,0.0
8.700000000000001,0.008333300000003874,9.405,0.545,-0.38,-0.2999999999999545,0.0,0.0,0.0
8.8,0.06499999999994088,9.3925,0.56,-0.375,-0.1999999999999318,0.0,0.0,0.0
8.9,0.10500000000001819,9.395,0.546666667,-0.39,-0.1999999999999318,0.0,0.0,0.0
9.0,0.04499999999995907,9.4,0.545,-0.366666667,-0.1999999999999318,0.0,0.0,0.0
9.100000000000001,0.009999999999990905,9.396666667,0.536666667,-0.36,-0.1999999999999318,0.0,0.0,0.0
9.200000000000001,0.11166670000000067,9.395,0.556666667,-0.38,-0.1999999999999318,0.0,0.0,0.0
9.3,-0.03833329999997659,9.396666667,0.555,-0.383333333,-0.1999999999999318,0.0,0.0,0.0
9.4,-0.05000000000006821,9.393333333,0.543333333,-0.385,-0.1999999999999318,0.0,0.0,0.0
9.5,-0.0049999999999954525,9.385,0.5525,-0.39,-0.1999999999999318,0.0,0.0,0.0
9.600000000000001,0.024999999999977263,9.403333333,0.553333333,-0.385,-0.1999999999999318,0.0,0.0,0.0
9.700000000000001,-0.0049999999999954525,9.4025,0.54,-0.366666667,-0.1999999999999318,0.0,0.0,0.0
9.8,0.01833329999999478,9.396666667,0.54,-0.375,-0.1999999999999318,0.0,0.0,0.0
9.9,0.08499999999992269,9.39,0.535,-0.376666667,-0.1999999999999318,0.0,0.0,0.0
10.0,0.049999999999954525,9.396666667,0.555,-0.375,-0.1999999999999318,0.0,0.0,0.0
10.100000000000001,0.08499999999992269,9.385,0.553333333,-0.375,-0.1999999999999318,0.0,0.0,0.0
10.200000000000001,0.052500000000009095,9.395,0.543333333,-0.39,-0.1999999999999318,0.0,0.0,0.0
10.3,0.06499999999994088,9.396666667,0.55,-0.39,-0.1999999999999318,0.0,0.0,0.0
10.4,0.10000000000002274,9.396666667,0.545,-0.365,-0.1999999999999318,0.0,0.0,0.0
10.5,0.03499999999996817,9.405,0.56,-0.37,-0.1999999999999318,0.0,0.0,0.0
10.600000000000001,0.014999999999986358,9.4,0.553333333,-0.4,-0.1999999999999318,0.0,0.0,0.0
10.700000000000001,0.05499999999994998,9.405,0.553333333,-0.383333333,-0.09999999999990905,0.0,0.0,0.0
10.8,0.009999999999990905,9.4,0.55,-0.396666667,-0.09999999999990905,0.0,0.0,0.0
10.9,0.0049999999999954525,9.39,0.555,-0.396666667,-0.09999999999990905,0.0,0.0,0.0
11.0,0.0,9.39,0.55,-0.392,-0.09999999999990905,0.0,0.0,0.0
11.100000000000001,0.08999999999991815,9.39,0.5575,-0.37,-0.09999999999990905,0.0,0.0,0.0
11.200000000000001,0.10500000000001819,9.402,0.56,-0.4,-0.09999999999990905,0.0,0.0,0.0
11.3,0.14833329999999023,9.39,0.553333333,-0.3875,-0.09999999999990905,0.0,0.0,0.0
11.4,0.14999999999997726,9.39,0.553333333,-0.39,-0.09999999999990905,0.0,0.0,0.0
11.5,0.1449999999999818,9.405,0.56,-0.376666667,-0.09999999999990905,0.0,0.0,0.0
11.600000000000001,0.04166669999995065,9.41,0.553333333,-0.383333333,-0.09999999999990905,0.0,0.0,0.0
11.700000000000001,0.08999999999991815,9.4,0.543333333,-0.38,-0.09999999999990905,0.0,0.0,0.0
11.8,0.09166670000001886,9.4,0.56,-0.38,-0.09999999999990905,0.0,0.0,0.0
11.9,0.12999999999999545,9.395,0.5525,-0.39,-0.09999999999990905,0.0,0.0,0.0
12.0,0.17499999999995453,9.396666667,0.54,-0.38,-0.09999999999990905,0.0,0.0,0.0
12.100000000000001,0.12000000000000455,9.406666667,0.556666667,-0.385,-0.09999999999990905,0.0,0.0,0.0
12.200000000000001,0.1449999999999818,9.4,0.55,-0.375,-0.09999999999990905,0.0,0.0,0.0
12.3,0.13999999999998636,9.4025,0.553333333,-0.376666667,-0.09999999999990905,0.0,0.0,0.0
12.4,0.1416666999999734,9.405,0.55,-0.36,-0.09999999999990905,0.0,0.0,0.0
12.5,0.18499999999994543,9.403333333,0.52,-0.39,-0.09999999999990905,0.0,0.0,0.0
12.600000000000001,0.1449999999999818,9.41,0.5275,-0.375,-0.09999999999990905,0.0,0.0,0.0
12.700000000000001,0.125,9.396666667,0.583333333,-0.39,-0.09999999999990905,0.0,0.0,0.0
12.8,-0.07749999999998636,9.4,-1.795,-1.92,-0.09999999999990905,0.0,0.0,0.0
12.9,0.998333300000013,9.4,2.95,0.06,-0.09999999999990905,0.0,0.0,0.0
13.0,2.4599999999999227,32.3275,1.37,-3.03,-0.09999999999990905,0.0,0.0,0.0
13.100000000000001,3.615000000000009,39.22,2.1475,-0.99,-0.09999999999990905,0.0,0.0,0.0
13.200000000000001,6.314999999999941,39.22,2.5,-0.173333333,-0.09999999999990905,0.0,0.0,0.0
13.3,11.571666699999923,39.22,2.8,-0.9825,-0.09999999999990905,0.0,0.0,0.0
13.4,16.495000000000005,39.22,2.68,-2.055,-0.09999999999990905,0.0,0.0,0.0
13.5,21.319999999999936,39.22,2.49,-3.235,-0.09999999999990905,0.0,0.0,0.0
13.600000000000001,29.595000000000027,39.22,2.03,-3.723333333,-0.09999999999990905,0.0,0.0,0.0
13.700000000000001,37.995000000000005,39.22,3.05,-3.21,-0.09999999999990905,0.0,0.0,0.0
13.8,41.36500000000001,39.22,4.386666667,-2.65,-0.09999999999990905,0.0,0.0,0.0
13.9,50.08499999999992,39.22,2.93,-1.775,-0.09999999999990905,0.0,0.0,0.0
14.0,64.47166670000001,39.22,2.39,-2.32,-0.09999999999990905,0.0,0.0,0.0
14.100000000000001,78.09500000000003,39.22,3.033333333,-2.65,-0.09999999999990905,0.0,0.0,0.0
14.200000000000001,92.47166670000001,39.22,2.295,-2.26,-0.09999999999990905,0.0,0.0,0.0
14.3,105.13499999999999,39.22,2.23,-3.7,-0.09999999999990905,0.0,0.0,0.0
14.4,119.125,39.22,4.443333333,-5.44,-0.09999999999990905,0.0,0.0,0.0
14.5,134.22000000000003,39.22,3.355,-4.615,-0.09999999999990905,0.0,0.0,0.0
14.600000000000001,143.64499999999998,39.22,3.22,-5.213333333,-0.09999999999990905,0.0,0.0,0.0
14.700000000000001,159.53499999999997,39.22,4.5825,-7.355,-0.09999999999990905,0.0,0.0,0.0
14.8,176.19833329999994,39.22,4.5,-6.37,-0.09999999999990905,0.0,0.0,0.0
14.9,197.57833329999994,39.22,4.653333333,-7.21,-0.09999999999990905,0.0,0.0,0.0
15.0,212.21499999999992,39.22,3.2,-7.38,-0.09999999999990905,0.0,0.0,0.0
15.100000000000001,226.9816667,39.22,3.383333333,-6.88,-0.09999999999990905,0.0,0.0,0.0
15.200000000000001,258.15166669999996,39.22,4.93,-7.073333333,-0.09999999999990905,0.0,0.0,0.0
15.3,278.4599999999999,39.22,4.933333333,-9.17,-0.09999999999990905,0.0,0.0,0.0
15.4,294.8399999999999,39.22,4.23,-10.22,-0.09999999999990905,0.0,0.0,0.0
15.5,316.05166669999994,39.22,4.56,-9.363333333,-0.09999999999990905,0.0,0.0,0.0
15.600000000000001,342.04499999999996,39.22,4.733333333,-9.83,-0.09999999999990905,0.0,0.0,0.0
15.700000000000001,360.275,39.22,3.47,-10.4,-0.09999999999990905,0.0,0.0,0.0
15.8,378.345,39.22,4.43,-10.33,-0.09999999999990905,0.0,0.0,0.0
15.900000000000002,396.81999999999994,39.22,3.036666667,-9.335,-0.09999999999990905,0.0,0.0,0.0
16.0,407.81499999999994,28.08333333,3.33,-9.0,-0.09999999999990905,0.0,0.0,0.0
16.1,424.42166699999996,-8.18,2.67,-9.913333333,-0.09999999999990905,0.0,0.0,0.0
16.2,456.2049999999999,-15.72,2.4,-9.92,-0.09999999999990905,0.0,0.0,0.0
16.3,479.31500000000005,-18.47666667,3.963333333,-10.43,-0.09999999999990905,0.0,0.0,0.0
16.400000000000002,488.595,-18.58,3.466666667,-10.26,-0.09999999999990905,0.0,0.0,0.0
16.5,508.14833299999987,-18.7,3.8375,-9.64,-0.09999999999990905,0.0,0.0,0.0
16.6,537.541667,-18.13,2.84,-9.12,-0.09999999999990905,0.0,0.0,0.0
16.7,569.1299999999999,-18.80333333,3.566666667,-9.35,-0.09999999999990905,0.0,0.0,0.0
16.8,602.79,-18.31666667,3.46,-8.17,-0.09999999999990905,0.0,0.0,0.0
16.900000000000002,620.3,-17.57,3.3525,-9.223333333,-0.09999999999990905,0.0,0.0,0.0
17.0,645.3575000000001,-17.03,2.903333333,-8.613333333,-0.09999999999990905,0.0,0.0,0.0
17.1,674.2349999999999,-16.44666667,2.64,-8.535,-0.09999999999990905,0.0,0.0,0.0
17.2,701.8116669999999,-15.73,3.34,-8.843333333,-0.09999999999990905,0.0,0.0,0.0
17.3,723.595,-15.585,2.72,-8.843333333,-0.09999999999990905,0.0,0.0,0.0
17.400000000000002,723.595,-14.67333333,2.913333333,-8.43,-0.09999999999990905,0.0,0.0,0.0
17.5,735.5450000000001,-14.67333333,2.923333333,-8.115,-0.09999999999990905,0.0,0.0,0.0
17.6,767.2375,-14.67333333,2.53,-7.76,-0.09999999999990905,0.0,0.0,0.0
17.7,798.3425,-14.39,2.753333333,-7.946666667,-0.09999999999990905,0.0,0.0,0.0
17.8,820.79,-13.955,2.37,-7.766666667,-0.09999999999990905,0.0,0.0,0.0
17.900000000000002,836.1099999999999,-13.45,2.135,-7.86,-0.09999999999990905,0.0,0.0,0.0
18.0,854.501667,-13.16,0.52,-7.41,-0.09999999999990905,0.0,0.0,0.0
18.1,876.4449999999999,-12.63,0.513333333,-6.986666667,-0.09999999999990905,0.0,0.0,0.0
18.2,948.5450000000001,-12.365,0.47,-6.986666667,-0.09999999999990905,0.0,0.0,0.0
18.3,962.2449999999999,-11.91333333,0.46,-6.465,-0.09999999999990905,0.0,0.0,0.0
18.400000000000002,1920.03,-11.82666667,0.49,-0.99,-0.09999999999990905,0.0,0.0,0.0
18.5,1924.925,-11.82666667,0.51,-0.933333333,-0.09999999999990905,0.0,0.0,0.0
18.6,1930.715,-11.82666667,0.49,-0.92,-0.09999999999990905,0.0,0.0,0.0
18.7,1934.635,-10.465,0.466666667,-0.93,-0.09999999999990905,0.0,0.0,0.0
18.8,1964.325,-1.31,0.473333333,-0.82,-0.09999999999990905,0.0,0.0,0.0
18.900000000000002,1964.325,-1.29,0.46,-0.8,-0.09999999999990905,0.0,0.0,0.0
19.0,1970.7949999999998,-1.253333333,0.423333333,-0.78,-0.09999999999990905,0.0,0.0,0.0
19.1,1974.3999999999999,-1.23,0.4,-0.763333333,-0.09999999999990905,0.0,0.0,0.0
19.2,1986.7116669999998,-1.04,0.4,-0.71,-0.09999999999990905,0.0,0.0,0.0
19.3,1990.14,-1.03,0.4,-0.685,-0.09999999999990905,0.0,0.0,0.0
19.400000000000002,1994.801667,-0.99,0.38,-0.686666667,-0.09999999999990905,0.0,0.0,0.0
19.5,2000.235,-0.966666667,0.36,-0.665,-0.09999999999990905,0.0,0.0,0.0
19.6,2002.6850000000002,-0.91,0.36,-0.66,-0.09999999999990905,0.0,0.0,0.0
19.7,2002.6850000000002,-0.875,0.4,-0.63,-0.09999999999990905,0.0,0.0,0.0
19.8,2009.6449999999998,-0.86,0.39,-0.61,-0.09999999999990905,0.0,0.0,0.0
19.900000000000002,2030.738333,-0.815,0.386666667,-0.43,-0.09999999999990905,0.0,0.0,0.0
20.0,2032.885,-0.82,0.405,-0.43,-0.09999999999990905,0.0,0.0,0.0
20.1,2032.885,-0.79,0.43,-0.42,-0.09999999999990905,0.0,0.0,0.0
20.2,2036.985,-0.76,0.43,-0.42,-0.09999999999990905,0.0,0.0,0.0
20.3,2037.5249999999999,-0.645,0.48,-0.36,-0.09999999999990905,0.0,0.0,0.0
20.400000000000002,2039.4550000000002,-0.645,0.48,-0.386666667,-0.09999999999990905,0.0,0.0,0.0
20.5,2041.0800000000002,-0.645,0.51,-0.375,-0.09999999999990905,0.0,0.0,0.0
20.6,2042.34,-0.64,0.58,-0.353333333,-0.09999999999990905,0.0,0.0,0.0
20.7,2042.34,-0.62,1.02,-0.35,-0.09999999999990905,0.0,0.0,0.0
20.8,2046.26,-0.62,0.75,-0.34,-0.09999999999990905,0.0,0.0,0.0
20.900000000000002,2042.201667,-0.62,1.0,-0.39,-0.09999999999990905,0.0,0.0,0.0
21.0,2044.4550000000002,-0.6,1.4,-0.36,-0.09999999999990905,0.0,0.0,0.0
21.1,2044.4550000000002,-0.61,2.04,-0.36,-0.09999999999990905,0.0,0.0,0.0
21.2,2050.26,-0.61,3.22,-1.015,-0.09999999999990905,0.0,0.0,0.0
21.3,2049.9700000000003,-0.61,-0.8,-1.01,-0.09999999999990905,0.0,0.0,0.0
21.400000000000002,2049.3949999999995,-0.6,-5.995,-1.15,-0.09999999999990905,0.0,0.0,0.0
21.5,2046.765,-0.61,-5.73,-1.64,-0.09999999999990905,0.0,0.0,0.0
21.6,2046.765,-0.59,-4.825,-1.64,-0.09999999999990905,0.0,0.0,0.0
21.7,2045.6850000000002,-0.47,-1.27,-1.5,-0.09999999999990905,0.0,0.0,0.0
21.8,2025.7250000000001,-0.46,0.28,2.33,-0.09999999999990905,0.0,0.0,0.0
21.900000000000002,2024.5649999999998,-0.41,0.545,2.33,-0.09999999999990905,0.0,0.0,0.0
22.0,2023.425,-0.1,1.63,4.665,-0.09999999999990905,0.0,0.0,0.0
22.1,2019.0049999999999,-0.1,5.873333333,4.665,-0.09999999999990905,0.0,0.0,0.0
22.2,2018.365,-0.1,4.04,8.03,-0.09999999999990905,0.0,0.0,0.0
22.3,2015.8149999999998,-0.42,-1.985,6.5,-0.09999999999990905,0.0,0.0,0.0
22.400000000000002,2015.8149999999998,0.1,-1.28,5.715,-0.09999999999990905,0.0,0.0,0.0
22.5,2011.2050000000002,0.1,-1.69,5.34,-0.09999999999990905,0.0,0.0,0.0
22.6,2006.695,0.1,2.63,5.11,-0.09999999999990905,0.0,0.0,0.0
22.7,2000.4750000000001,-0.52,1.68,5.97,-0.09999999999990905,0.0,0.0,0.0
22.8,1999.3149999999998,-0.52,-2.405,7.53,-0.09999999999990905,0.0,0.0,0.0
22.900000000000002,1980.1499999999999,-0.52,-4.54,-2.546666667,-0.09999999999990905,0.0,0.0,0.0
23.0,1975.595,-0.21,-7.7,-4.85,-0.09999999999990905,0.0,0.0,0.0
23.1,1975.595,-0.2,-12.72,-4.85,-0.09999999999990905,0.0,0.0,0.0
23.2,1971.8999999999999,0.265,-7.735,-10.66,-0.09999999999990905,0.0,0.0,0.0
23.3,1970.535,-0.2,-3.28,-10.65,-0.09999999999990905,0.0,0.0,0.0
23.400000000000002,1966.3149999999998,0.45,4.383333333,-10.65,-0.09999999999990905,0.0,0.0,0.0
23.5,1960.5649999999998,0.525,-0.56,-9.16,-0.09999999999990905,0.0,0.0,0.0
23.6,1958.965,1.02,2.04,-9.16,-0.09999999999990905,0.0,0.0,0.0
23.7,1922.7549999999999,4.436666667,6.55,-9.16,-0.09999999999990905,0.0,0.0,0.0
23.8,1922.7549999999999,5.13,5.713333333,-3.91,-0.09999999999990905,0.0,0.0,0.0
23.900000000000002,1918.615,5.13,-6.83,-5.54,-0.09999999999990905,0.0,0.0,0.0
24.0,1918.615,5.13,-5.89,-5.985,-0.09999999999990905,0.0,0.0,0.0
24.1,1910.5049999999999,3.24,-0.04,-5.36,-0.09999999999990905,0.0,0.0,0.0
24.2,1909.7050000000002,2.795,4.213333333,-3.96,-0.09999999999990905,0.0,0.0,0.0
24.3,1910.8516670000001,2.795,9.935,-5.08,-0.09999999999990905,0.0,0.0,0.0
24.400000000000002,1912.4150000000002,2.795,-8.77,-5.08,-0.09999999999990905,0.0,0.0,0.0
24.5,1912.1316669999999,2.3,-10.19,-5.08,-0.09999999999990905,0.0,0.0,0.0
24.6,1908.3949999999998,2.3,-10.67,-5.08,-0.09999999999990905,0.0,0.0,0.0
24.7,1903.2450000000001,2.3,-12.09,9.925,-0.09999999999990905,0.0,0.0,0.0
24.8,1903.2450000000001,2.3,-11.27,9.93,-0.09999999999990905,0.0,0.0,0.0
24.900000000000002,1891.3149999999998,2.3,-3.55,1.293333333,-0.09999999999990905,0.0,0.0,0.0
25.0,1889.825,4.235,9.6,1.293333333,-0.09999999999990905,0.0,0.0,0.0
25.1,1867.7749999999999,4.2,3.17,1.293333333,-0.09999999999990905,0.0,0.0,0.0
25.2,1867.7749999999999,4.43,-1.45,11.47,-0.09999999999990905,0.0,0.0,0.0
25.3,1858.95,4.23,-13.59,11.97,-0.09999999999990905,0.0,0.0,0.0
25.400000000000002,1852.075,3.87,-12.03,1.57,-0.09999999999990905,0.0,0.0,0.0
25.5,1852.075,3.51,2.59,-0.576666667,-0.09999999999990905,0.0,0.0,0.0
25.6,1852.075,3.51,-1.54,-13.54,-0.09999999999990905,0.0,0.0,0.0
25.7,1852.075,3.51,-1.82,-10.37,-0.09999999999990905,0.0,0.0,0.0
25.8,1840.7250000000001,3.51,-6.03,17.64,-0.09999999999990905,0.0,0.0,0.0
25.900000000000002,1836.2050000000002,3.51,-8.61,12.26666667,-0.09999999999990905,0.0,0.0,0.0
26.0,1836.2050000000002,3.51,-10.585,12.26666667,-0.09999999999990905,0.0,0.0,0.0
26.1,1828.8349999999998,3.51,-6.045,3.535,-0.09999999999990905,0.0,0.0,0.0
26.2,1807.015,4.485,-5.04,-4.24,-0.09999999999990905,0.0,0.0,0.0
26.3,1807.015,4.46,-2.69,-4.54,-0.09999999999990905,0.0,0.0,0.0
26.400000000000002,1807.195,2.666666667,0.57,-6.04,-0.09999999999990905,0.0,0.0,0.0
26.5,1809.3799999999999,2.666666667,1.97,-7.96,-0.09999999999990905,0.0,0.0,0.0
26.6,1809.135,2.666666667,6.42,-7.96,-0.09999999999990905,0.0,0.0,0.0
26.7,1805.2949999999998,2.666666667,5.905,6.365,-0.09999999999990905,0.0,0.0,0.0
26.8,1798.5249999999999,2.666666667,-2.65,9.76,-0.09999999999990905,0.0,0.0,0.0
26.900000000000002,1798.5249999999999,0.37,14.585,9.76,-0.09999999999990905,0.0,0.0,0.0
27.0,1791.2749999999999,0.71,11.93,9.76,-0.09999999999990905,0.0,0.0,0.0
27.1,1789.695,1.42,1.41,-1.15,-0.09999999999990905,0.0,0.0,0.0
27.2,1789.695,2.543333333,0.88,-1.15,-0.09999999999990905,0.0,0.0,0.0
27.3,1787.695,7.53,3.35,-9.27,-0.09999999999990905,0.0,0.0,0.0
27.400000000000002,1784.9383329999998,0.68,10.39,-10.68,-0.09999999999990905,0.0,0.0,0.0
27.5,1779.675,-0.57,5.41,-10.68,-0.09999999999990905,0.0,0.0,0.0
27.6,1778.695,-0.136666667,3.996666667,-1.6,-0.09999999999990905,0.0,0.0,0.0
27.7,1780.0449999999998,-0.136666667,1.25,-1.6,-0.09999999999990905,0.0,0.0,0.0
27.8,1779.5649999999998,-0.136666667,-5.79,5.21,-0.09999999999990905,0.0,0.0,0.0
27.900000000000002,1779.5649999999998,0.905,-12.57,-5.88,-0.09999999999990905,0.0,0.0,0.0
28.0,1754.1283329999999,4.67,1.12,-6.85,-0.09999999999990905,0.0,0.0,0.0
28.1,1750.155,4.28,1.115,-7.41,-0.09999999999990905,0.0,0.0,0.0
28.2,1746.0183329999998,4.29,-4.693333333,-7.21,-0.09999999999990905,0.0,0.0,0.0
28.3,1744.695,4.04,-9.06,-5.84,-0.09999999999990905,0.0,0.0,0.0
28.400000000000002,1744.695,4.04,-10.715,3.48,-0.09999999999990905,0.0,0.0,0.0
28.5,1741.61,4.04,-16.495,7.375,-0.09999999999990905,0.0,0.0,0.0
28.6,1741.61,1.98,-7.01,6.82,-0.09999999999990905,0.0,0.0,0.0
28.7,1725.175,-0.44,-3.28,4.85,-0.09999999999990905,0.0,0.0,0.0
28.8,1720.325,-0.44,-3.5,1.8,-0.09999999999990905,0.0,0.0,0.0
28.900000000000002,1720.2949999999998,-0.44,-3.74,-1.95,-0.09999999999990905,0.0,0.0,0.0
29.0,1722.7900000000002,-0.44,-5.01,-9.826666667,-0.09999999999990905,0.0,0.0,0.0
29.1,1722.51,-0.44,-4.5,-16.865,-0.09999999999990905,0.0,0.0,0.0
29.2,1723.635,0.763333333,3.82,-16.865,-0.09999999999990905,0.0,0.0,0.0
29.3,1720.5049999999999,0.763333333,9.85,-16.865,-0.09999999999990905,0.0,0.0,0.0
29.400000000000002,1698.1699999999998,0.763333333,7.6,2.36,-0.09999999999990905,0.0,0.0,0.0
29.5,1693.2250000000001,2.13,8.06,2.36,-0.09999999999990905,0.0,0.0,0.0
29.6,1692.1049999999998,2.43,7.09,-0.895,-0.09999999999990905,0.0,0.0,0.0
29.7,1691.4150000000002,2.43,5.23,-0.895,-0.09999999999990905,0.0,0.0,0.0
29.8,1689.785,2.43,4.035,-13.63,-0.09999999999990905,0.0,0.0,0.0
29.900000000000002,1681.7250000000001,1.99,2.72,-6.73,-0.09999999999990905,0.0,0.0,0.0
30.0,1678.01,1.99,2.976666667,-4.6,-0.09999999999990905,0.0,0.0,0.0
30.1,1678.01,1.99,5.655,1.39,-0.09999999999990905,0.0,0.0,0.0
30.2,1666.93,2.61,9.6,5.21,-0.09999999999990905,0.0,0.0,0.0
30.3,1664.305,2.61,10.55,5.21,-0.09999999999990905,0.0,0.0,0.0
30.400000000000002,1661.1299999999999,3.87,2.17,3.295,-0.09999999999990905,0.0,0.0,0.0
30.5,1656.7450000000001,3.66,1.795,2.91,-0.09999999999990905,0.0,0.0,0.0
30.6,1654.2749999999999,3.205,3.47,1.12,-0.09999999999990905,0.0,0.0,0.0
30.7,1650.2749999999999,2.53,5.69,-3.33,-0.09999999999990905,0.0,0.0,0.0
30.8,1649.8349999999998,1.65,12.30333333,-6.975,-0.09999999999990905,0.0,0.0,0.0
30.900000000000002,1637.405,1.52,18.715,8.726666667,-0.09999999999990905,0.0,0.0,0.0
31.0,1637.405,1.22,12.35,8.726666667,-0.09999999999990905,0.0,0.0,0.0
31.1,1630.365,0.95,10.25,8.43,-0.09999999999990905,0.0,0.0,0.0
31.2,1624.531667,-0.22,5.185,5.956666667,-0.09999999999990905,0.0,0.0,0.0
31.3,1620.485,-0.39,2.98,3.27,-0.09999999999990905,0.0,0.0,0.0
31.400000000000002,1618.965,0.15,2.67,0.84,-0.09999999999990905,0.0,0.0,0.0
31.5,1616.8149999999998,2.37,0.57,3.01,-0.09999999999990905,0.0,0.0,0.0
31.6,1614.9350000000002,2.37,2.775,3.01,-0.09999999999990905,0.0,0.0,0.0
31.7,1613.7250000000001,2.37,7.895,8.88,-0.09999999999990905,0.0,0.0,0.0
31.8,1608.365,2.37,14.26,8.71,-0.09999999999990905,0.0,0.0,0.0
31.900000000000002,1605.6049999999998,2.37,13.935,8.71,-0.09999999999990905,0.0,0.0,0.0
32.0,1603.675,-1.31,6.87,12.3,-0.09999999999990905,0.0,0.0,0.0
32.099999999999994,1600.405,-1.31,5.835,11.075,-0.09999999999990905,0.0,0.0,0.0
32.199999999999996,1599.41,-1.31,2.42,11.14,-0.09999999999990905,0.0,0.0,0.0
32.3,1598.7949999999998,2.795,4.97,13.21,-0.09999999999990905,0.0,0.0,0.0
32.4,1596.385,2.795,7.563333333,13.21,-0.09999999999990905,0.0,0.0,0.0
32.5,1572.115,2.795,9.39,11.18,1455.3,0.0,0.0,0.0
32.599999999999994,1572.115,5.92,10.63666667,12.57,1455.3,0.0,0.0,0.0
32.699999999999996,1572.115,4.87,9.34,12.93,1455.3,0.0,0.0,0.0
32.8,1565.695,4.53,4.83,12.79,1455.3,0.0,0.0,0.0
32.9,1561.715,4.885,2.69,11.58,1455.3,0.0,0.0,0.0
33.0,1558.305,3.41,-2.25,6.43,1455.3,0.0,0.0,0.0
33.099999999999994,1552.6449999999998,3.41,-5.41,4.86,1455.3,0.0,0.0,0.0
33.199999999999996,1549.2749999999999,3.41,-5.14,4.21,1493.8,0.0,0.0,0.0
33.3,1543.7,3.66,-11.65,2.59,1493.8,0.0,0.0,0.0
33.4,1543.7,4.51,-11.56,2.59,1493.8,0.0,0.0,0.0
33.5,1536.4350000000002,3.37,-12.72,-1.29,1493.8,0.0,0.0,0.0
33.599999999999994,1534.9550000000002,3.465,-13.175,-1.293333333,1493.8,0.0,0.0,0.0
33.699999999999996,1533.8749999999998,4.35,-8.06,-1.293333333,1493.8,0.0,0.0,0.0
33.8,1531.3749999999998,2.4,-17.12666667,2.276666667,1493.8,0.0,0.0,0.0
33.9,1528.765,2.4,-9.626666667,2.276666667,1493.8,0.0,0.0,0.0
34.0,1507.6049999999998,2.4,-2.78,0.91,1493.8,0.0,0.0,0.0
34.099999999999994,1505.7250000000001,2.905,-1.62,-2.85,1502.6000000000001,0.0,0.0,0.0
34.199999999999996,1505.7250000000001,1.5025,-0.57,-3.5,1502.6000000000001,0.0,0.0,0.0
34.3,1506.5783330000002,2.1,2.79,-9.7,1502.6000000000001,0.0,0.0,0.0
34.4,1508.3516670000001,1.275,2.3,-12.25,1502.6000000000001,0.0,0.0,0.0
34.5,1508.931667,1.515,1.415,-13.345,1496.1000000000001,0.0,0.0,0.0
34.599999999999994,1508.931667,1.515,-18.545,-7.84,1496.1000000000001,0.0,0.0,0.0
34.699999999999996,1502.945,1.515,-7.49,-6.875,1496.1000000000001,0.0,0.0,0.0
34.8,1496.095,1.59,-4.446,-2.62,1496.1000000000001,0.0,0.0,0.0
34.9,1496.095,1.15,0.066,-3.97,1496.1000000000001,0.0,0.0,0.0
35.0,1484.5400000000002,1.15,6.195,-2.67,1496.1000000000001,0.0,0.0,0.0
35.099999999999994,1480.715,1.15,6.84,-2.67,1496.1000000000001,0.0,0.0,0.0
35.199999999999996,1478.7949999999998,2.6,5.575,-7.905,1496.1000000000001,0.0,0.0,0.0
35.3,1478.7949999999998,0.82,-3.747,-8.565,1496.1000000000001,0.0,0.0,0.0
35.4,1478.511667,0.916666667,7.527777778,-9.04,1483.0000000000002,0.0,0.0,0.0
35.5,1478.4624999999999,1.295,3.213846154,-7.405,1483.0000000000002,0.0,0.0,0.0
35.599999999999994,1469.89,1.295,-0.587692308,-3.66,1483.0000000000002,0.0,0.0,0.0
35.699999999999996,1465.895,1.295,5.867560976,-3.66,1483.0000000000002,0.0,0.0,0.0
35.8,1450.125,1.72,1.662,-0.385,1483.0000000000002,0.0,0.0,0.0
35.9,1444.991667,2.9,4.598,0.415,1483.0000000000002,0.0,0.0,0.0
36.0,1438.335,3.43,6.772692308,0.415,1483.0000000000002,0.0,0.0,0.0
36.099999999999994,1438.335,3.79,13.35,5.64,1483.0000000000002,0.0,0.0,0.0
36.199999999999996,1429.498333,3.41,14.18666667,5.64,1483.0000000000002,0.0,0.0,0.0
36.3,1429.498333,3.65,12.15333333,0.86,1483.0000000000002,0.0,0.0,0.0
36.4,1422.02,3.295,8.835,1.286666667,1490.8999999999999,0.0,0.0,0.0
36.5,1417.545,3.26,5.1925,0.52,1490.8999999999999,0.0,0.0,0.0
36.599999999999994,1413.885,4.22,1.89,5.873333333,1490.8999999999999,0.0,0.0,0.0
36.699999999999996,1413.885,4.22,1.95,6.72,1490.8999999999999,0.0,0.0,0.0
36.8,1413.885,4.22,2.23,5.84,1490.8999999999999,0.0,0.0,0.0
36.9,1413.885,5.03,4.693333333,6.12,1490.8999999999999,0.0,0.0,0.0
37.0,1397.165,4.543333333,5.595,6.12,1490.8999999999999,0.0,0.0,0.0
37.099999999999994,1393.1299999999999,4.543333333,1.166666667,6.4,1484.1000000000001,0.0,0.0,0.0
37.199999999999996,1389.82,4.543333333,-0.505,4.68,1484.1000000000001,0.0,0.0,0.0
37.3,1386.811667,5.766666667,-3.85,0.23,1484.1000000000001,0.0,0.0,0.0
37.4,1386.811667,5.766666667,-0.092857143,-0.32,1484.1000000000001,0.0,0.0,0.0
37.5,1382.975,5.766666667,6.695,-2.83,1484.1000000000001,0.0,0.0,0.0
37.599999999999994,1383.985,4.84,4.9925,1.86,1484.1000000000001,0.0,0.0,0.0
37.699999999999996,1389.485,4.525,-2.3425,1.86,1473.6000000000001,0.0,0.0,0.0
37.8,1382.99,4.16,-9.643333333,11.22,1473.6000000000001,0.0,0.0,0.0
37.9,1358.725,4.33,-10.2,0.88,1473.6000000000001,0.0,0.0,0.0
38.0,1346.7549999999999,5.666666667,-4.95,0.88,1473.6000000000001,0.0,0.0,0.0
38.099999999999994,1350.395,7.07,1.93,-2.106666667,1450.5000000000002,0.0,0.0,0.0
38.199999999999996,1344.785,3.44,1.87,3.23,1450.5000000000002,0.0,0.0,0.0
38.3,1335.74,3.995,-0.123333333,3.2,1450.5000000000002,0.0,0.0,0.0
38.4,1335.74,3.76,-0.9,3.7,1450.5000000000002,0.0,0.0,0.0
38.5,1331.735,4.55,-1.25,3.21,1450.5000000000002,0.0,0.0,0.0
38.599999999999994,1323.5249999999999,4.11,0.24,4.96,1450.5000000000002,0.0,0.0,0.0
38.699999999999996,1321.735,4.11,7.555,2.33,1450.5000000000002,0.0,0.0,0.0
38.8,1320.115,4.11,15.075,4.685,1450.5000000000002,0.0,0.0,0.0
38.9,1311.315,4.395,18.12333333,4.255,1450.5000000000002,0.0,0.0,0.0
39.0,1305.81,2.865,14.48666667,9.528,1445.2,0.0,0.0,0.0
39.099999999999994,1297.48,2.445,12.43666667,3.024,1445.2,0.0,0.0,0.0
39.199999999999996,1281.089286,3.825,10.59,0.284,1430.1000000000001,0.0,0.0,0.0
39.3,1276.545,5.62,4.72,0.284,1430.1000000000001,0.0,0.0,0.0
39.4,1273.027,5.62,4.855,8.823333333,1430.1000000000001,0.0,0.0,0.0
39.5,1266.3792859999999,5.62,5.515,3.425714286,1430.1000000000001,0.0,0.0,0.0
39.599999999999994,1260.365,5.675,-1.45,-2.89,1414.5,0.0,0.0,0.0
39.699999999999996,1248.605,4.335,-2.973333333,-12.9425,1414.5,0.0,0.0,0.0
39.8,1227.799444,4.335,-2.35,0.943333333,1407.1000000000001,0.0,0.0,0.0
39.9,1211.083333,4.335,-3.24,-6.046153846,1403.4,0.0,0.0,0.0
40.0,1182.791667,4.92,0.14,-4.339230769,1386.8,0.0,0.0,0.0
40.099999999999994,1152.02,4.92,-1.46,4.628292683,1342.142857,0.0,0.0,0.0
40.199999999999996,1116.0049999999999,4.92,-2.805,8.143,1334.175,0.0,0.0,0.0
40.3,1101.185,5.66,-4.51,15.572,1325.7,0.0,0.0,0.0
40.4,1081.9406,5.926666667,-7.32,7.681538462,1325.6375,0.0,0.0,0.0
40.5,1075.325,6.43,-7.17,-3.685,1325.6375,0.0,0.0,0.0
40.599999999999994,1072.611667,4.75,-6.075,-4.96,1325.6000000000001,0.0,0.0,0.0
40.699999999999996,1066.978333,4.24,0.005,-0.633333333,1325.6000000000001,0.0,0.0,0.0
40.8,1061.158333,3.98,2.84,1.735,1325.6000000000001,0.0,0.0,0.0
40.9,1054.958333,4.97,2.7675,5.33,1323.1000000000001,0.0,0.0,0.0
41.0,1051.01,4.97,-1.87,11.66,1323.1000000000001,0.0,0.0,0.0
41.099999999999994,1048.905,4.97,16.05,10.81,1323.1000000000001,0.0,0.0,0.0
41.199999999999996,1046.795,5.88,14.56,12.34666667,1323.1000000000001,0.0,0.0,0.0
41.3,1043.4016669999999,5.49,12.625,12.74,1323.1000000000001,0.0,0.0,0.0
41.4,1038.6425,5.48,9.73,10.7075,1323.1000000000001,0.0,0.0,0.0
41.5,1033.475,5.08,6.69,11.64,1323.1000000000001,0.0,0.0,0.0
41.599999999999994,1028.3625,5.18,7.27,7.2075,1323.1000000000001,0.0,0.0,0.0
41.699999999999996,1023.798333,4.175,16.375,7.966666667,1318.3,0.0,0.0,0.0
41.8,1018.442143,4.175,14.02,7.135714286,1318.3,0.0,0.0,0.0
41.9,1013.875,4.175,14.455,1.015,1318.3,0.0,0.0,0.0
42.0,1011.6399999999999,0.455,9.79,-4.795,1318.3,0.0,0.0,0.0
42.099999999999994,1005.933,0.06,14.20333333,-9.1475,1318.3,0.0,0.0,0.0
42.199999999999996,1001.6583330000001,0.06,19.77333333,-3.963333333,1318.3,0.0,0.0,0.0
42.3,1000.065,0.06,14.49666667,2.69,1304.1000000000001,0.0,0.0,0.0
42.4,998.3199999999999,2.66,12.89,8.376666667,1304.1000000000001,0.0,0.0,0.0
42.5,996.175,3.023333333,5.38,6.64,1304.1000000000001,0.0,0.0,0.0
42.599999999999994,993.5916669999999,3.53,1.875,11.23,1304.1000000000001,0.0,0.0,0.0
42.699999999999996,990.21,3.91,1.02,3.473333333,1304.1000000000001,0.0,0.0,0.0
42.8,988.048333,4.68,0.87,3.633333333,1304.1000000000001,0.0,0.0,0.0
42.9,985.9449999999999,4.96,2.696666667,6.67,1304.1000000000001,0.0,0.0,0.0
43.0,985.9449999999999,5.47,5.5,8.88,1304.1000000000001,0.0,0.0,0.0
43.099999999999994,982.9475,6.45,9.17,10.1175,1304.1000000000001,0.0,0.0,0.0
43.199999999999996,982.5550000000001,6.37,8.416666667,10.1175,1304.1000000000001,0.0,0.0,0.0
43.3,982.845,2.638,6.54,3.25,1304.1000000000001,0.0,0.0,0.0
43.4,983.605,3.554,6.375,-0.213333333,1304.1000000000001,0.0,0.0,0.0
43.5,984.375,6.22,1.88,-0.213333333,1304.1000000000001,0.0,0.0,0.0
43.599999999999994,983.9100000000001,6.22,-0.18,-3.336666667,1292.4,0.0,0.0,0.0
43.699999999999996,982.7850000000001,6.22,0.675,-3.603333333,1292.4,0.0,0.0,0.0
43.8,977.4316670000001,9.015,0.895,-5.415,1292.4,0.0,0.0,0.0
43.9,977.4316670000001,5.761428571,2.605,6.13,1292.4,0.0,0.0,0.0
44.0,938.8799999999999,5.311666667,4.74,2.685,1283.4,0.0,0.0,0.0
44.099999999999994,935.4849999999999,4.8085,4.55,-1.255,1283.4,0.0,0.0,0.0
44.199999999999996,931.6600000000001,6.013333333,4.92,-4.94,1283.4,0.0,0.0,0.0
44.3,928.635,4.992307692,1.5,-11.95666667,1283.4,0.0,0.0,0.0
44.4,925.2049999999999,5.743846154,3.66,-11.08,1283.4,0.0,0.0,0.0
44.5,925.2049999999999,3.927317073,5.605,-13.62,1283.4,0.0,0.0,0.0
44.599999999999994,921.4949999999999,2.238,9.413333333,-8.55,1283.4,0.0,0.0,0.0
44.699999999999996,918.7249999999999,2.082,16.465,-6.14,1283.4,0.0,0.0,0.0
44.8,917.19,4.145,19.015,-1.26,1283.4,0.0,0.0,0.0
44.9,913.9725000000001,5.86,17.38,0.803333333,1283.4,0.0,0.0,0.0
45.0,913.9725000000001,4.18,15.5675,0.29,1283.4,0.0,0.0,0.0
45.099999999999994,910.0550000000001,3.226666667,14.51,0.22,1268.8,0.0,0.0,0.0
45.199999999999996,906.458333,2.295,11.47,-2.28,1268.8,0.0,0.0,0.0
45.3,903.01,1.0775,11.0275,-2.7,1268.8,0.0,0.0,0.0
45.4,900.5699999999999,1.66,9.415,0.14,1268.8,0.0,0.0,0.0
45.5,897.3050000000001,1.29,6.97,-0.1225,1268.8,0.0,0.0,0.0
45.599999999999994,894.9949999999999,1.623333333,3.623333333,-7.57,1268.8,0.0,0.0,0.0
45.699999999999996,887.145,1.61,-1.61,-8.75,1250.0,0.0,0.0,0.0
45.8,887.1683330000001,1.26,-1.205,-14.12333333,1250.0,0.0,0.0,0.0
45.9,884.435,1.353333333,1.31,-13.15,1250.0,0.0,0.0,0.0
46.0,880.73,2.905,5.81,-6.53,1250.0,0.0,0.0,0.0
46.099999999999994,871.7349999999999,4.846666667,5.775,-2.31,1250.0,0.0,0.0,0.0
46.199999999999996,864.8216669999999,5.445714286,10.34333333,-4.54,1250.0,0.0,0.0,0.0
46.3,858.405,6.32,10.34,2.65,1250.0,0.0,0.0,0.0
46.4,856.5049999999999,5.0975,10.14,8.88,1250.0,0.0,0.0,0.0
46.5,855.06,5.9225,8.12,10.715,1250.0,0.0,0.0,0.0
46.599999999999994,853.1583330000001,6.423333333,7.52,12.43,1242.5,0.0,0.0,0.0
46.699999999999996,850.935,6.44,6.435,7.57,1242.5,0.0,0.0,0.0
46.8,848.731667,4.856666667,2.815,6.496666667,1242.5,0.0,0.0,0.0
46.9,845.4849999999999,4.94,1.31,8.763333333,1242.5,0.0,0.0,0.0
47.0,842.0,8.455,0.46,20.59,1242.5,0.0,0.0,0.0
47.099999999999994,838.0225,5.886666667,0.73,13.1875,1242.5,0.0,0.0,0.0
47.199999999999996,838.0225,5.24,2.47,13.1875,1242.5,0.0,0.0,0.0
47.3,816.9649999999999,4.94,3.18,8.445,1242.5,0.0,0.0,0.0
47.4,815.0799999999999,4.69,6.13,7.895,1226.8,0.0,0.0,0.0
47.5,812.075,4.435,6.045,5.955,1226.8,0.0,0.0,0.0
47.599999999999994,809.6883330000001,4.435,-6.2,6.72,1226.8,0.0,0.0,0.0
47.699999999999996,806.415,4.435,-7.09,7.093333333,1226.8,0.0,0.0,0.0
47.8,803.325,2.93,-9.423333333,8.9,1226.8,0.0,0.0,0.0
47.9,798.9624999999999,3.003333333,-9.083333333,8.61,1222.0,0.0,0.0,0.0
48.0,794.855,3.003333333,-6.316666667,3.87,1222.0,0.0,0.0,0.0
48.099999999999994,793.355,3.003333333,-1.6375,2.765,1222.0,0.0,0.0,0.0
48.199999999999996,790.291667,1.396666667,0.02,0.606666667,1222.0,0.0,0.0,0.0
48.3,785.675,1.816666667,3.59,-3.88,1222.0,0.0,0.0,0.0
48.4,782.395,1.115,2.656666667,-4.235,1222.0,0.0,0.0,0.0
48.5,780.028333,6.17,2.945,-4.035,1222.0,0.0,0.0,0.0
48.599999999999994,777.9100000000001,6.675,-0.966666667,-5.055,1222.0,0.0,0.0,0.0
48.699999999999996,776.885,7.235,-2.47,-4.26,1222.0,0.0,0.0,0.0
48.8,775.6483329999999,6.59,-3.585,-8.583333333,1222.0,0.0,0.0,0.0
48.9,774.165,5.493333333,-6.363333333,-11.68,1222.0,0.0,0.0,0.0
49.0,748.7749999999999,4.89,-7.67,-1.35,1222.0,0.0,0.0,0.0
49.099999999999994,747.0049999999999,5.4,-8.87,0.89,1214.0,0.0,0.0,0.0
49.199999999999996,744.845,4.655,-5.723333333,2.375,1214.0,0.0,0.0,0.0
49.3,741.6700000000001,5.5,1.306666667,3.283333333,1214.0,0.0,0.0,0.0
49.4,740.738333,6.1,8.895,1.88,1208.5,0.0,0.0,0.0
49.5,741.7649999999999,5.986666667,12.8,1.015,1208.5,0.0,0.0,0.0
49.599999999999994,742.095,6.29,14.0,4.48,1208.5,0.0,0.0,0.0
49.699999999999996,740.5350000000001,6.62,11.81,4.9675,1208.5,0.0,0.0,0.0
49.8,737.5049999999999,7.095,9.855,8.56,1208.5,0.0,0.0,0.0
49.9,736.315,7.07,7.686666667,7.88,1208.5,0.0,0.0,0.0
50.0,731.345,7.585,6.21,6.8075,1208.5,0.0,0.0,0.0
50.099999999999994,723.998333,7.8475,5.36,4.795,1208.5,0.0,0.0,0.0
50.199999999999996,719.355,5.54,2.88,4.27,1208.5,0.0,0.0,0.0
50.3,715.2149999999999,5.77,-2.565,4.476666667,1208.5,0.0,0.0,0.0
50.4,712.6800000000001,3.373333333,-2.67,13.05,1208.5,0.0,0.0,0.0
50.5,712.2549999999999,1.015,-4.2225,13.05,1193.4,0.0,0.0,0.0
50.599999999999994,712.5625,0.615,-2.546666667,7.01,1193.4,0.0,0.0,0.0
50.699999999999996,712.5625,3.08,-3.875,7.24,1193.4,0.0,0.0,0.0
50.8,704.685,2.89,-5.046666667,-12.68,1193.4,0.0,0.0,0.0
50.9,701.4549999999999,0.63,-4.255,-9.8,1193.4,0.0,0.0,0.0
51.0,696.8983329999999,0.15,-0.08,-11.04333333,1193.4,0.0,0.0,0.0
51.099999999999994,693.2049999999999,-0.56,6.305,-10.105,1188.2,0.0,0.0,0.0
51.199999999999996,689.231667,-0.56,14.10666667,-7.8775,1188.2,0.0,0.0,0.0
51.3,686.0450000000001,2.536666667,16.61,-0.92,1188.2,0.0,0.0,0.0
51.4,684.185,1.91,18.12,-0.03,1188.2,0.0,0.0,0.0
51.5,677.6724999999999,-0.06,16.66,1.6325,1188.2,0.0,0.0,0.0
51.599999999999994,669.9449999999999,0.28,13.9825,1.63,1188.2,0.0,0.0,0.0
51.699999999999996,665.3883329999999,-0.2925,11.83333333,-0.16,1188.2,0.0,0.0,0.0
51.8,661.3216669999999,-0.2925,6.76,-3.316666667,1188.2,0.0,0.0,0.0
51.9,659.135,-0.2925,2.18,-8.15,1188.2,0.0,0.0,0.0
52.0,657.8525,0.96,-2.71,-11.2525,1183.1000000000001,0.0,0.0,0.0
52.099999999999994,657.7850000000001,2.125,-2.096666667,-11.61,1183.1000000000001,0.0,0.0,0.0
52.199999999999996,657.385,2.56,-2.72,-10.97,1183.1000000000001,0.0,0.0,0.0
52.3,656.55,2.933333333,-4.536666667,-15.08,1183.1000000000001,0.0,0.0,0.0
52.4,636.625,3.713333333,-6.563333333,1.6,1178.5,0.0,0.0,0.0
52.5,636.1700000000001,4.035,-7.52,4.835,1178.5,0.0,0.0,0.0
52.599999999999994,635.9849999999999,5.743333333,-8.75,9.69,1178.5,0.0,0.0,0.0
52.699999999999996,632.3050000000001,5.26,-8.503333333,9.733333333,1178.5,0.0,0.0,0.0
52.8,626.835,6.075,-4.823333333,8.426666667,1178.5,0.0,0.0,0.0
52.9,619.1575,7.246666667,0.013333333,4.675,1178.5,0.0,0.0,0.0
53.0,612.518333,8.016666667,3.03,0.31,1178.5,0.0,0.0,0.0
53.099999999999994,608.855,6.995,7.6,-2.526666667,1178.5,0.0,0.0,0.0
53.199999999999996,606.325,6.115,9.423333333,-4.546666667,1178.5,0.0,0.0,0.0
53.3,604.77,4.945,8.905,-7.985,1174.3,0.0,0.0,0.0
53.4,602.9116670000001,5.79,2.015,-9.643333333,1174.3,0.0,0.0,0.0
53.5,599.95,6.2,-14.69,-11.56,1174.3,0.0,0.0,0.0
53.599999999999994,596.1583330000001,6.49,-12.02,-10.215,1174.3,0.0,0.0,0.0
53.699999999999996,593.575,4.935,-13.17,-8.856666667,1174.3,0.0,0.0,0.0
53.8,593.565,5.98,-9.88,-7.08,1174.3,0.0,0.0,0.0
53.9,594.393,5.69,-9.88,-1.144,1174.3,0.0,0.0,0.0
54.0,590.028333,5.316666667,-6.85,4.453333333,1174.3,0.0,0.0,0.0
54.099999999999994,584.781667,6.41,-4.91,5.59,1174.3,0.0,0.0,0.0
54.199999999999996,580.0783329999999,5.48,-4.8775,1.24,1174.3,0.0,0.0,0.0
54.3,577.758333,3.41,-4.0,-2.466666667,1169.8,0.0,0.0,0.0
54.4,577.145,2.4475,-5.2,-5.93,1169.8,0.0,0.0,0.0
54.5,575.5450000000001,2.43,-6.2,-2.04,1169.8,0.0,0.0,0.0
54.599999999999994,572.258333,1.85,-6.9,-3.5825,1169.8,0.0,0.0,0.0
54.699999999999996,567.405,2.6675,-4.21,-2.496666667,1169.8,0.0,0.0,0.0
54.8,562.8499999999999,3.335,-3.413333333,-2.465,1169.8,0.0,0.0,0.0
54.9,559.3999999999999,3.93,-1.78,-2.09,1169.8,0.0,0.0,0.0
55.0,555.365,5.11,-2.33,-1.6125,1169.8,0.0,0.0,0.0
55.099999999999994,551.615,9.715,-5.96,-5.015,1169.8,0.0,0.0,0.0
55.199999999999996,548.845,9.715,8.405,-6.62,1169.8,0.0,0.0,0.0
55.3,546.1216669999999,9.715,7.21,-11.55,1161.1000000000001,0.0,0.0,0.0
55.4,542.6083329999999,3.8025,5.77,-11.97,1161.1000000000001,0.0,0.0,0.0
55.5,539.308333,3.51,6.096666667,-10.91,1161.1000000000001,0.0,0.0,0.0
55.599999999999994,537.49,1.2,4.115,-8.73,1161.1000000000001,0.0,0.0,0.0
55.699999999999996,536.2549999999999,-0.395,19.195,-3.225,1161.1000000000001,0.0,0.0,0.0
55.8,533.491667,0.523333333,20.33,-0.053333333,1161.1000000000001,0.0,0.0,0.0
55.9,530.595,0.93,17.02,2.325,1161.1000000000001,0.0,0.0,0.0
56.0,528.8683329999999,0.54,12.12333333,0.716666667,1161.1000000000001,0.0,0.0,0.0
56.099999999999994,528.9849999999999,0.31,7.995,-2.065,1161.1000000000001,0.0,0.0,0.0
56.199999999999996,529.9100000000001,0.5,1.513333333,-3.16,1156.4,0.0,0.0,0.0
56.3,529.835,1.6125,1.82,-4.09,1156.4,0.0,0.0,0.0
56.4,526.941667,3.135,-0.11,0.87,1156.4,0.0,0.0,0.0
56.5,522.1216669999999,4.43,-4.936666667,1.196666667,1156.4,0.0,0.0,0.0
56.599999999999994,515.778333,4.413333333,-9.706666667,1.42,1156.4,0.0,0.0,0.0
56.699999999999996,510.5049999999999,4.845,-8.8,0.28,1156.4,0.0,0.0,0.0
56.8,507.2649999999999,4.5175,1.33,-3.175,1156.4,0.0,0.0,0.0
56.9,503.57500000000005,3.73,3.785,-6.256666667,1156.4,0.0,0.0,0.0
57.0,500.0350000000001,3.12,9.675,-8.315,1156.4,0.0,0.0,0.0
57.099999999999994,496.7349999999999,3.79,9.73,-10.84,1156.4,0.0,0.0,0.0
57.199999999999996,493.21166700000003,4.56,-2.493333333,-10.79,1156.4,0.0,0.0,0.0
57.3,491.615,4.215,-4.33,-8.03,1153.1000000000001,0.0,0.0,0.0
57.4,490.4749999999999,3.29,-2.116666667,-6.31,1153.1000000000001,0.0,0.0,0.0
57.5,489.018333,2.423333333,-14.102,-3.846666667,1153.1000000000001,0.0,0.0,0.0
57.599999999999994,484.5674999999999,4.01,-11.52,-0.153333333,1153.1000000000001,0.0,0.0,0.0
57.699999999999996,479.8699999999999,4.9625,-8.04,1.576666667,1153.1000000000001,0.0,0.0,0.0
57.8,477.115,5.625,3.43,1.69,1153.1000000000001,0.0,0.0,0.0
57.9,471.6683330000001,5.946666667,6.173333333,-1.61,1153.1000000000001,0.0,0.0,0.0
58.0,472.4675,5.396666667,5.3,-5.98,1153.1000000000001,0.0,0.0,0.0
58.099999999999994,472.395,6.115,5.86,-10.545,1153.1000000000001,0.0,0.0,0.0
58.199999999999996,468.9100000000001,6.12,8.035,-10.36,1122.6000000000001,0.0,0.0,0.0
58.3,464.0350000000001,5.815,8.45,-10.36,1122.6000000000001,0.0,0.0,0.0
58.4,464.4183330000001,4.885,2.495,3.91,1122.6000000000001,0.0,0.0,0.0
58.5,463.41499999999996,5.436666667,-5.085,6.755,1122.6000000000001,0.0,0.0,0.0
58.599999999999994,461.70000000000005,4.08,12.88,7.09,1122.6000000000001,0.0,0.0,0.0
58.699999999999996,449.2149999999999,4.23,-5.94,1.6,1122.6000000000001,0.0,0.0,0.0
58.8,445.885,4.51,-3.823333333,4.55,1110.1000000000001,0.0,0.0,0.0
58.9,439.92499999999995,3.83,10.53666667,6.17,1110.1000000000001,0.0,0.0,0.0
59.0,436.655,5.02,7.2,4.16,1110.1000000000001,0.0,0.0,0.0
59.099999999999994,431.59166700000003,3.613333333,-5.605,5.7225,1110.1000000000001,0.0,0.0,0.0
59.199999999999996,426.32833299999993,4.515,-15.86,4.345,1110.1000000000001,0.0,0.0,0.0
59.3,422.8349999999999,3.44,-11.71333333,2.95,1110.1000000000001,0.0,0.0,0.0
59.4,418.8425,4.07,-3.043333333,-0.865,1110.1000000000001,0.0,0.0,0.0
59.5,415.78499999999997,4.693333333,6.01,-7.16,1110.1000000000001,0.0,0.0,0.0
59.599999999999994,414.67499999999995,5.745,8.353333333,-8.87,1110.1000000000001,0.0,0.0,0.0
59.699999999999996,412.3816667,5.83,5.27,-10.03,1110.1000000000001,0.0,0.0,0.0
59.8,410.06499999999994,6.7575,2.175,-9.14,1110.1000000000001,0.0,0.0,0.0
59.9,408.39,7.185,-3.895,-6.97,1099.5,0.0,0.0,0.0
60.0,405.78499999999997,6.85,-5.065,-3.395,1099.5,0.0,0.0,0.0
60.099999999999994,384.93999999999994,7.465,0.89,1.825,1099.5,0.0,0.0,0.0
60.199999999999996,382.475,5.706666667,6.296666667,-1.94,1099.5,0.0,0.0,0.0
60.3,379.66499999999996,4.85,11.01,-6.436666667,1087.5,0.0,0.0,0.0
60.4,376.19499999999994,5.443333333,11.39666667,-3.476666667,1087.5,0.0,0.0,0.0
60.5,373.86,5.105,8.08,6.355,1087.5,0.0,0.0,0.0
60.599999999999994,367.91499999999996,4.18,-0.98,-8.135,1087.5,0.0,0.0,0.0
60.699999999999996,367.9716667,3.43,-10.79,-6.266666667,1087.5,0.0,0.0,0.0
60.8,367.125,2.74,-14.44,-1.87,1087.5,0.0,0.0,0.0
60.9,364.9183333,2.865,-14.38,-1.46,1087.5,0.0,0.0,0.0
61.0,361.04499999999996,2.42,-6.895,-2.65,1087.5,0.0,0.0,0.0
61.099999999999994,355.995,2.25,3.08,-5.356666667,1076.3,0.0,0.0,0.0
61.199999999999996,350.68999999999994,2.075,8.475,-6.43,1076.3,0.0,0.0,0.0
61.3,348.155,3.573333333,7.41,-6.45,1076.3,0.0,0.0,0.0
61.4,347.3316667,5.11,2.395,-4.113333333,1076.3,0.0,0.0,0.0
61.5,350.52166669999997,5.77,-6.405,4.466666667,1076.3,0.0,0.0,0.0
61.599999999999994,350.4516666999999,5.285,-4.855,12.77333333,1076.3,0.0,0.0,0.0
61.699999999999996,345.42833329999996,4.46,0.92,18.14333333,1076.3,0.0,0.0,0.0
61.8,340.395,4.495,6.96,12.38,1076.3,0.0,0.0,0.0
61.9,333.65999999999997,4.686666667,10.9,5.485,1076.3,0.0,0.0,0.0
62.0,329.395,5.336666667,7.77,3.57,1072.7,0.0,0.0,0.0
62.099999999999994,318.2316667,5.67,3.303333333,-9.33,1072.7,0.0,0.0,0.0
62.199999999999996,314.015,5.37,-12.61,-11.76666667,1072.7,0.0,0.0,0.0
62.3,293.78166669999996,6.273333333,-12.7925,-7.98,1067.3,0.0,0.0,0.0
62.4,291.4549999999999,5.82,-10.65,-7.98,1067.3,0.0,0.0,0.0
62.5,290.0375,4.853333333,-4.015,-1.604,1067.3,0.0,0.0,0.0
62.599999999999994,288.81499999999994,5.51,-2.955,-4.07,1067.3,0.0,0.0,0.0
62.699999999999996,287.895,4.463333333,-2.153333333,-2.26,1067.3,0.0,0.0,0.0
62.8,285.68833329999995,3.796666667,0.513333333,5.5825,1067.3,0.0,0.0,0.0
62.9,273.81166669999993,5.4425,1.87,-7.5,1067.3,0.0,0.0,0.0
63.0,270.16999999999996,6.475,3.36,-14.04,1067.3,0.0,0.0,0.0
63.099999999999994,270.16999999999996,6.475,1.255,-14.04,1062.0,0.0,0.0,0.0
63.199999999999996,265.19499999999994,6.475,1.776666667,-10.76666667,1062.0,0.0,0.0,0.0
63.3,262.005,2.395,4.105,-1.64,1062.0,0.0,0.0,0.0
63.4,257.275,1.19,1.525,-2.42,1062.0,0.0,0.0,0.0
63.3,262.005,2.395,4.105,-1.64,1062.0,0.0,0.0,0.0
63.4,257.275,1.19,1.525,-2.42,1062.0,0.0,0.0,0.0
