time,baro_altitude,accl_x,accl_y,accl_z,gps_altitude,gyro_roll,gyro_pitch,gyro_yaw
0,0,10.27942383,-0.383203125,-0.541274412,0,0,0,0
0.1,0.7445577,10.33211426,-0.439086918,-0.518920894,0,0,0,0
0.2,2.8268331,10.31455078,-0.432700196,-0.621108398,0,0,0,0
0.3,0.0004171,10.27303711,-0.357656247,-0.522114255,0,0,0,0
0.4,0.3443909,10.30337403,-0.303369139,-0.539677736,0,0,0,0
0.5,3.2487285,10.27463379,-0.461440426,-0.55245117,0,0,0,0
0.6,0.9212749,10.30976074,-0.311352537,-0.576401363,0,0,0,0
0.7,0.1557923,10.34009765,-0.288999019,-0.482197267,0,0,0,0
0.8,0.9695333,10.28581055,-0.364042969,-0.56682129,0,0,0,0
0.9,0.4039205,10.3049707,-0.405556642,-0.584384771,0,0,0,0
1,2.7889506,10.3129541,-0.316142583,-0.582788085,0,0,0,0
1.1,0.7207337,10.30656739,-0.341689451,-0.526904302,0,0,0,0
1.2,0.8407085,10.29060058,-0.387993162,-0.597158205,0,0,0,0
1.3,1.2652487,10.2969873,-0.400766606,-0.544467773,0,0,0,0
1.4,3.0659485,10.31135742,-0.281015622,-0.568417965,0,0,0,0
1.5,0.7088522,10.31614746,-0.35286621,-0.490180665,0,0,0,0
1.6,0.5238953,10.31135742,-0.368833005,-0.614721676,0,0,0,0
1.7,2.0426738,10.29060058,-0.407153318,-0.58119141,0,0,0,0
1.8,0.3566183,10.30018066,-0.386396486,-0.565224614,0,0,0,0
1.9,0.2943828,10.29219727,-0.348076174,-0.504550785,0,0,0,0
2,2.1664531,10.26824707,-0.383203125,-0.600351566,0,0,0,0
2.1,2.0548605,10.30656739,-0.403959957,-0.485390628,0,0,0,0
2.2,0.1289368,10.32892089,-0.364042969,-0.558837892,0,0,0,0
2.3,0.5394593,10.30337403,-0.298579102,-0.565224614,0,0,0,0
2.4,-0.0337422,10.3049707,-0.384799801,-0.517324219,0,0,0,0
2.5,-0.2168884,10.28421387,-0.365639644,-0.608334963,0,0,0,0
2.6,-0.2400817,10.28421387,-0.362446293,-0.55245117,0,0,0,0
2.7,-0.3172709,10.30816406,-0.301772463,-0.554047856,0,0,0,0
2.8,0.0785828,10.32413086,-0.391186523,-0.593964844,0,0,0,0
2.9,-0.0444336,10.30337403,-0.435893557,-0.570014651,0,0,0,0
3,0.0608826,10.3129541,-0.290595705,-0.611528324,0,0,0,0
3.1,-0.0996602,10.29539063,-0.314545898,-0.58119141,0,0,0,0
3.2,-0.0485229,10.29858399,-0.423120113,-0.573208012,0,0,0,0
3.3,0.16863,10.31934082,-0.336899415,-0.518920894,0,0,0,0
3.4,-0.0001525,10.29379394,-0.359252932,-0.523710941,0,0,0,0
3.5,0.1021017,10.29379394,-0.365639644,-0.579594724,0,0,0,0
3.6,-0.1469624,10.29379394,-0.370429691,-0.49177734,0,0,0,0
3.7,0.7070415,10.26984375,-0.281015622,-0.629091795,0,0,0,0
3.8,0.6438294,10.32572754,-0.293789066,-0.526904302,0,0,0,0
3.9,0.5248108,10.29060058,-0.410346679,-0.541274412,0,0,0,0
4,3.320282,10.28900391,-0.311352537,-0.547661134,0,0,0,0
4.1,-0.0056457,10.33211426,-0.351269535,-0.482197267,0,0,0,0
4.2,1.8673401,10.28900391,-0.392783208,-0.577998049,0,0,0,0
4.3,0.0379944,10.29060058,-0.293789066,-0.585981446,0,0,0,0
4.4,0.4430237,10.33211426,-0.408750003,-0.534887699,0,0,0,0
4.5,0.2379253,10.27782715,-0.359252932,-0.549257809,0,0,0,0
4.6,0.1161601,10.32892089,-0.364042969,-0.526904302,0,0,0,0
4.7,0.3752544,10.30656739,-0.376816403,-0.463037111,0,0,0,0
4.8,0.385671,10.33850098,-0.39916992,-0.576401363,0,0,0,0
4.9,0.8911031,10.30177734,-0.35286621,-0.584384771,0,0,0,0
5,0.7388001,10.29539063,-0.376816403,-0.613125,0,0,0,0
5.1,0.5270081,10.29539063,-0.442280269,-0.587578122,0,0,0,0
5.2,1.4487814,10.33211426,-0.370429691,-0.568417965,0,0,0,0
5.3,0.9878846,10.31774415,-0.325722656,-0.585981446,0,0,0,0
5.4,0.5374451,10.30816406,-0.354462896,-0.542871097,0,0,0,0
5.5,0.5978699,10.31774415,-0.419926762,-0.512534182,0,0,0,0
5.6,0.411082,10.33371094,-0.328916017,-0.568417965,0,0,0,0
5.7,0.3488058,10.3129541,-0.332109378,-0.541274412,0,0,0,0
5.8,0.5719707,10.26345703,-0.368833005,-0.58119141,0,0,0,0
5.9,2.6743673,10.31774415,-0.389589847,-0.590771483,0,0,0,0
6,1.8352356,10.31614746,-0.304965824,-0.55245117,0,0,0,0
6.1,2.7588807,10.32892089,-0.340092776,-0.501357424,0,0,0,0
6.2,0.7333476,10.33530762,-0.429506835,-0.637075193,0,0,0,0
6.3,1.2525533,10.31934082,-0.387993162,-0.554047856,0,0,0,0
6.4,2.6398011,10.31534912,-0.414338378,-0.541274412,0,0,0,0
6.5,0.1406556,10.29618897,-0.323327633,-0.513731689,0,0,0,0
6.6,1.0992127,10.27303711,-0.351269535,-0.633881832,0,0,0,0
6.7,1.1205546,10.29618897,-0.399968258,-0.529299315,0,0,0,0
6.8,3.9631653,10.29379394,-0.346479488,-0.52051758,0,0,0,0
6.9,2.5659689,10.3049707,-0.400766606,-0.597158205,0,0,0,0
7,1.8527934,10.31614746,-0.357656247,-0.560434568,0,0,0,0
7.1,1.0919292,10.28581055,-0.429506835,-0.549257809,0,0,0,0
7.2,2.5223898,10.27942383,-0.301772463,-0.557241207,0,0,0,0
7.3,1.0128276,10.32892089,-0.340092776,-0.555644531,0,0,0,0
7.4,1.2769267,10.31774415,-0.281015622,-0.565224614,0,0,0,0
7.5,1.279653,10.28421387,-0.380009764,-0.523710941,0,0,0,0
7.6,1.279185,10.30976074,-0.356059571,-0.565224614,0,0,0,0
7.7,0.9337464,10.30177734,-0.261855465,-0.606738278,0,0,0,0
7.8,0.7451477,10.30337403,-0.317739259,-0.550854495,0,0,0,0
7.9,0.6419576,10.33530762,-0.364042969,-0.565224614,0,0,0,0
8,0.7823995,10.28261718,-0.351269535,-0.589174807,0,0,0,0
8.1,2.4114889,10.28581055,-0.3065625,-0.648251951,0,0,0,0
8.2,0.9051209,10.27463379,-0.359252932,-0.584384771,0,0,0,0
8.3,0.8073833,10.34009765,-0.391186523,-0.55245117,0,0,0,0
8.4,3.2457784,10.26345703,-0.378413088,-0.530097653,0,0,0,0
8.5,0.4160665,10.31774415,-0.319335934,-0.499760738,0,0,0,0
8.6,0.57606,10.30816406,-0.360849608,-0.546064458,0,0,0,0
8.7,0.375173,10.30177734,-0.298579102,-0.555644531,0,0,0,0
8.8,2.6465353,10.31774415,-0.330512693,-0.579594724,0,0,0,0
8.9,0.125173,10.30018066,-0.336899415,-0.577998049,0,0,0,0
9,0.2488302,10.28740723,-0.36723633,-0.510937497,0,0,0,0
9.1,1.8725485,10.3209375,-0.344882813,-0.547661134,0,0,0,0
9.2,-0.1638895,10.30018066,-0.351269535,-0.577998049,0,0,0,0
9.3,0.125173,10.30177734,-0.322529295,-0.518920894,0,0,0,0
9.4,0.186554,10.30018066,-0.349672849,-0.55245117,0,0,0,0
9.5,-0.0616149,10.30018066,-0.354462896,-0.486987304,0,0,0,0
9.6,0.7374166,10.29219727,-0.319335934,-0.582788085,0,0,0,0
9.7,0.9419454,10.31455078,-0.368833005,-0.585981446,0,0,0,0
9.8,0.1197408,10.32572754,-0.378413088,-0.544467773,0,0,0,0
9.9,0.3261007,10.29379394,-0.344882813,-0.550854495,0,0,0,0
10,0.4860739,10.3209375,-0.356059571,-0.585981446,0,0,0,0
10.1,0.2219747,10.32892089,-0.351269535,-0.562031253,0,0,0,0
10.2,1.8698426,10.30976074,-0.357656247,-0.55245117,0,0,0,0
10.3,0.0565695,10.32572754,-0.357656247,-0.539677736,0,0,0,0
10.4,0.0138652,10.31614746,-0.357656247,-0.576401363,0,0,0,0
10.5,2.4020081,10.31934082,-0.418330076,-0.526904302,0,0,0,0
10.6,1.1451722,10.32413086,-0.402363281,-0.58119141,0,0,0,0
10.7,-0.1270446,10.30656739,-0.330512693,-0.571611326,0,0,0,0
10.8,0.2779236,10.32572754,-0.328916017,-0.573208012,0,0,0,0
10.9,0.9169414,10.29219727,-0.400766606,-0.555644531,0,0,0,0
11,1.8430278,10.30018066,-0.359252932,-0.544467773,0,0,0,0
11.1,0.5028992,10.31135742,-0.298579102,-0.55245117,0,0,0,0
11.2,1.1669414,10.30018066,-0.312949222,-0.558837892,0,0,0,0
11.3,0.4274394,10.26345703,-0.375219727,-0.563627929,0,0,0,0
11.4,0.7033183,10.3129541,-0.360849608,-0.584384771,0,0,0,0
11.5,0.6283468,10.32253418,-0.301772463,-0.498164063,0,0,0,0
11.6,4.7094625,10.3049707,-0.362446293,-0.565224614,0,0,0,0
11.7,0.2956442,10.31614746,-0.426313474,-0.499760738,0,0,0,0
11.8,3.3946228,10.33211426,-0.322529295,-0.584384771,0,0,0,0
11.9,2.572642,10.31455078,-0.360849608,-0.570014651,0,0,0,0
12,0.7883403,10.28900391,-0.464633787,-0.554047856,0,0,0,0
12.1,0.6638082,10.30816406,-0.333706054,-0.550854495,0,0,0,0
12.2,0.8551534,10.30337403,-0.3065625,-0.515727543,0,0,0,0
12.3,0.5501608,10.32572754,-0.333706054,-0.608334963,0,0,0,0
12.4,0.5919902,10.31774415,-0.380009764,-0.592368168,0,0,0,0
12.5,2.9136658,10.28900391,-0.296982427,-0.59875488,0,0,0,0
12.6,0.9496969,10.29858399,-0.314545898,-0.534887699,0,0,0,0
12.7,0.7433574,10.34808105,-0.384799801,-0.573208012,0,0,0,0
12.8,-0.243398,10.31455078,-0.372026366,-0.592368168,0,0,0,0
12.9,0.0420431,10.30976074,-0.407153318,-0.536484375,0,0,0,0
13,0.7283631,10.35127441,-0.316142583,-0.573208012,0,0,0,0
13.1,-0.0834045,10.30337403,-0.333706054,-0.592368168,0,0,0,0
13.2,0.6651713,10.30018066,-0.35286621,-0.573208012,0,0,0,0
13.3,-0.0602315,10.32572754,-0.391186523,-0.579594724,0,0,0,0
13.4,-0.0015767,10.33371094,-0.344882813,-0.502954099,0,0,0,0
13.5,0.2806499,10.30976074,-0.298579102,-0.549257809,0,0,0,0
13.6,2.5250143,10.32572754,-0.466230472,-0.52051758,0,0,0,0
13.7,-0.2470194,10.28581055,-0.372026366,-0.574804688,0,0,0,0
13.8,-0.2265726,10.34009765,-0.265048826,-0.504550785,0,0,0,0
13.9,-0.289744,10.28181885,-0.347277836,-0.632285156,0,0,0,0
14,-0.2888488,10.33211426,-0.423120113,-0.523710941,0,0,0,0
14.1,-0.1910909,10.30018066,-0.344882813,-0.562031253,0,0,0,0
14.2,-0.2310892,10.30337403,-0.362446293,-0.579594724,0,0,0,0
14.3,-0.1706441,10.3209375,-0.29219238,-0.538081051,0,0,0,0
14.4,-0.0283711,10.3129541,-0.397573245,-0.58119141,0,0,0,0
14.5,-0.294281,10.33051758,-0.384799801,-0.56682129,0,0,0,0
14.6,0.5224712,10.31614746,-0.277822271,-0.544467773,0,0,0,0
14.7,1.3651632,10.31614746,-0.332109378,-0.533291014,0,0,0,0
14.8,2.3096823,10.32892089,-0.408750003,-0.493374026,0,0,0,0
14.9,2.8048198,10.30816406,-0.316142583,-0.601948241,0,0,0,0
15,0.5220846,10.31934082,-0.309755861,-0.577998049,0,0,0,0
15.1,2.8438009,10.30177734,-0.442280269,-0.526904302,0,0,0,0
15.2,0.1289368,10.2969873,-0.384799801,-0.574804688,0,0,0,0
15.3,0.08844,10.27623047,-0.308159176,-0.502954099,0,0,0,0
15.4,0.2489319,10.27782715,-0.349672849,-0.534887699,0,0,0,0
15.5,0.1057638,10.26984375,-0.421523438,-0.576401363,0,0,0,0
15.6,7.3530376,10.33850098,-0.300175778,-0.565224614,0,0,0,0
15.7,2.5349834,10.2969873,-0.336899415,-0.515727543,0,0,0,0
15.8,0.1652934,10.32413086,-0.376816403,-0.58119141,0,0,0,0
15.9,2.8544617,10.31614746,-0.349672849,-0.56682129,0,0,0,0
16,0.1234843,10.32892089,-0.375219727,-0.493374026,0,0,0,0
16.1,0.4838969,10.28581055,-0.281015622,-0.67379883,0,0,0,0
16.2,1.7465719,10.31614746,-0.426313474,-0.44547363,0,0,0,0
16.3,0.6138815,10.30177734,-0.351269535,-0.653041988,0,0,0,0
16.4,1.7306417,10.36404786,-0.333706054,-0.515727543,0,0,0,0
16.5,1.0001526,10.28102051,-0.314545898,-0.55245117,0,0,0,0
16.6,0.1003317,10.32253418,-0.41354004,-0.573208012,0,0,0,0
16.7,0.5085348,10.33211426,-0.36723633,-0.514130858,0,0,0,0
16.8,0.1580709,10.28900391,-0.344882813,-0.611528324,0,0,0,0
16.9,-0.1078186,10.31614746,-0.372026366,-0.544467773,0,0,0,0
17,1.7538758,10.26345703,-0.397573245,-0.600351566,0,0,0,0
17.1,0.8361715,10.32413086,-0.349672849,-0.638671878,0,0,0,0
17.2,0.136729,10.31774415,-0.375219727,-0.499760738,0,0,0,0
17.3,-0.0464579,10.31135742,-0.364042969,-0.555644531,0,0,0,0
17.4,0.2398987,10.31774415,-0.304965824,-0.518920894,0,0,0,0
17.5,0.1162822,10.27303711,-0.308159176,-0.605141602,0,0,0,0
17.6,-0.0900777,10.32572754,-0.39916992,-0.534887699,0,0,0,0
17.7,-0.149648,10.30018066,-0.335302739,-0.507744146,0,0,0,0
17.8,0.0453186,10.3209375,-0.368833005,-0.557241207,0,0,0,0
17.9,0.7784526,10.32413086,-0.312949222,-0.562031253,0,0,0,0
18,0.7839051,10.28102051,-0.376816403,-0.547661134,0,0,0,0
18.1,-0.1523335,10.36564453,-0.364042969,-0.593964844,0,0,0,0
18.2,0.0085755,10.3129541,-0.348076174,-0.568417965,0,0,0,0
18.3,-0.0759582,10.2969873,-0.429506835,-0.560434568,0,0,0,0
18.4,0.2176616,10.31455078,-0.327319332,-0.555644531,0,0,0,0
18.5,0.5621033,10.30337403,-0.332109378,-0.546064458,0,0,0,0
18.6,0.3154196,10.31934082,-0.368833005,-0.56682129,0,0,0,0
18.7,-0.0973205,10.32732422,-0.308957523,-0.514929196,0,0,0,0
18.8,1.4239401,10.32013916,-0.342487789,-0.522114255,0,0,0,0
18.9,0.0335592,10.25547363,-0.385598148,-0.558039554,0,0,0,0
19,2.1289572,10.30337403,-0.349672849,-0.576401363,0,0,0,0
19.1,-0.2414042,10.31774415,-0.407153318,-0.568417965,0,0,0,0
19.2,0.284434,10.33371094,-0.378413088,-0.590771483,0,0,0,0
19.3,0.121694,10.30816406,-0.284208983,-0.601948241,0,0,0,0
19.4,1.5838115,10.33850098,-0.400766606,-0.533291014,0,0,0,0
19.5,-0.0269063,10.28900391,-0.426313474,-0.638671878,0,0,0,0
19.6,-0.5350036,10.28102051,-0.261855465,-0.582788085,0,0,0,0
19.7,-0.3881937,10.28261718,-0.378413088,-0.546064458,0,0,0,0
19.8,-0.3090922,10.31774415,-0.354462896,-0.571611326,0,0,0,0
19.9,-0.2841084,10.33051758,-0.375219727,-0.528500977,0,0,0,0
20,0.6789653,10.31934082,-0.344882813,-0.50614746,0,0,0,0
20.1,1.4994406,10.31614746,-0.32093262,-0.592368168,0,0,0,0
20.2,0.5657451,10.32892089,-0.400766606,-0.50614746,0,0,0,0
20.3,-0.2095031,10.30816406,-0.410346679,-0.522114255,0,0,0,0
20.4,-0.1890564,10.33211426,-0.327319332,-0.585981446,0,0,0,0
20.5,0.0573222,10.3209375,-0.370429691,-0.62749512,0,0,0,0
20.6,-0.0681254,10.30656739,-0.336899415,-0.541274412,0,0,0,0
20.7,1.4779358,10.36085449,-0.335302739,-0.565224614,0,0,0,0
20.8,1.197581,10.27782715,-0.410346679,-0.608334963,0,0,0,0
20.9,0.0323588,10.28740723,-0.328916017,-0.582788085,0,0,0,0
21,0.215566,10.28261718,-0.354462896,-0.547661134,0,0,0,0
21.1,-0.2362772,10.28261718,-0.349672849,-0.577998049,0,0,0,0
21.2,0.1791687,10.30816406,-0.341689451,-0.485390628,0,0,0,0
21.3,1.0530905,10.29539063,-0.354462896,-0.600351566,0,0,0,0
21.4,0.4595236,10.27782715,-0.408750003,-0.600351566,0,0,0,0
21.5,-0.1180521,10.28581055,-0.340092776,-0.565224614,0,0,0,0
21.6,-0.2176412,10.30177734,-0.44547363,-0.619511722,0,0,0,0
21.7,0.6944886,10.30018066,-0.304965824,-0.568417965,0,0,0,0
21.8,-0.2789815,10.32892089,-0.343286137,-0.525307616,0,0,0,0
21.9,-0.218516,10.31614746,-0.402363281,-0.577998049,0,0,0,0
22,0.3527324,10.33850098,-0.312949222,-0.485390628,0,0,0,0
22.1,-0.0557759,10.3209375,-0.32093262,-0.565224614,0,0,0,0
22.2,2.393219,10.29539063,-0.463037111,-0.576401363,0,0,0,0
22.3,-0.0834452,10.3209375,-0.386396486,-0.597158205,0,0,0,0
22.4,-0.3243916,10.30816406,-0.27462891,-0.550854495,0,0,0,0
22.5,-0.1820983,10.30018066,-0.356059571,-0.533291014,0,0,0,0
22.6,1.1253561,10.27782715,-0.42791016,-0.582788085,0,0,0,0
22.7,1.6681417,10.31934082,-0.241098634,-0.42791016,0,0,0,0
22.8,1.2122498,10.26505371,-0.383203125,-0.590771483,0,0,0,0
22.9,0.6427511,10.3209375,-0.39916992,-0.544467773,0,0,0,0
23,0.2477519,10.29539063,-0.359252932,-0.577998049,0,0,0,0
23.1,-0.5930277,10.31455078,-0.376816403,-0.609931639,0,0,0,0
23.2,-0.697113,10.30816406,-0.332109378,-0.544467773,0,0,0,0
23.3,-0.3298034,10.3129541,-0.36723633,-0.539677736,0,0,0,0
23.4,-0.4525451,10.33051758,-0.35286621,-0.593964844,0,0,0,0
23.5,0.0164287,10.30337403,-0.325722656,-0.563627929,0,0,0,0
23.6,0.3455302,10.31774415,-0.365639644,-0.574804688,0,0,0,0
23.7,-0.2515767,10.30816406,-0.277822271,-0.543669435,0,0,0,0
23.8,-0.1697489,10.29259644,-0.361647946,-0.604742433,0,0,0,0
23.9,0.485138,10.31055909,-0.376018065,-0.560434568,0,0,0,0
24,1.5023092,10.30217651,-0.352067872,-0.565224614,0,0,0,0
24.1,-0.3743184,10.28581055,-0.365639644,-0.554047856,0,0,0,0
24.2,-0.3947652,10.29060058,-0.335302739,-0.504550785,0,0,0,0
24.3,0.0125631,10.32892089,-0.402363281,-0.539677736,0,0,0,0
24.4,0.0519511,10.29618897,-0.330512693,-0.610729977,0,0,0,0
24.5,1.2481995,10.28102051,-0.359252932,-0.585981446,0,0,0,0
24.6,0.5047099,10.27782715,-0.35286621,-0.530097653,0,0,0,0
24.7,0.1744283,10.29379394,-0.368833005,-0.531694338,0,0,0,0
24.8,0.0267436,10.32732422,-0.322529295,-0.522114255,0,0,0,0
24.9,0.0489808,10.29219727,-0.324125981,-0.568417965,0,0,0,0
25,0.1647644,10.32253418,-0.472617184,-0.555644531,0,0,0,0
25.1,-0.0337422,10.3129541,-0.343286137,-0.554047856,0,0,0,0
25.2,-0.2801412,10.27782715,-0.3065625,-0.534887699,0,0,0,0
25.3,-0.5069478,10.30656739,-0.368833005,-0.502954099,0,0,0,0
25.4,0.1085511,10.3049707,-0.391186523,-0.560434568,0,0,0,0
25.5,0.4830831,10.26984375,-0.316142583,-0.593964844,0,0,0,0
25.6,0.4127503,10.3129541,-0.408750003,-0.528500977,0,0,0,0
25.7,3.1364238,10.26824707,-0.389589847,-0.680185552,0,0,0,0
25.8,2.5377808,34.27033447,-1.422641599,8.078400878,0,0,0,0
25.9,5.7939555,87.30963867,4.946513674,-0.825483394,0,0,0,0
26,6.5896912,98.22454099,-0.573208012,2.107617188,0,0,0,0
26.1,9.7221985,103.3403028,-0.643461915,-1.836181639,0,0,0,0
26.2,12.6603496,104.5968897,-0.416733401,-0.400766606,0,0,0,0
26.3,19.0631002,108.1463086,0.525307616,0.52051758,2.2000122,0,0,0
26.4,21.6875306,110.1214014,-0.102187503,-0.533291014,2.2000122,0,0,0
26.5,26.5882874,112.2785156,-0.946831054,-0.528500977,2.2000122,0,0,0
26.6,33.0112,113.6245166,-0.606738278,-0.344882813,2.2000122,0,0,0
26.7,37.6511841,113.4121582,-0.977167969,-0.062270505,2.2000122,0,0,0
26.8,44.6759949,114.659165,-0.502954099,0.614721676,2.2000122,0,0,0
26.9,54.1400452,113.7283008,-0.629091795,1.377934574,2.2000122,0,0,0
27,68.6763815,113.428125,-0.791953128,6.16318359,2.2000122,0,0,0
27.1,86.1698304,112.9587012,-0.772792972,7.759863281,2.2000122,0,0,0
27.2,96.8899231,112.8341602,-0.611528324,6.953540043,2.2000122,0,0,0
27.3,104.3296001,111.9448095,-0.994731449,5.205175778,5.2999878,0,0,0
27.4,113.3903504,110.9229346,-0.870190429,2.567460938,5.2999878,0,0,0
27.5,125.5987244,110.1597217,-1.135239255,2.79099609,15.3999634,0,0,0
27.6,141.0929057,108.8999414,-2.17787109,2.62015137,15.3999634,0,0,0
27.7,159.1197205,106.1440723,-2.765449222,5.467031253,40.3999634,0,0,0
27.8,177.5586447,104.0109082,-2.733515622,8.780141599,40.3999634,0,0,0
27.9,194.4102173,101.1273047,-0.984353029,9.455537114,40.3999634,0,0,0
28,213.8148295,98.28681154,-0.763212889,5.728886719,72.2999878,0,0,0
28.1,233.2138977,94.83319336,0.439086918,5.468627929,72.2999878,0,0,0
28.2,251.0128886,91.355625,-0.716909179,5.312153318,105.5,0,0,0
28.3,273.4767965,87.64334472,-3.000161134,6.217470708,105.5,0,0,0
28.4,296.6159363,83.83686035,-2.278461918,8.341054691,143.2000122,0,0,0
28.5,317.5999451,80.21878418,-1.975092769,8.90468262,143.2000122,0,0,0
28.6,339.5201925,77.06693847,-1.330034179,7.049340824,185.2999878,0,0,0
28.7,362.6727198,76.34364258,0.201181646,7.826923833,185.2999878,0,0,0
28.8,384.3677878,61.41628418,-2.176274415,7.304809568,231.2000122,0,0,0
28.9,396.2088928,-2.147534176,-0.772792972,9.893027347,231.2000122,0,0,0
29,403.5161848,-14.52020508,-0.836660153,8.310717776,280.2999878,0,0,0
29.1,424.9764298,-14.99920898,-0.50614746,10.07983886,280.2999878,0,0,0
29.2,449.0783998,-15.72809326,0.591569821,5.786367188,326,0,0,0
29.3,478.0186668,-14.88584473,0.927670898,6.583110352,326,0,0,0
29.4,502.5232238,-14.77407714,-1.092128906,6.022675785,371.5999756,0,0,0
29.5,527.5764868,-15.11416992,-0.87338379,6.551176762,371.5999756,0,0,0
29.6,551.8168028,-14.33499024,0.557241207,5.128535153,419.6000368,0,0,0
29.7,575.5895078,-13.83043945,0.831870116,6.79067871,419.6000368,0,0,0
29.8,602.8965558,-13.64203125,-0.739262696,6.035449219,419.6000368,0,0,0
29.9,627.0014548,-13.58455078,-1.548779295,6.773115239,419.6000368,0,0,0
30,651.1373188,-13.1119336,-1.017084957,7.392626951,419.6000368,0,0,0
30.1,673.0677388,-12.31199707,0.391186523,6.207890625,419.6000368,0,0,0
30.2,695.6084698,-12.45729492,0.202778321,6.054609375,419.6000368,0,0,0
30.3,718.7223208,-12.27687012,-0.819096682,5.888554691,419.6000368,0,0,0
30.4,743.0489808,-11.74357911,-1.413061526,4.722978521,466.9999388,0,0,0
30.5,765.4763488,-11.9559375,-0.298579102,5.376020509,466.9999388,0,0,0
30.6,786.1953838,-11.69887207,-1.08733887,5.080634767,514.1000368,0,0,0
30.7,800.7787168,-11.69887207,-1.590292969,5.080634767,514.1000368,0,0,0
30.8,859.9239808,-11.69887207,0.316142583,4.555327151,514.1000368,0,0,0
30.9,878.4112248,-11.0841504,0.389589847,3.110332035,514.1000368,0,0,0
31,895.9493308,-10.46623535,-0.831870116,2.200224608,514.1000368,0,0,0
31.1,916.6327208,-10.61312989,-0.65942871,5.002397457,651.7000118,0,0,0
31.2,937.8522848,-10.1245459,0.212358394,6.421845705,651.7000118,0,0,0
31.3,958.4219868,-9.950507816,-0.676992191,3.675556639,696.2999878,0,0,0
31.4,978.0930888,-9.580078125,-0.815903321,3.99968262,696.2999878,0,0,0
31.5,1000.220368,-9.74932617,-0.191601563,2.25291504,740.3999638,0,0,0
31.6,1020.326365,-9.28948242,-0.102187503,4.889033205,740.3999638,0,0,0
31.7,1036.624014,-9.070737304,-0.332109378,5.329716799,783.7000118,0,0,0
31.8,1056.591746,-9.088300785,-0.702539059,4.132207028,783.7000118,0,0,0
31.9,1078.591746,-8.866362307,-0.663420409,2.486030276,826.1000368,0,0,0
32,1095.733551,-8.459208989,0.440683594,2.957849122,826.1000368,0,0,0
32.1,1111.393219,-8.459208989,-0.204374997,2.957849122,868.2000118,0,0,0
32.2,1196.162873,-8.459208989,-1.422641599,1.549577633,868.2000118,0,0,0
32.3,1207.030223,-8.459208989,-1.178349614,2.596201177,868.2000118,0,0,0
32.4,1225.356802,-7.699987789,-0.011176759,3.986909176,993.7000118,0,0,0
32.5,1244.658844,-7.359096676,0.507744146,3.662783205,993.7000118,0,0,0
32.6,1262.110871,-7.127578125,0.686572264,1.053808594,1033.799988,0,0,0
32.7,1277.782868,-7.094047849,0.223535153,2.399809568,1033.799988,0,0,0
32.8,1295.695303,-7.054130861,-1.189526363,2.050136719,1072.999939,0,0,0
32.9,1312.497427,-6.950346682,-0.831870116,2.578637696,1072.999939,0,0,0
33,1329.012604,-6.607060545,-0.159667972,1.293310552,1111.499939,0,0,0
33.1,1345.876862,-6.326044924,0.317739259,1.743574219,1111.499939,0,0,0
33.2,1362.614573,-6.365961912,0.134121094,1.473735356,1149.200012,0,0,0
33.3,1378.175161,-6.108896483,-0.670605469,2.808559571,1149.200012,0,0,0
33.4,1388.888703,-5.938051762,-0.263452151,2.808559571,1186.200012,0,0,0
33.5,1474.982819,-5.907714847,-0.006386722,1.927990721,1186.200012,0,0,0
33.6,1494.232086,-5.907714847,-0.01437012,1.366757816,1186.200012,0,0,0
33.7,1503.155752,-5.907714847,-0.01437012,1.031455076,1186.200012,0,0,0
33.8,1518.003327,-5.309758304,0.119750974,1.468945309,1326.399964,0,0,0
33.9,1532.320872,-4.903403324,-0.439486087,2.076481935,1326.399964,0,0,0
34,1546.834788,-4.992817384,-0.078237301,1.771116942,1359.499939,0,0,0
34.1,1561.33194,-4.973657227,0.028740239,1.468146971,1359.499939,0,0,0
34.2,1575.791413,-4.727768557,-0.463037111,1.077758787,1392.899964,0,0,0
34.3,1590.283275,-4.453538817,0.644260253,1.927192384,1392.899964,0,0,0
34.4,1603.923411,-4.368515625,0.247485356,1.539199222,1425.600037,0,0,0
34.5,1617.726715,-4.45234131,0.162861333,1.045825196,1425.600037,0,0,0
34.6,1631.220693,-4.560117188,-0.692160648,0.840651852,1457.499939,0,0,0
34.7,1645.30362,-4.164140628,0.129331057,0.453457028,1457.499939,0,0,0
34.8,1658.314118,-4.168930665,-0.756826177,0.223535153,1488.600037,0,0,0
34.9,1670.086334,-4.057163088,-0.88775391,0.117355961,1488.600037,0,0,0
35,1786.125153,-4.188090821,-0.809516599,0.32093262,1581.999939,0,0,0
35.1,1798.869212,-3.980522463,-0.550854495,1.248603517,1581.999939,0,0,0
35.2,1810.921377,-4.021237789,-0.261855465,1.452978514,1610.900086,0,0,0
35.3,1821.960602,-3.147055662,-0.311352537,1.189526363,1610.900086,0,0,0
35.4,1833.268382,-3.057641602,-0.068657227,1.25818359,1638.900086,0,0,0
35.5,1844.584219,-3.242856443,0.290595705,1.112885738,1638.900086,0,0,0
35.6,1856.161367,-3.060834963,1.060993654,0.360849608,1667.100037,0,0,0
35.7,1867.689769,-2.929907231,0.18521484,-0.078237301,1667.100037,0,0,0
35.8,1881.812816,-2.789399415,-0.375219727,0.287402344,1694.999939,0,0,0
35.9,1888.490143,-2.85166992,-0.277822271,0.476608883,1694.999939,0,0,0
36,1900.881907,-2.746289066,-1.137634279,0.635478517,1722.299988,0,0,0
36.1,1911.549551,-2.733515622,-0.962797849,0.819096682,1722.299988,0,0,0
36.2,1925.514557,-2.639311526,-0.246687008,0.450263677,1722.299988,0,0,0
36.3,1931.506745,-2.690405273,0.383203125,0.342487789,1722.299988,0,0,0
36.4,1943.361969,-2.358295894,-0.335302739,-0.387993162,1775.19989,0,0,0
36.5,1952.467926,-2.43812988,-0.270637211,0.584384771,1775.19989,0,0,0
36.6,2059.426178,-2.359094242,-0.739262696,0.095800781,1775.19989,0,0,0
36.7,2068.216706,-2.502795409,-1.160786134,0.676992191,1775.19989,0,0,0
36.8,2078.5784,-2.177072753,-0.88775391,0.795146489,1775.19989,0,0,0
36.9,2086.060456,-1.786684568,-0.579594724,0.637075193,1775.19989,0,0,0
37,2094.71345,-1.689287111,0.025546878,0.648251951,1958.299988,0,0,0
37.1,2103.228506,-1.528022463,0.3065625,0.196391599,1958.299988,0,0,0
37.2,2111.39151,-1.628613281,0.193198238,-0.193198238,1979.499939,0,0,0
37.3,2119.875641,-1.569536137,0.279418946,-0.204374997,1979.499939,0,0,0
37.4,2127.979808,-1.502475585,-0.054287108,-0.078237301,1979.499939,0,0,0
37.5,2135.630605,-1.459365236,-0.45984375,-0.052690432,1979.499939,0,0,0
37.6,2143.581777,-1.360371094,-0.472617184,-0.023950193,2000.400086,0,0,0
37.7,2151.253001,-1.384321287,-0.681782227,0.296982427,2000.400086,0,0,0
37.8,2159.883047,-1.24062012,-0.608334963,0.113364262,2020.299988,0,0,0
37.9,2168.490794,-1.231040037,-0.330512693,-0.142104491,2020.299988,0,0,0
38,2175.962718,-1.143222653,-0.330512693,0.020756832,2039.900086,0,0,0
38.1,2181.901113,-1.250200193,0.174836429,-0.314545898,2039.900086,0,0,0
38.2,2189.076691,-1.200703122,-2.29921875,-0.210761719,2059.499939,0,0,0
38.3,2194.197418,-1.064985352,-3.763374023,0.201181646,2059.499939,0,0,0
38.4,2429.852204,-1.07296875,-3.092768554,-11.56554932,2584.299988,0,0,0
38.5,2430.050364,-0.984353029,-4.740541991,-6.219067384,2584.299988,0,0,0
38.6,2429.118805,-0.981958005,-2.957050785,-8.395341799,2580.499939,0,0,0
38.7,2426.3815,-45.65865234,-3.472778318,-7.033374019,2580.499939,0,0,0
38.8,2425.985097,-31.62703125,0.893342284,-7.232958989,2578.600037,0,0,0
38.9,2430.733389,-25.79116699,-2.998564458,-2.434936519,2576.799988,0,0,0
39,2422.706452,-24.70702149,-2.019001466,-0.116557613,2576.799988,0,0,0
39.1,2422.806916,-21.6797168,-0.973974608,2.282453617,2573.100037,0,0,0
39.2,2419.403229,-16.64698242,-4.079516606,-3.53983887,2573.100037,0,0,0
39.3,2419.268341,-14.85391113,-3.466391606,-4.308640133,2564.69989,0,0,0
39.4,2416.611644,-14.62638428,-1.987866213,-3.145458986,2564.69989,0,0,0
39.5,2410.959625,-11.87450684,-2.372666014,-5.166855465,2564.69989,0,0,0
39.6,2403.335765,-11.46735352,-1.42583496,-2.439726566,2555.999939,0,0,0
39.7,2397.563304,-11.18633789,-0.662622071,-1.615839847,2555.999939,0,0,0
39.8,2396.272288,-10.61791992,0.273032224,-1.515249019,2551.299988,0,0,0
39.9,2395.234528,-10.71212402,0.571611326,-1.740380858,2551.299988,0,0,0
40,2393.661611,-10.78397461,1.090532231,-1.820214844,2546.69989,0,0,0
40.1,2376.721588,-10.79674805,1.492895512,-2.936293943,2546.69989,0,0,0
40.2,2377.596833,-10.80473145,1.745969242,-3.108735349,2527.499939,0,0,0
40.3,2377.048493,-9.300659179,1.398691406,-2.315185545,2527.499939,0,0,0
40.4,2374.557851,-10.29858399,1.433818358,-0.836660153,2522.69989,0,0,0
40.5,2369.753327,-11.06020019,1.13364258,-1.463356935,2522.69989,0,0,0
40.6,2369.349396,-9.968071287,-0.325722656,-2.947470701,2513.19989,0,0,0
40.7,2366.751048,-10.42791504,-0.408750003,-3.364204102,2513.19989,0,0,0
40.8,2364.14029,-10.47821045,0.910107427,-2.115600585,2508.600037,0,0,0
40.9,2362.404206,-10.24429687,0.924477537,-2.115600585,2508.600037,0,0,0
41,2362.404206,-9.832353517,1.076162111,-0.45984375,2508.600037,0,0,0
41.1,2304.793854,-9.391669924,1.08733887,-0.785566406,2508.600037,0,0,0
41.2,2302.831859,-9.391669924,1.262175289,-1.542392583,2447.299988,0,0,0
41.3,2302.081777,-9.391669924,1.009101559,-2.062910153,2447.299988,0,0,0
41.4,2302.53596,-10.18362305,1.122465821,-1.936772457,2442.999939,0,0,0
41.5,2301.315257,-9.643945316,0.526904302,-1.848955083,2442.999939,0,0,0
41.6,2298.908356,-9.918574215,0.653041988,-2.093247068,2438.600037,0,0,0
41.7,2295.792755,-9.177714844,-0.236308597,-1.783491207,2438.600037,0,0,0
41.8,2292.422842,-9.894624023,-1.085742184,-0.900527344,2434.19989,0,0,0
41.9,2289.068105,-9.650332028,-1.572729488,-0.39916992,2434.19989,0,0,0
42,2287.307526,-9.460327151,-1.329235841,-2.29921875,2429.799988,0,0,0
42.1,2285.374583,-9.849916988,-1.571132813,-0.670605469,2429.799988,0,0,0
42.2,2283.098867,-9.369316406,-1.053808594,-0.796743165,2425.299988,0,0,0
42.3,2281.665192,-9.699829099,-2.02458984,-1.392304684,2425.299988,0,0,0
42.4,2280.046173,-10.4933789,-1.727607424,-1.621428221,2425.299988,0,0,0
42.5,2280.487946,-9.540161137,-1.551972656,-3.118315432,2425.299988,0,0,0
42.6,2279.608551,-10.56203613,-1.866518554,-2.086062008,2425.299988,0,0,0
42.7,2279.308747,-9.599238281,-1.10490234,-2.856459957,2425.299988,0,0,0
42.8,2274.899241,-9.855505372,-1.116079099,-1.545585934,2411.499939,0,0,0
42.9,2270.83723,-9.422006838,-0.560434568,-1.901645505,2411.499939,0,0,0
43,2268.768789,-10.31534912,0.244291995,-1.812231446,2406.900086,0,0,0
43.1,2265.665273,-10.50774902,0.135717769,-1.31885742,2406.900086,0,0,0
43.2,2262.791982,-10.34967774,0.266645512,-1.457768551,2402.499939,0,0,0
43.3,2261.02473,-10.37841797,0.597158205,-1.51844238,2402.499939,0,0,0
43.4,2259.269196,-10.86221192,0.212358394,-0.704135745,2402.499939,0,0,0
43.5,2257.54361,-10.06067871,-0.13891113,-2.719145512,2402.499939,0,0,0
43.6,2255.987864,-9.554531247,-0.341689451,-2.222578125,2393.499939,0,0,0
43.7,2254.227692,-9.667895509,-0.389589847,-2.163500981,2393.499939,0,0,0
43.8,2251.809642,-10.2267334,0.026345216,-2.048540043,2389.100037,0,0,0
43.9,2248.847158,-9.415620116,-0.439086918,-1.580712896,2389.100037,0,0,0
44,2247.519928,-9.91697754,-0.201181646,-0.560434568,2384.69989,0,0,0
44.1,2246.743968,-9.5034375,-0.729682613,-0.56682129,2384.69989,0,0,0
44.2,2241.482737,-9.921767576,-0.633881832,-0.92687256,2380.100037,0,0,0
44.3,2240.178131,-10.02555176,-0.761616213,-0.426313474,2380.100037,0,0,0
44.4,2239.206126,-9.546547849,-0.886157224,0.186811526,2375.600037,0,0,0
44.5,2236.187653,-9.942524418,-0.052690432,-0.237905273,2375.600037,0,0,0
44.6,2235.150218,-10.21954834,-2.045346682,-0.410346679,2370.999939,0,0,0
44.7,2232.956777,-10.14051269,-1.175954591,-0.108574215,2370.999939,0,0,0
44.8,2230.356354,-9.659912111,-1.868115239,0.407153318,2370.999939,0,0,0
44.9,2220.287995,-9.765292965,0.407153318,-1.916015625,2352.999939,0,0,0
45,2220.287995,-10.94523926,0.673000492,-1.662143557,2352.999939,0,0,0
45.1,2169.099518,-9.966474611,0.640268554,-1.662143557,2352.999939,0,0,0
45.2,2166.13443,-10.3369043,0.760019528,-1.762734375,2295.499939,0,0,0
45.3,2164.638214,-10.01118165,0.700942384,-1.681303713,2295.499939,0,0,0
45.4,2074.189362,-11.41466309,0.772792972,-2.639311526,2295.499939,0,0,0
45.5,2072.96048,-11.41466309,0.782373045,-2.112407224,2194.600037,0,0,0
45.6,2071.252838,-11.41466309,0.606738278,-1.473735356,2194.600037,0,0,0
45.7,2068.671621,-9.841135253,0.395976559,0.229921875,2190.400086,0,0,0
45.8,2067.149404,-10.29379394,-0.193198238,-0.311352537,2190.400086,0,0,0
45.9,2064.918528,-9.781259771,0.087817384,-0.996328125,2186.19989,0,0,0
46,2063.371816,-9.912985841,-0.482197267,-1.191123049,2186.19989,0,0,0
46.1,2062.393952,-9.971264648,-0.533291014,-1.526425778,2181.999939,0,0,0
46.2,2060.269033,-9.626381835,-0.036723637,-1.528022463,2181.999939,0,0,0
46.3,2058.389639,-9.573691403,-0.228325199,-1.390708009,2177.799988,0,0,0
46.4,2055.352529,-9.59604492,-0.038320313,-1.336420901,2177.799988,0,0,0
46.5,2053.154287,-9.498647463,-0.737666021,-1.210283205,2173.600037,0,0,0
46.6,2051.594472,-9.567304691,-1.302890625,-2.610571287,2173.600037,0,0,0
46.7,2049.980052,-10.13891602,-1.148012699,-1.558359378,2169.499939,0,0,0
46.8,2047.688467,-10.06546875,-0.946831054,-1.607856449,2169.499939,0,0,0
46.9,2047.105622,-10.52850586,-0.731279299,-1.609453125,2169.499939,0,0,0
47,2047.496002,-10.60035644,-1.093725582,-0.531694338,2169.499939,0,0,0
47.1,2041.155182,-9.792436519,-0.523710941,-0.411943364,2161.19989,0,0,0
47.2,2040.000478,-9.158554688,-0.372026366,0.421523438,2161.19989,0,0,0
47.3,2037.616689,-9.913784179,-0.148491213,-0.249082031,2156.999939,0,0,0
47.4,2036.322988,-9.038803713,0.023950193,-0.328916017,2156.999939,0,0,0
47.5,2033.447663,-9.79562988,0.196391599,-0.619511722,2152.900086,0,0,0
47.6,2032.303701,-9.802016602,0.158071287,-0.713715818,2152.900086,0,0,0
47.7,2029.747956,-9.85630371,-0.295385741,-0.343286137,2148.69989,0,0,0
47.8,2028.14265,-9.728569338,-0.493374026,-1.312470708,2148.69989,0,0,0
47.9,2026.641185,-9.538564451,-0.279418946,-2.278461918,2144.499939,0,0,0
48,2024.80008,-9.179311519,-0.057480469,-3.115920409,2144.499939,0,0,0
48.1,2021.110749,-9.602431642,-0.052690432,-4.100273438,2140.299988,0,0,0
48.2,2020.326162,-10.6434668,0.335302739,-2.470063481,2140.299988,0,0,0
48.3,2018.478587,-9.885043949,-0.084624023,-1.730800785,2136.100037,0,0,0
48.4,2015.658356,-10.08143555,-0.761616213,-1.349194335,2136.100037,0,0,0
48.5,2013.781403,-9.980046383,-0.833466802,-1.302890625,2131.900086,0,0,0
48.6,2012.108877,-9.292675781,-1.239023434,-1.120869146,2131.900086,0,0,0
48.7,2011.364329,-9.600834957,-0.835063477,-1.045825196,2127.69989,0,0,0
48.8,2009.615875,-9.790839844,-0.197988285,-1.154399412,2127.69989,0,0,0
48.9,2006.21459,-9.072333989,-0.045505372,0.156474611,2123.400086,0,0,0
49,2003.630687,-10.16605957,-0.076640625,-0.084624023,2123.400086,0,0,0
49.1,2001.55362,-10.01277832,-0.308159176,0.207568358,2119.19989,0,0,0
49.2,1999.392243,-9.572094727,-0.432700196,0.019160156,2119.19989,0,0,0
49.3,1998.22464,-10.50774902,-0.78077637,-1.537602537,2114.999939,0,0,0
49.4,1996.651927,-9.572094727,-0.198786622,-1.669328617,2114.999939,0,0,0
49.5,1993.907624,-9.592851559,0.026345216,-2.165097656,2110.69989,0,0,0
49.6,1993.878164,-9.720585941,-0.948427739,-3.231679684,2110.69989,0,0,0
49.7,1990.891592,-9.323012696,-0.673000492,-2.425356446,2106.499939,0,0,0
49.8,1989.614044,-10.45026855,-1.057001955,-0.431103521,2106.499939,0,0,0
49.9,1987.41568,-10.545271,-1.408271489,-0.431103521,2106.499939,0,0,0
50,1981.016754,-10.49976563,-1.163979495,-0.47421387,2106.499939,0,0,0
50.1,1979.029612,-10.55564942,-1.387514648,-0.864602054,2106.499939,0,0,0
50.2,1964.039215,-10.00479492,-1.007504884,-2.011816406,2106.499939,0,0,0
50.3,1964.446686,-9.520202633,-1.160786134,-2.325563966,2077.600037,0,0,0
50.4,1963.170319,-9.520202633,-0.744851071,-2.79099609,2077.600037,0,0,0
50.5,1960.825836,-9.520202633,-0.244291995,-2.380649412,2077.600037,0,0,0
50.6,1958.455963,-10.48060547,-0.59875488,-2.735112307,2077.600037,0,0,0
50.7,1956.106842,-11.73080566,-0.996328125,-1.620629884,2069.600037,0,0,0
50.8,1954.848379,-10.11895752,-1.360371094,-0.932460934,2069.600037,0,0,0
50.9,1953.41275,-9.826765133,-1.392304684,-0.531694338,2065.69989,0,0,0
51,1951.316071,-9.782856446,-1.199106446,-0.931662596,2065.69989,0,0,0
51.1,1951.316071,-9.206455083,-1.362766117,-1.724414063,2065.69989,0,0,0
51.2,1926.416657,-9.987231443,-1.528022463,-0.196391599,2065.69989,0,0,0
51.3,1924.705231,-9.560917969,-1.489702151,-0.196391599,2034.799988,0,0,0
51.4,1922.048981,-10.3049707,-1.638193364,-0.095800781,2034.799988,0,0,0
51.5,1922.048981,-9.784453122,-1.37953125,-0.479003906,2034.799988,0,0,0
51.6,1917.569489,-11.16318603,-0.804726563,-1.548779295,2027.100037,0,0,0
51.7,1916.322174,-9.273515625,-0.368833005,-0.423120113,2027.100037,0,0,0
51.8,1914.389639,-9.36452637,-0.900527344,-0.378413088,2023.400086,0,0,0
51.9,1912.595856,-9.36452637,-0.662622071,-2.227368162,2023.400086,0,0,0
52,1910.177155,-9.36452637,-0.530097653,-1.638193364,2023.400086,0,0,0
52.1,1905.917389,-10.66741699,-1.389111333,-1.37953125,2023.400086,0,0,0
52.2,1905.374665,-10.44228516,-1.190324711,-2.62015137,2023.400086,0,0,0
52.3,1903.25235,-10.69935059,-1.312470708,-3.348237307,2012.19989,0,0,0
52.4,1903.25235,-9.627978521,-0.407153318,-1.67172363,2012.19989,0,0,0
52.5,1828.37027,-10.26505371,0.009580083,-0.057480469,2012.19989,0,0,0
52.6,1826.421377,-10.56682618,0.477407231,-0.482197267,1929.400086,0,0,0
52.7,1824.594472,-10.01118165,0.332109378,-0.281015622,1929.400086,0,0,0
52.8,1822.325185,-10.73447754,0.544467773,0.035925289,1925.400086,0,0,0
52.9,1820.410797,-10.22194336,0.387993162,-0.256267091,1925.400086,0,0,0
53,1818.932526,-10.1644629,-0.043110349,-0.196391599,1921.400086,0,0,0
53.1,1818.932526,-9.685458989,-0.742456057,-1.331630864,1921.400086,0,0,0
53.2,1796.619904,-10.69615722,-0.855021971,-1.472937008,1896.69989,0,0,0
53.3,1793.616527,-10.53489258,-1.548779295,-1.861728517,1896.69989,0,0,0
53.4,1790.585521,-9.952104491,-1.338017576,-2.137954102,1892.499939,0,0,0
53.5,1789.351715,-9.18250488,-1.306083986,-2.265688474,1892.499939,0,0,0
53.6,1787.155345,-10.06626709,-0.970781247,-0.989143065,1888.400086,0,0,0
53.7,1785.926015,-9.709409182,-0.996328125,-0.809516599,1888.400086,0,0,0
53.8,1783.285553,-10.96918946,-0.90531738,-2.163500981,1884.19989,0,0,0
53.9,1781.098704,-10.52611084,-0.498164063,-0.965192872,1884.19989,0,0,0
54,1779.167064,-10.82069824,-0.64505859,-1.339614262,1879.999939,0,0,0
54.1,1776.831452,-10.11975586,-0.39916992,-0.721699215,1879.999939,0,0,0
54.2,1775.15095,-10.74405762,-0.223535153,-0.086220708,1875.900086,0,0,0
54.3,1773.519114,-10.06866211,-0.282612307,-0.304965824,1875.900086,0,0,0
54.4,1772.234853,-10.19679565,-0.241098634,-1.39390137,1871.799988,0,0,0
54.5,1769.521556,-10.45505859,-0.241896971,-2.109213863,1871.799988,0,0,0
54.6,1767.539622,-9.891430662,-0.140507816,-2.257705076,1867.799988,0,0,0
54.7,1765.791982,-11.48332032,0.114960938,-2.072490236,1867.799988,0,0,0
54.8,1763.907461,-10.70893067,0.643461915,-3.222099611,1863.69989,0,0,0
54.9,1761.874095,-10.20118652,0.740859372,-3.654799807,1863.69989,0,0,0
55,1759.522695,-10.08622559,1.015488281,-2.747885741,1859.600037,0,0,0
55.1,1757.607086,-11.02507324,0.937250981,-1.971899418,1859.600037,0,0,0
55.2,1757.076813,-10.64985351,1.053808594,-1.858535156,1855.499939,0,0,0
55.3,1755.232331,-9.738149412,0.621108398,-0.712119142,1855.499939,0,0,0
55.4,1756.283193,-10.1165625,0.276225585,-0.860610356,1851.400086,0,0,0
55.5,1750.879466,-9.747729495,-0.424716799,-1.444995116,1851.400086,0,0,0
55.6,1748.772288,-9.655122074,-0.844643551,-0.389589847,1847.400086,0,0,0
55.7,1747.124583,-9.513017583,-0.686572264,-0.940444332,1847.400086,0,0,0
55.8,1746.20222,-8.864765622,-0.570014651,-0.400766606,1843.299988,0,0,0
55.9,1744.458486,-9.910590818,-0.836660153,-1.053808594,1843.299988,0,0,0
56,1741.732575,-10.1165625,-0.843046875,-1.296503903,1839.299988,0,0,0
56.1,1738.641103,-10.52850586,-0.914897463,-1.694077148,1839.299988,0,0,0
56.2,1737.188222,-10.76321778,-1.178349614,-1.796264651,1835.299988,0,0,0
56.3,1735.164134,-10.01756836,-1.171962892,-1.140029302,1835.299988,0,0,0
56.4,1733.744456,-9.482680668,-1.352387696,-1.117675785,1831.299988,0,0,0
56.5,1731.170482,-9.473100585,-1.066582028,-1.41146484,1831.299988,0,0,0
56.6,1729.710521,-9.508227537,-1.082548833,-2.134760741,1827.19989,0,0,0
56.7,1727.020986,-9.568901366,0.047900396,-0.712119142,1827.19989,0,0,0
56.8,1726.112295,-9.291079106,0.802331539,-1.588696293,1823.19989,0,0,0
56.9,1726.074127,-9.607221679,0.783969731,-2.126777344,1823.19989,0,0,0
57,1721.193268,-10.04151855,0.726489262,-1.322050781,1819.19989,0,0,0
57.1,1719.377676,-8.874345705,-0.100590818,-1.338017576,1819.19989,0,0,0
57.2,1717.10847,-9.742939458,-0.164458009,-0.424716799,1815.19989,0,0,0
57.3,1715.373525,-10.63388672,-0.574804688,-1.358774418,1815.19989,0,0,0
57.4,1714.3579,-9.319819335,-0.881367188,-0.314545898,1811.299988,0,0,0
57.5,1712.975006,-9.940927733,-1.029858401,-1.377136227,1811.299988,0,0,0
57.6,1710.079254,-10.85422852,-0.946831054,-1.983076177,1807.299988,0,0,0
57.7,1708.245433,-9.420410153,-0.988344727,-1.489702151,1807.299988,0,0,0
57.8,1706.456208,-9.987231443,-1.128852543,-2.59141113,1807.299988,0,0,0
57.9,1704.081289,-9.908994142,-0.868593753,-1.724414063,1807.299988,0,0,0
58,1701.131256,-9.987231443,-1.815424807,-0.387993162,1799.299988,0,0,0
58.1,1700.520172,-9.623188474,0.118154299,-1.917612301,1799.299988,0,0,0
58.2,1697.644318,-9.548942872,-0.134121094,-0.708925781,1795.299988,0,0,0
58.3,1696.452383,-9.481083983,-0.790356443,-0.977167969,1795.299988,0,0,0
58.4,1695.149567,-8.92224609,-1.460961912,-2.599394528,1791.299988,0,0,0
58.5,1693.875804,-10.45665528,-1.456171875,-0.370429691,1791.299988,0,0,0
58.6,1694.538076,-10.70733398,-1.510458983,-1.132045894,1787.400086,0,0,0
58.7,1689.940216,-9.445957031,-1.251796878,-1.5328125,1787.400086,0,0,0
58.8,1678.015412,-9.833950193,-1.353984372,-1.847358398,1787.400086,0,0,0
58.9,1677.015045,-10.50934571,-1.505668946,-1.580712896,1771.600037,0,0,0
59,1675.406403,-9.77806641,-1.513652344,-1.315664059,1771.600037,0,0,0
59.1,1673.215322,-10.4311084,-0.603544927,-1.355581057,1767.69989,0,0,0
59.2,1671.491771,-10.43589843,-0.150886227,-0.871787114,1767.69989,0,0,0
59.3,1671.384512,-9.862690432,0.205971682,-1.687690426,1763.799988,0,0,0
59.4,1671.244375,-10.3129541,-0.835861815,-1.551972656,1763.799988,0,0,0
59.5,1669.094798,-9.02922363,-1.571132813,-1.256586915,1759.999939,0,0,0
59.6,1665.83373,-9.115444338,-1.098515628,-1.39390137,1759.999939,0,0,0
59.7,1662.912262,-10.02874512,-1.232636722,-2.914738773,1759.999939,0,0,0
59.8,1660.549551,-10.16765625,-1.112885738,-1.695673833,1759.999939,0,0,0
59.9,1658.551911,-9.283095708,-1.382724611,-0.689765625,1759.999939,0,0,0
60,1657.144806,-10.32572754,-1.066582028,0.311352537,1759.999939,0,0,0
60.1,1638.618805,-10.26505371,-0.225131838,-0.694555662,1759.999939,0,0,0
60.2,1636.239167,-10.25068359,-1.022673341,-1.567939451,1728.999939,0,0,0
60.3,1635.981761,-9.939331057,-0.47421387,-1.269360349,1728.999939,0,0,0
60.4,1634.953929,-10.35606446,-0.898132321,-1.11927246,1725.100037,0,0,0
60.5,1632.990631,-9.261540529,-1.409868165,-1.694077148,1725.100037,0,0,0
60.6,1630.740957,-8.847202151,-1.34759766,-1.713237304,1721.19989,0,0,0
60.7,1628.014232,-9.292675781,-1.05859863,-2.173081054,1721.19989,0,0,0
60.8,1626.062897,-9.860295409,-0.943637693,-2.173081054,1721.19989,0,0,0
60.9,1559.246002,-9.805209963,0.617915037,0.165256346,1648.19989,0,0,0
61,1557.848053,-9.723779302,1.187929688,0.668210446,1648.19989,0,0,0
61.1,1556.186188,-9.198471676,0.411943364,-1.039438474,1648.19989,0,0,0
61.2,1550.185822,-8.90468262,0.284208983,-1.010698245,1648.19989,0,0,0
61.3,1548.643545,-9.370913082,0.407153318,-1.277343747,1635.900086,0,0,0
61.4,1547.746491,-9.38208984,-0.510139159,-0.648251951,1635.900086,0,0,0
61.5,1546.527903,-9.38208984,0.177231443,-1.310874023,1631.999939,0,0,0
61.6,1553.139801,-9.38208984,-0.076640625,-1.235830083,1631.999939,0,0,0
61.7,1526.003083,-8.475974122,-0.068657227,-4.004472656,1611.499939,0,0,0
61.8,1525.496491,-9.721384279,0.070253903,-1.135239255,1611.499939,0,0,0
61.9,1495.313629,-9.982441406,0.143701177,-0.713715818,1611.499939,0,0,0
62,1493.253245,-9.927355961,0.383203125,-0.983554691,1611.499939,0,0,0
62.1,1492.838532,-9.583271486,0.134121094,-2.509980469,1611.499939,0,0,0
62.2,1446.809479,-9.730166014,0.65942871,-1.381926273,1527.600037,0,0,0
62.3,1445.986359,-10.02235839,0.456650389,-0.833466802,1527.600037,0,0,0
62.4,1444.337067,-9.139394531,-0.129331057,-2.62015137,1523.600037,0,0,0
62.5,1441.927562,-9.819580083,-0.900527344,-1.892065432,1523.600037,0,0,0
62.6,1440.297435,-9.501042477,-1.039438474,-1.312470708,1519.69989,0,0,0
62.7,1438.592112,-10.95481934,0.234711912,-0.964394535,1519.69989,0,0,0
62.8,1437.226471,-9.612011715,0.298579102,-1.512055668,1515.799988,0,0,0
62.9,1434.906159,-10.49976563,0.88775391,-1.11927246,1515.799988,0,0,0
63,1433.037669,-10.26026368,0.241098634,-1.944755864,1511.799988,0,0,0
63.1,1430.753164,-9.718989255,0.890947271,-0.961201174,1511.799988,0,0,0
63.2,1430.96695,-10.34648438,0.764809574,-1.39390137,1511.799988,0,0,0
63.3,1430.96695,-9.321416021,0.343286137,-1.537602537,1511.799988,0,0,0
63.4,1414.456452,-9.366123045,0.498164063,-2.208208005,1511.799988,0,0,0
63.5,1412.443878,-10.03672851,0.105380864,-2.878813474,1492.19989,0,0,0
63.6,1410.326406,-9.422006838,-0.471818846,-1.419448238,1492.19989,0,0,0
63.7,1409.061107,-9.18250488,-0.298579102,-1.710043943,1488.400086,0,0,0
63.8,1408.228506,-9.901010745,-1.003513185,-2.129970705,1488.400086,0,0,0
63.9,1407.328034,-9.270322264,-0.424716799,-2.195434571,1484.499939,0,0,0
64,1404.810781,-9.647138677,-1.183139651,-1.452978514,1484.499939,0,0,0
64.1,1401.960683,-8.866362307,-0.009580083,-0.895737307,1480.69989,0,0,0
64.2,1399.911042,-8.8903125,-0.683378903,-2.005429684,1480.69989,0,0,0
64.3,1398.345001,-9.865085446,0.324125981,-1.506467284,1476.799988,0,0,0
64.4,1398.626699,-9.048383787,0.560434568,-0.91250244,1476.799988,0,0,0
64.5,1394.099152,-8.684340818,0.574804688,-1.237426759,1476.799988,0,0,0
64.6,1393.385895,-8.773754887,1.068178713,-1.237426759,1476.799988,0,0,0
64.7,1380.50235,-8.893505861,0.755229491,-2.440524904,1476.799988,0,0,0
64.8,1379.4593,-8.866362307,0.937250981,-1.698867184,1457.499939,0,0,0
64.9,1377.605133,-9.393266599,0.62749512,-0.991538088,1457.499939,0,0,0
65,1374.996796,-8.986113281,0.419128414,-1.753154302,1453.499939,0,0,0
65.1,1373.704092,-9.587263185,0.587578122,0.304965824,1453.499939,0,0,0
65.2,1371.960032,-8.916657716,0.296982427,-0.24588867,1449.600037,0,0,0
65.3,1370.618358,-9.139394531,-0.26025879,-1.695673833,1449.600037,0,0,0
65.4,1371.223867,-9.139394531,-0.084624023,-2.249721679,1445.69989,0,0,0
65.5,1370.586538,-9.139394531,-0.041513674,-3.119912108,1445.69989,0,0,0
65.6,1368.455801,-10.95242432,0.426313474,-2.933100582,1441.799988,0,0,0
65.7,1365.211701,-9.757309568,0.003193361,-2.417373049,1441.799988,0,0,0
65.8,1364.677724,-9.089099122,0.122944335,-1.633403318,1437.900086,0,0,0
65.9,1359.389069,-10.15727784,0.664218747,0.129331057,1437.900086,0,0,0
66,1357.246491,-9.201665037,-0.070253903,-1.288520505,1433.999939,0,0,0
66.1,1355.484813,-9.584868162,0.608334963,-2.685615236,1433.999939,0,0,0
66.2,1353.528961,-9.696635738,0.333706054,-2.685615236,1430.100037,0,0,0
66.3,1331.214834,-9.236791988,0.170844731,-1.203896483,1406.600037,0,0,0
66.4,1329.196889,-9.069140628,-0.368833005,-1.512055668,1406.600037,0,0,0
66.5,1327.769888,-9.372509767,-0.162861333,-1.520039066,1402.700012,0,0,0
66.6,1325.744456,-9.741342773,-0.689765625,-2.075683597,1402.700012,0,0,0
66.7,1323.753367,-9.342172852,-1.075363773,-1.628613281,1398.700012,0,0,0
66.8,1323.064931,-9.608818364,-0.584384771,-1.146416014,1398.700012,0,0,0
66.9,1320.111969,-9.460327151,-0.191601563,-1.27255371,1394.799988,0,0,0
67,1318.618236,-9.726972653,-0.462238773,-1.893662108,1394.799988,0,0,0
67.1,1316.999217,-9.726972653,-1.202299807,-2.002236333,1390.899964,0,0,0
67.2,1314.592967,-9.726972653,0.118154299,-2.235351559,1390.899964,0,0,0
67.3,1312.873932,-9.433183597,-0.140507816,-1.716430665,1386.899964,0,0,0
67.4,1310.826142,-10.2969873,0.119750974,-0.208366696,1386.899964,0,0,0
67.5,1308.67331,-9.206455083,0.381606449,-1.094523929,1386.899964,0,0,0
67.6,1307.327301,-9.891430662,0.878972164,-1.060993654,1386.899964,0,0,0
67.7,1306.620575,-9.244775396,0.364042969,-0.792751466,1379.100037,0,0,0
67.8,1305.371186,-9.214438481,0.622705083,-0.435893557,1379.100037,0,0,0
67.9,1295.164215,-8.815268551,0.803129887,-1.757944338,1379.100037,0,0,0
68,1294.162689,-9.038803713,0.801533201,-1.69327881,1367.200012,0,0,0
68.1,1291.550934,-8.729047852,0.795146489,-1.437011719,1367.200012,0,0,0
68.2,1290.72167,-9.113847653,0.241098634,-2.324765628,1363.200012,0,0,0
68.3,1289.050405,-8.693920901,-0.410346679,-1.646176762,1363.200012,0,0,0
68.4,1286.495453,-9.196875,-0.428708497,-1.413061526,1359.299988,0,0,0
68.5,1284.551585,-9.045988773,-1.001118162,-2.296025389,1359.299988,0,0,0
68.6,1282.16568,-9.292675781,-0.936452633,-1.85374512,1355.299988,0,0,0
68.7,1281.042226,-9.441166995,-0.162861333,-0.967587896,1355.299988,0,0,0
68.8,1280.139354,-10.36324951,-0.523710941,-1.582309571,1351.299988,0,0,0
68.9,1281.197947,-9.939331057,-1.114482424,-1.935175781,1351.299988,0,0,0
69,1276.698151,-9.599238281,-0.710522457,-1.371547852,1347.299988,0,0,0
69.1,1273.777069,-9.862690432,-0.967587896,-1.156794435,1347.299988,0,0,0
69.2,1271.01826,-9.295869142,-0.882963863,-0.656235349,1343.299988,0,0,0
69.3,1268.878815,-9.16494141,-0.843046875,-0.795146489,1343.299988,0,0,0
69.4,1266.647736,-8.842412114,-0.054287108,-1.396296383,1339.399964,0,0,0
69.5,1266.740021,-9.195278324,0.878173826,-1.221459963,1339.399964,0,0,0
69.6,1259.838166,-9.378896489,0.33849609,-1.492097164,1339.399964,0,0,0
69.7,1258.214386,-9.715795894,0.635478517,-2.080473634,1339.399964,0,0,0
69.8,1255.617096,-9.051577148,0.557241207,-1.558359378,1327.399964,0,0,0
69.9,1254.002798,-9.476293946,0.255468753,-1.868115239,1327.399964,0,0,0
70,1252.414256,-9.380493165,-0.182021489,-1.5328125,1323.399964,0,0,0
70.1,1250.50882,-8.959768065,-0.051093747,-0.296982427,1323.399964,0,0,0
70.2,1251.572703,-9.726972653,-0.514130858,-0.419926762,1319.399964,0,0,0
70.3,1246.642894,-9.701425785,-0.405556642,-0.930864259,1319.399964,0,0,0
70.4,1244.873973,-9.709409182,-0.876577151,-2.251318364,1315.399964,0,0,0
70.5,1243.212921,-10.14051269,-0.451860352,-1.938369142,1315.399964,0,0,0
70.6,1241.832998,-8.677155758,-0.376816403,-1.336420901,1311.499939,0,0,0
70.7,1239.83255,-9.485874019,-0.150087889,-1.057001955,1311.499939,0,0,0
70.8,1237.919464,-8.70509766,-0.172441406,-0.914897463,1307.700012,0,0,0
70.9,1235.21463,-9.013256835,0.023950193,-1.223056639,1307.700012,0,0,0
71,1234.015961,-9.348559574,0.463037111,-0.787961429,1303.700012,0,0,0
71.1,1232.09199,-8.909472656,0.083027347,-2.144340824,1303.700012,0,0,0
71.2,1230.172516,-9.193681639,0.397573245,-1.563149415,1299.700012,0,0,0
71.3,1228.220815,-10.07025879,0.025546878,-1.828198241,1299.700012,0,0,0
71.4,1226.723379,-10.27303711,-0.538081051,-1.698867184,1295.700012,0,0,0
71.5,1224.264232,-9.966474611,-0.981958005,-2.010219731,1295.700012,0,0,0
71.6,1222.781769,-9.067543943,-0.823886719,-1.488105465,1291.700012,0,0,0
71.7,1221.231964,-8.957373052,-1.101708989,-1.08733887,1291.700012,0,0,0
71.8,1218.556753,-9.65671875,-1.029858401,-1.076162111,1287.600037,0,0,0
71.9,1218.452261,-9.754116207,-0.819096682,-1.817021483,1287.600037,0,0,0
72,1216.063792,-9.975256346,-0.926074222,-1.221459963,1283.600037,0,0,0
72.1,1212.968455,-9.252758793,-0.913300778,-2.48443359,1283.600037,0,0,0
72.2,1211.035228,-10.0463086,-1.112885738,-1.773911134,1279.499939,0,0,0
72.3,1208.887401,-8.837622068,-0.785566406,-1.328437503,1279.499939,0,0,0
72.4,1207.301138,-9.227211915,-0.75203613,-1.390708009,1275.399964,0,0,0
72.5,1205.976675,-9.16494141,0.022353517,-1.360371094,1275.399964,0,0,0
72.6,1202.697785,-8.821655273,0.234711912,-0.009580083,1271.299988,0,0,0
72.7,1201.1055,-9.920170901,0.447070316,-0.496567387,1271.299988,0,0,0
72.8,1198.799306,-10.60833984,0.790356443,-1.266166988,1267.200012,0,0,0
72.9,1196.880565,-10.1325293,0.510937497,-0.993134764,1267.200012,0,0,0
73,1194.508616,-9.814790037,0.55245117,-1.278940432,1263.100037,0,0,0
73.1,1193.259023,-9.634365233,1.213476566,-1.773911134,1263.100037,0,0,0
73.2,1192.141917,-8.773754887,0.234711912,-1.786684568,1258.999939,0,0,0
73.3,1190.114614,-8.804091802,-0.330512693,-1.216669927,1258.999939,0,0,0
73.4,1187.410431,-9.93134766,-2.078876958,-1.912822264,1254.799988,0,0,0
73.5,1188.074901,-9.450747068,-1.829794927,-2.899570316,1254.799988,0,0,0
73.6,1183.556712,-8.909472656,-1.390708009,-2.454096676,1250.700012,0,0,0
73.7,1182.395254,-9.653525389,-2.228964847,-2.720742188,1250.700012,0,0,0
73.8,1180.116079,-8.824848634,-1.868115239,-1.598276366,1246.499939,0,0,0
73.9,1177.533315,-9.974458009,-1.51844238,-1.309277347,1246.499939,0,0,0
74,1175.568187,-9.067543943,-2.045346682,-2.302412111,1242.299988,0,0,0
74.1,1174.211172,-10.014375,-1.617436523,-1.788281253,1242.299988,0,0,0
74.2,1171.846833,-9.570498052,-1.484912114,-1.245410156,1238.100037,0,0,0
74.3,1169.012807,-10.51573242,-1.274150396,-1.37953125,1238.100037,0,0,0
74.4,1167.298208,-9.699829099,-1.167172856,-0.710522457,1233.799988,0,0,0
74.5,1166.992381,-10.31774415,-0.948427739,-0.424716799,1233.799988,0,0,0
74.6,1168.549388,-8.591733398,-0.364042969,-1.799458012,1229.499939,0,0,0
74.7,1167.042511,-8.602910156,-0.518920894,-2.026186526,1229.499939,0,0,0
74.8,1165.489695,-9.631171872,-0.250678707,-3.635639651,1225.299988,0,0,0
74.9,1161.213735,-9.779663085,0.020756832,-1.729204099,1225.299988,0,0,0
75,1159.415924,-9.465117188,0.32093262,-2.008623045,1220.999939,0,0,0
75.1,1158.24527,-9.105864255,0.656235349,-1.620629884,1220.999939,0,0,0
75.2,1155.614818,-9.501840824,0.841450199,-1.660546872,1216.799988,0,0,0
75.3,1152.321035,-10.35446777,0.304965824,-1.627016606,1216.799988,0,0,0
75.4,1147.6881,-9.275112301,-0.544467773,-1.721220701,1212.499939,0,0,0
75.5,1145.006216,-9.899414059,-0.70573242,-2.015009767,1212.499939,0,0,0
75.6,1142.7718,-9.698232424,-0.882963863,-3.271596682,1208.299988,0,0,0
75.7,1140.02713,-9.262338866,-0.692958986,-2.375859375,1208.299988,0,0,0
75.8,1141.121653,-9.881850588,-0.748842769,-2.260898438,1203.999939,0,0,0
75.9,1136.063751,-9.693442387,-0.589174807,-1.724414063,1203.999939,0,0,0
76,1134.696035,-9.974458009,-0.531694338,-1.70046387,1199.700012,0,0,0
76.1,1132.106232,-10.39119141,-0.204374997,-2.179467776,1199.700012,0,0,0
76.2,1130.714101,-9.880253903,-0.09260742,-1.521635741,1195.399964,0,0,0
76.3,1128.098257,-9.607221679,0.035126951,-1.171962892,1195.399964,0,0,0
76.4,1126.146759,-9.629575196,0.796743165,-0.126137696,1190.999939,0,0,0
76.5,1123.870962,-9.420410153,0.448666991,-0.791953128,1190.999939,0,0,0
76.6,1121.273183,-9.910590818,0.418330076,-0.494970701,1186.700012,0,0,0
76.7,1119.75471,-9.369316406,-0.571611326,-0.518920894,1186.700012,0,0,0
76.8,1120.494049,-9.509824222,0.089414059,-0.787163082,1182.499939,0,0,0
76.9,1116.179067,-9.621591799,-0.081430662,-2.176274415,1182.499939,0,0,0
77,1113.112661,-9.431586912,0.504550785,-1.987866213,1178.200012,0,0,0
77.1,1111.933869,-9.491462404,0.954814451,-1.604663088,1178.200012,0,0,0
77.2,1110.115306,-9.784453122,0.597158205,-2.016606443,1173.899964,0,0,0
77.3,1108.823395,-11.47374023,-0.316142583,-1.277343747,1173.899964,0,0,0
77.4,1106.392568,-10.12135254,-0.831870116,-2.679228514,1169.700012,0,0,0
77.5,1103.650828,-10.53968261,-0.855820309,-1.389111333,1169.700012,0,0,0
77.6,1101.811025,-10.5253125,-1.096918943,-1.079355472,1165.499939,0,0,0
77.7,1100.423289,-10.20437988,-1.146416014,-0.914897463,1165.499939,0,0,0
77.8,1097.885122,-10.00479492,-1.069775389,-0.284208983,1161.200012,0,0,0
77.9,1095.498118,-10.46463867,-1.28692383,-0.528500977,1161.200012,0,0,0
78,1094.455272,-9.532177739,-0.868593753,-1.433818358,1157.100037,0,0,0
78.1,1091.593211,-9.345366213,-0.533291014,-2.327958989,1157.100037,0,0,0
78.2,1093.18102,-10.10378907,-0.499760738,-2.599394528,1152.899964,0,0,0
78.3,1088.846263,-9.91697754,0.03193359,-1.805844724,1152.899964,0,0,0
78.4,1088.015371,-10.04311524,0.483793943,-0.624301759,1148.799988,0,0,0
78.5,1083.822663,-10.07025879,0.531694338,-1.408271489,1148.799988,0,0,0
78.6,1082.237539,-9.969667972,0.895737307,-2.022993165,1144.700012,0,0,0
78.7,1079.83373,-10.62111328,0.44547363,-1.124062497,1144.700012,0,0,0
78.8,1078.175364,-10.64825684,0.457448727,-1.812231446,1140.700012,0,0,0
78.9,1076.543935,-10.61472656,0.332907716,-1.662143557,1140.700012,0,0,0
79,1074.12678,-10.5253125,0.13891113,-1.100112304,1136.700012,0,0,0
79.1,1072.267772,-9.453940429,-0.057480469,-1.791474614,1136.700012,0,0,0
79.2,1070.21345,-9.953701177,-0.650247806,-1.606259764,1132.899964,0,0,0
79.3,1068.196849,-10.50295899,-0.392783208,-1.719624026,1132.899964,0,0,0
79.4,1066.681956,-8.930229488,-0.391186523,-2.577041021,1128.999939,0,0,0
79.5,1064.507925,-10.51732911,-0.972377932,-0.889350585,1128.999939,0,0,0
79.6,1062.681061,-10.27942383,0.078237301,-2.102827151,1125.100037,0,0,0
79.7,1061.210236,-9.915380864,-0.233115236,-1.278940432,1125.100037,0,0,0
79.8,1059.191559,-9.541757813,-0.597158205,-1.631008304,1121.200012,0,0,0
79.9,1060.541331,-9.461923826,-0.258662114,-2.468067626,1121.200012,0,0,0
80,1056.166697,-10.46144531,-0.614721676,-2.161904295,1117.299988,0,0,0
80.1,1053.501943,-9.572094727,-0.576401363,-2.308798833,1117.299988,0,0,0
80.2,1052.104035,-9.770083012,-0.204374997,-1.096918943,1113.399964,0,0,0
80.3,1050.134349,-9.171328122,-0.18521484,-1.446591802,1113.399964,0,0,0
80.4,1048.578888,-10.14530274,-0.387993162,-1.99265625,1109.600037,0,0,0
80.5,1046.006338,-9.292675781,-0.132524418,-2.395019531,1109.600037,0,0,0
80.6,1044.267283,-10.06866211,-0.630688481,-2.046943358,1105.600037,0,0,0
80.7,1042.39501,-10.55405273,-0.581989747,-1.336420901,1105.600037,0,0,0
80.8,1041.019236,-10.4351001,-0.094204106,-1.227846676,1101.700012,0,0,0
80.9,1039.087433,-9.52140015,0.288999019,-1.708447267,1101.700012,0,0,0
81,1037.375763,-9.691845701,0.397573245,-1.275747071,1097.799988,0,0,0
81.1,1035.927399,-10.15727784,0.215551755,-1.221459963,1097.799988,0,0,0
81.2,1033.874542,-9.789642337,-0.486987304,-1.294907227,1093.899964,0,0,0
81.3,1033.517853,-9.685458989,-0.408750003,-1.373144528,1093.899964,0,0,0
81.4,1030.086009,-9.429990236,-0.999521486,-1.817021483,1089.999939,0,0,0
81.5,1027.072459,-9.843530276,-1.092128906,-1.840971676,1089.999939,0,0,0
81.6,1026.351837,-9.406040043,-0.471020509,-0.635478517,1086.100037,0,0,0
81.7,1024.267914,-9.782856446,-0.453457028,-1.032253414,1086.100037,0,0,0
81.8,1021.890005,-9.966474611,-0.376816403,-0.498164063,1082.200012,0,0,0
81.9,1020.442129,-9.251162108,-0.577998049,-0.619511722,1082.200012,0,0,0
82,1018.178213,-9.857900396,-0.175634767,-1.385917972,1078.200012,0,0,0
82.1,1016.350169,-9.849916988,-0.051093747,-1.437011719,1078.200012,0,0,0
82.2,1014.842926,-10.25707032,-0.18521484,-0.708925781,1074.200012,0,0,0
82.3,1012.477611,-9.184101566,0.161264648,-0.796743165,1074.200012,0,0,0
82.4,1011.214549,-9.643945316,-0.354462896,-0.958007813,1070.200012,0,0,0
82.5,1009.057851,-8.863168946,-0.27462891,-0.55245117,1070.200012,0,0,0
82.6,1006.984284,-9.401249997,-0.208366696,-1.925595708,1066.299988,0,0,0
82.7,1005.588979,-9.469907224,-0.373623052,-1.112885738,1066.299988,0,0,0
82.8,1005.597443,-9.22880859,-0.027143554,-1.334824215,1062.299988,0,0,0
82.9,1001.006785,-9.358139648,-0.510937497,-1.013891606,1062.299988,0,0,0
83,999.3203428,-9.782856446,-0.723295901,-0.921284176,1058.299988,0,0,0
83.1,997.6997378,-9.910590818,-0.926074222,-2.351909182,1058.299988,0,0,0
83.2,995.5941058,-8.992500003,-1.502475585,-3.535048833,1054.299988,0,0,0
83.3,993.2799788,-9.035610352,-1.015488281,-3.469584957,1054.299988,0,0,0
83.4,991.4807438,-8.63005371,-0.349672849,-2.265688474,1050.399964,0,0,0
83.5,989.9339498,-9.666298833,-0.285805668,-2.410986326,1050.399964,0,0,0
83.6,987.8634948,-9.219228517,-0.708925781,-1.68609375,1046.399964,0,0,0
83.7,986.2508448,-8.393745113,-0.134121094,-1.285327144,1046.399964,0,0,0
83.8,984.4512028,-9.372509767,-0.220341802,-1.42583496,1042.499939,0,0,0
83.9,982.1636458,-9.675878906,-0.068657227,-0.471020509,1042.499939,0,0,0
84,980.0386858,-9.894624023,-0.038320313,-0.683378903,1038.600037,0,0,0
84.1,978.5092268,-9.696635738,-0.553249508,-0.467827148,1038.600037,0,0,0
84.2,976.4437558,-9.908994142,-0.458247074,0.364042969,1034.700012,0,0,0
84.3,976.8917948,-9.099477543,-0.942041017,-0.169248045,1034.700012,0,0,0
84.4,972.2810368,-9.354946287,-1.216669927,-0.560434568,1030.700012,0,0,0
84.5,970.6340228,-8.764174804,0.052690432,-1.855341795,1030.700012,0,0,0
84.6,968.9953308,-9.687854003,-1.149609375,-2.993774412,1030.700012,0,0,0
84.7,967.5122988,-9.441166995,-1.21187988,-2.521955565,1030.700012,0,0,0
84.8,965.5283098,-8.799301755,-1.132844242,-3.193359372,1022.799988,0,0,0
84.9,963.4447738,-9.41083008,-1.082548833,-1.87130859,1022.799988,0,0,0
85,962.1706848,-9.227211915,-0.962797849,-1.645378414,1018.899964,0,0,0
85.1,955.2525938,-10.014375,-0.408750003,-0.277822271,1010.999939,0,0,0
85.2,951.7895818,-9.439570309,-0.483793943,-0.973974608,1010.999939,0,0,0
85.3,949.4869288,-9.53537109,-0.356059571,-0.525307616,1006.899964,0,0,0
85.4,948.4802548,-10.30656739,-0.081430662,-0.890947271,1006.899964,0,0,0
85.5,948.1543278,-10.40236817,-0.06067383,-1.382724611,1002.899964,0,0,0
85.6,944.6484678,-10.34169434,-0.103784179,-1.148012699,1002.899964,0,0,0
85.7,941.8783668,-8.866362307,0.538879398,-0.097397457,998.8999638,0,0,0
85.8,940.2240298,-9.212841795,0.637075193,-0.558039554,998.8999638,0,0,0
85.9,938.3793638,-9.110654302,0.737666021,-1.657353521,998.8999638,0,0,0
86,936.4918928,-9.527387693,0.736069335,-1.454575199,998.8999638,0,0,0
86.1,934.4828598,-9.740544435,0.52051758,-1.842568361,990.8999638,0,0,0
86.2,932.9013978,-9.984038082,0.692958986,-2.570654299,990.8999638,0,0,0
86.3,930.7751368,-10.28581055,0.697749023,-2.517963866,986.9999388,0,0,0
86.4,929.0333558,-10.05668701,0.280217284,-2.308798833,986.9999388,0,0,0
86.5,928.1810198,-9.439570309,0.349672849,-0.953217776,982.9999388,0,0,0
86.6,925.9759828,-9.645541991,0.237905273,-0.517324219,982.9999388,0,0,0
86.7,924.2811588,-9.180908205,-0.531694338,-1.084943846,978.9999388,0,0,0
86.8,922.7557268,-9.36452637,-0.761616213,-1.673320316,978.9999388,0,0,0
86.9,922.0646058,-10.25068359,-0.777583009,-1.621428221,975.1000368,0,0,0
