time,baro_altitude,accl_x,accl_y,accl_z,gps_altitude,gyro_roll,gyro_pitch,gyro_yaw
0.0,0.0,-1.2469368,10.138867200000002,3.2205168000000004,0.0,0.0,0.0,0.0
0.020000000000000462,0.015544800000000048,-1.789176,10.138867200000002,3.0672024,0.0,0.0,0.0,0.0
0.040000000000000036,-0.03992880000000007,-0.16276320000000002,10.355580000000002,2.1470112,0.0,0.0,0.0,0.0
0.0600000000000005,-0.006400799999999972,-1.5182088,10.0846128,2.9903928,0.0,0.0,0.0,0.0
0.08000000000000007,-0.013411200000000012,-1.6806672000000002,9.9218496,3.450336,0.0,0.0,0.0,0.0
0.09999999999999964,-0.38191440000000004,-0.8132064000000001,10.355580000000002,2.0702016,0.0,0.0,0.0,0.0
0.1200000000000001,-0.44226480000000007,-1.2469368,10.138867200000002,3.1437072,0.0,0.0,0.0,0.0
0.13999999999999968,-0.35112960000000004,-1.1387328,10.138867200000002,2.9135831999999997,0.0,0.0,0.0,0.0
0.16000000000000014,-0.288036,-1.8976848000000002,10.0303584,2.9135831999999997,0.0,0.0,0.0,0.0
0.17999999999999972,-0.3325368,-1.1387328,10.138867200000002,2.7602688,0.0,0.0,0.0,0.0
0.20000000000000018,-0.19872960000000006,-1.6806672000000002,10.0303584,3.0672024,0.0,0.0,0.0,0.0
0.21999999999999975,-0.207264,-0.9217152000000001,10.247376,2.3768304000000002,0.0,0.0,0.0,0.0
0.2400000000000002,-0.16398240000000003,-1.6806672000000002,10.0303584,3.2205168000000004,0.0,0.0,0.0,0.0
0.2599999999999998,-0.11247120000000001,-1.0844784,10.0846128,2.7602688,0.0,0.0,0.0,0.0
0.28000000000000025,-0.0368808,-1.030224,10.247376,2.3768304000000002,0.0,0.0,0.0,0.0
0.2999999999999998,0.14904719999999996,-1.2469368,10.138867200000002,2.9903928,0.0,0.0,0.0,0.0
0.3200000000000003,0.12832079999999996,-1.1926824,10.0846128,2.9135831999999997,0.0,0.0,0.0,0.0
0.33999999999999986,0.23469600000000002,-1.3554456000000001,10.138867200000002,2.8370784000000002,0.0,0.0,0.0,0.0
0.3600000000000003,0.16428720000000005,-0.8674608,10.4098344,2.3768304000000002,0.0,0.0,0.0,0.0
0.3799999999999999,0.28193999999999997,-1.1926824,10.0846128,2.9135831999999997,0.0,0.0,0.0,0.0
0.40000000000000036,0.1524,-1.1926824,10.193121600000001,2.9135831999999997,0.0,0.0,0.0,0.0
0.41999999999999993,0.06065519999999996,-1.1926824,10.0846128,2.683764,0.0,0.0,0.0,0.0
0.4400000000000004,0.049682399999999946,-0.9759696,10.4098344,2.4536400000000005,0.0,0.0,0.0,0.0
0.45999999999999996,0.025298400000000058,-1.3554456000000001,10.0303584,3.2970216000000003,0.0,0.0,0.0,0.0
0.4800000000000004,-0.02987039999999996,-1.1926824,10.193121600000001,2.5304496,0.0,0.0,0.0,0.0
0.5,-0.3194304,-1.5182088,10.193121600000001,2.9135831999999997,0.0,0.0,0.0,0.0
0.5200000000000005,-0.23012400000000005,-0.7046976,10.138867200000002,2.7602688,0.0,0.0,0.0,0.0
0.54,-0.11978640000000002,-1.4639544,10.138867200000002,2.6069544000000002,0.0,0.0,0.0,0.0
0.5600000000000005,-0.19385280000000005,-1.3011912,10.193121600000001,2.6069544000000002,0.0,0.0,0.0,0.0
0.5800000000000001,-0.23378160000000006,-1.5724632,10.0303584,3.3738312000000006,0.0,0.0,0.0,0.0
0.6000000000000001,-0.19446240000000004,-0.9759696,10.3013256,2.5304496,0.0,0.0,0.0,0.0
0.6200000000000001,-0.026212799999999956,-1.1387328,10.138867200000002,2.5304496,0.0,0.0,0.0,0.0
0.6400000000000001,-0.17251680000000003,-1.4097000000000002,10.0846128,3.2205168000000004,0.0,0.0,0.0,0.0
0.6600000000000001,-0.219456,-0.9759696,10.3013256,2.5304496,0.0,0.0,0.0,0.0
0.6800000000000002,-0.2685288,-1.030224,10.247376,2.5304496,0.0,0.0,0.0,0.0
0.7000000000000002,-0.20574000000000003,-1.6806672000000002,10.138867200000002,3.450336,0.0,0.0,0.0,0.0
0.7200000000000002,-0.3526536,-1.030224,10.355580000000002,2.7602688,0.0,0.0,0.0,0.0
0.7400000000000002,-0.3130296000000001,-1.1926824,10.3013256,2.3768304000000002,0.0,0.0,0.0,0.0
0.7600000000000002,-0.4559808,-1.3554456000000001,10.138867200000002,2.7602688,0.0,0.0,0.0,0.0
0.7800000000000002,-0.5026152,-1.030224,10.138867200000002,2.9135831999999997,0.0,0.0,0.0,0.0
0.8000000000000003,-0.35082480000000005,-1.4097000000000002,10.3013256,2.3768304000000002,0.0,0.0,0.0,0.0
0.8200000000000003,-0.4230624,-0.7046976,10.4640888,2.1470112,0.0,0.0,0.0,0.0
0.8399999999999999,-0.34838640000000004,-1.5724632,10.0303584,3.2970216000000003,0.0,0.0,0.0,0.0
0.8599999999999999,-0.4166616,-1.1926824,10.0846128,2.8370784000000002,0.0,0.0,0.0,0.0
0.8799999999999999,-0.3041904,-0.8132064000000001,10.355580000000002,2.3768304000000002,0.0,0.0,0.0,0.0
0.8999999999999999,-0.0646176,-1.030224,10.138867200000002,2.6069544000000002,0.0,0.0,0.0,0.0
0.9199999999999999,-0.08991599999999998,-1.3011912,10.0846128,3.3738312000000006,0.0,0.0,0.0,0.0
0.94,-0.049682400000000015,-1.3554456000000001,10.247376,2.6069544000000002,0.0,0.0,0.0,0.0
0.96,0.008839199999999974,-0.650748,10.3013256,2.4536400000000005,0.0,0.0,0.0,0.0
0.98,-0.03749040000000007,-1.5724632,9.9218496,3.2205168000000004,0.0,0.0,0.0,0.0
1.0,0.01950720000000002,-1.3554456000000001,10.138867200000002,2.9135831999999997,0.0,0.0,0.0,0.0
1.02,0.027736799999999926,-1.4097000000000002,10.193121600000001,2.5304496,0.0,0.0,0.0,0.0
1.04,-0.04084319999999997,-0.8132064000000001,10.247376,2.8370784000000002,0.0,0.0,0.0,0.0
1.06,-0.24566880000000002,-1.789176,9.9218496,3.1437072,0.0,0.0,0.0,0.0
1.08,-0.12771120000000002,-1.4097000000000002,10.3013256,2.4536400000000005,0.0,0.0,0.0,0.0
1.1,0.015849600000000016,-0.9217152000000001,10.138867200000002,2.9135831999999997,0.0,0.0,0.0,0.0
1.12,-0.09052559999999998,-1.1926824,10.193121600000001,2.8370784000000002,0.0,0.0,0.0,0.0
1.1400000000000001,-0.059436000000000024,-1.789176,10.0303584,3.1437072,0.0,0.0,0.0,0.0
1.1600000000000001,-0.05425439999999998,-1.1926824,10.193121600000001,2.7602688,0.0,0.0,0.0,0.0
1.1800000000000002,-0.18105120000000002,-0.5422392,10.4098344,2.1470112,0.0,0.0,0.0,0.0
1.2000000000000002,-0.16520160000000003,-1.7349216,9.976104,2.9135831999999997,0.0,0.0,0.0,0.0
1.2200000000000002,-0.1511808,-1.7349216,10.0846128,3.2205168000000004,0.0,0.0,0.0,0.0
1.2400000000000002,-0.3044952,-0.7046976,10.355580000000002,2.3003256,0.0,0.0,0.0,0.0
1.2600000000000002,-0.20848319999999998,-1.030224,10.247376,2.5304496,0.0,0.0,0.0,0.0
1.2800000000000002,-0.245364,-2.0061936,10.0303584,3.1437072,0.0,0.0,0.0,0.0
1.3000000000000003,-0.32064960000000003,-0.9759696,10.193121600000001,2.7602688,0.0,0.0,0.0,0.0
1.3200000000000003,-0.07955280000000003,-0.8674608,10.3013256,2.3768304000000002,0.0,0.0,0.0,0.0
1.3399999999999999,0.03108959999999996,-1.4097000000000002,10.0846128,3.1437072,0.0,0.0,0.0,0.0
1.3599999999999999,0.015239999999999946,-1.5724632,10.138867200000002,2.8370784000000002,0.0,0.0,0.0,0.0
1.38,0.11490959999999995,-0.8132064000000001,10.138867200000002,2.9903928,0.0,0.0,0.0,0.0
1.4,-0.04236720000000008,-0.9217152000000001,10.247376,2.223516,0.0,0.0,0.0,0.0
1.42,-0.16824960000000003,-1.6806672000000002,9.9218496,3.2970216000000003,0.0,0.0,0.0,0.0
1.44,-0.056997600000000016,-1.0844784,10.3013256,2.5304496,0.0,0.0,0.0,0.0
1.46,-0.13380720000000002,-0.7589520000000001,10.3013256,2.3768304000000002,0.0,0.0,0.0,0.0
1.48,0.08656319999999995,-1.5724632,10.138867200000002,2.9135831999999997,0.0,0.0,0.0,0.0
1.5,-0.03840479999999997,-1.3554456000000001,10.0303584,3.6036504000000003,0.0,0.0,0.0,0.0
1.52,-0.005181599999999971,-0.9217152000000001,10.4640888,1.8400776,0.0,0.0,0.0,0.0
1.54,-0.1456944,-1.4639544,9.9218496,3.3738312000000006,0.0,0.0,0.0,0.0
1.56,-0.20695920000000004,-1.8976848000000002,10.0303584,2.9135831999999997,0.0,0.0,0.0,0.0
1.58,-0.2855976,-0.9759696,10.0846128,2.9903928,0.0,0.0,0.0,0.0
1.6,-0.4425696,-0.7046976,10.4640888,2.1470112,0.0,0.0,0.0,0.0
1.62,-0.39867840000000004,-3.9035736000000005,10.952073600000002,1.4569440000000002,0.0,0.0,0.0,0.0
1.6400000000000001,-0.46634400000000004,-2.6023824,9.6508824,2.3003256,0.0,0.0,0.0,0.0
1.6600000000000001,-0.3331464,0.1085088,10.843564800000001,2.9903928,0.0,0.0,0.0,0.0
1.6800000000000002,-0.41879520000000003,-0.8674608,10.5183432,2.9903928,0.0,0.0,0.0,0.0
1.7000000000000002,-0.3858768,-2.3314152,10.681106400000001,3.7572696000000003,0.0,0.0,0.0,0.0
1.7200000000000002,-0.5175504,-0.5422392,10.0846128,2.8370784000000002,0.0,0.0,0.0,0.0
1.7400000000000002,-0.6662928,-1.030224,10.355580000000002,2.683764,0.0,0.0,0.0,0.0
1.7600000000000002,-0.7601712000000002,-1.6806672000000002,10.4640888,3.3738312000000006,0.0,0.0,0.0,0.0
1.7800000000000002,-0.7921752000000001,-2.0061936,10.247376,2.5304496,0.0,0.0,0.0,0.0
1.8000000000000003,-0.8055863999999999,-0.9759696,10.193121600000001,3.1437072,0.0,0.0,0.0,0.0
1.8200000000000003,-0.7565136000000001,-0.8132064000000001,10.4640888,2.223516,0.0,0.0,0.0,0.0
1.8399999999999999,-0.7784592000000001,-2.0601432,9.867595200000002,3.2205168000000004,0.0,0.0,0.0,0.0
1.8599999999999999,-0.7827264,-1.4097000000000002,10.0846128,3.0672024,0.0,0.0,0.0,0.0
1.88,-0.7013448000000001,-1.030224,10.355580000000002,2.6069544000000002,0.0,0.0,0.0,0.0
1.9,-0.5007864000000001,-1.5724632,10.138867200000002,2.7602688,0.0,0.0,0.0,0.0
1.92,-0.29413200000000006,-1.1387328,10.138867200000002,2.8370784000000002,0.0,0.0,0.0,0.0
1.94,-0.2855976,-0.9217152000000001,10.247376,2.9135831999999997,0.0,0.0,0.0,0.0
1.96,-0.1862328,-0.8674608,10.4098344,1.9936968000000002,0.0,0.0,0.0,0.0
1.98,-0.1664208,-1.789176,9.9218496,3.450336,0.0,0.0,0.0,0.0
2.0,-0.02865119999999996,-0.9759696,10.193121600000001,2.3768304000000002,0.0,0.0,0.0,0.0
2.02,-0.09631680000000002,-1.1387328,10.247376,2.8370784000000002,0.0,0.0,0.0,0.0
2.04,-0.1438656,-1.0844784,10.0846128,2.8370784000000002,0.0,0.0,0.0,0.0
2.06,-0.1709928,-1.5724632,10.138867200000002,3.2205168000000004,0.0,0.0,0.0,0.0
2.08,-0.20177759999999997,-0.9217152000000001,10.247376,2.6069544000000002,0.0,0.0,0.0,0.0
2.1,-0.14660880000000004,-1.1387328,10.247376,2.1470112,0.0,0.0,0.0,0.0
2.12,-0.35356800000000005,-1.7349216,9.976104,3.3738312000000006,0.0,0.0,0.0,0.0
2.14,-0.4745736,-1.4639544,10.0303584,2.8370784000000002,0.0,0.0,0.0,0.0
2.16,-0.5004816,-0.5964936000000001,10.247376,2.683764,0.0,0.0,0.0,0.0
2.18,-0.4462272,-1.6264128000000002,10.0846128,2.5304496,0.0,0.0,0.0,0.0
2.2,-0.5666232,-1.1926824,10.0846128,3.2205168000000004,0.0,0.0,0.0,0.0
2.22,-0.6230112000000001,-1.1926824,10.3013256,2.5304496,0.0,0.0,0.0,0.0
2.24,-0.5495544,-0.9759696,10.193121600000001,2.683764,0.0,0.0,0.0,0.0
2.2600000000000002,-0.5184648000000001,-1.7349216,10.193121600000001,2.683764,0.0,0.0,0.0,0.0
2.2800000000000002,-0.4401312,-1.1387328,10.247376,2.9903928,0.0,0.0,0.0,0.0
2.3000000000000003,-0.26151840000000004,-0.9217152000000001,10.355580000000002,2.4536400000000005,0.0,0.0,0.0,0.0
2.3200000000000003,-0.2200656,-1.1387328,10.138867200000002,2.8370784000000002,0.0,0.0,0.0,0.0
2.34,-0.33710880000000004,-1.4097000000000002,10.0846128,3.1437072,0.0,0.0,0.0,0.0
2.36,-0.33588960000000007,-1.1926824,10.193121600000001,2.6069544000000002,0.0,0.0,0.0,0.0
2.38,-0.4166616,-0.7589520000000001,10.3013256,2.683764,0.0,0.0,0.0,0.0
2.4,-0.5766816,-1.4097000000000002,10.0846128,2.9135831999999997,0.0,0.0,0.0,0.0
2.42,-0.5522976,-1.1387328,10.138867200000002,2.9135831999999997,0.0,0.0,0.0,0.0
2.44,-0.3380232,-1.3554456000000001,10.247376,2.683764,0.0,0.0,0.0,0.0
2.46,-0.16276320000000002,-0.9759696,10.0846128,3.0672024,0.0,0.0,0.0,0.0
2.48,-0.11094720000000004,-1.5724632,10.0303584,2.6069544000000002,0.0,0.0,0.0,0.0
2.5,-0.16062960000000004,-0.8674608,10.3013256,2.683764,0.0,0.0,0.0,0.0
2.52,-0.1524,-1.6264128000000002,9.976104,3.1437072,0.0,0.0,0.0,0.0
2.54,0.04663440000000001,-1.1387328,10.247376,2.6069544000000002,0.0,0.0,0.0,0.0
2.56,-0.019811999999999986,-1.5182088,10.0846128,2.7602688,0.0,0.0,0.0,0.0
2.58,-0.19568160000000004,-1.0844784,10.0846128,3.1437072,0.0,0.0,0.0,0.0
2.6,-0.4364736,-1.2469368,10.247376,2.683764,0.0,0.0,0.0,0.0
2.62,-0.509016,-1.2469368,10.138867200000002,2.5304496,0.0,0.0,0.0,0.0
2.64,-0.5266944,-1.1926824,10.0846128,2.8370784000000002,0.0,0.0,0.0,0.0
2.66,-0.7016496000000001,-1.5182088,10.0846128,3.0672024,0.0,0.0,0.0,0.0
2.68,-0.6522720000000001,-0.5422392,10.4098344,2.3003256,0.0,0.0,0.0,0.0
2.7,-0.7824216,-1.4097000000000002,10.0846128,3.0672024,0.0,0.0,0.0,0.0
2.7199999999999998,-0.6958584,-1.2469368,10.138867200000002,3.0672024,0.0,0.0,0.0,0.0
2.74,-0.6345936,-0.9759696,10.3013256,2.3768304000000002,0.0,0.0,0.0,0.0
2.76,-0.47914560000000006,-1.1926824,10.193121600000001,2.7602688,0.0,0.0,0.0,0.0
2.7800000000000002,-0.553212,-1.6806672000000002,9.9218496,3.5271456,0.0,0.0,0.0,0.0
2.8,-0.5431536,-0.9217152000000001,10.4640888,2.223516,0.0,0.0,0.0,0.0
2.8200000000000003,-0.5160264,-1.4639544,10.138867200000002,2.9903928,0.0,0.0,0.0,0.0
2.84,-0.49621440000000006,-1.030224,10.138867200000002,2.8370784000000002,0.0,0.0,0.0,0.0
2.8600000000000003,-0.3438144000000001,-1.5724632,10.138867200000002,3.1437072,0.0,0.0,0.0,0.0
2.88,-0.4590288,-0.7589520000000001,10.3013256,2.3768304000000002,0.0,0.0,0.0,0.0
2.9000000000000004,-0.3227832,-1.0844784,10.0846128,3.0672024,0.0,0.0,0.0,0.0
2.92,-0.18653760000000005,-1.789176,10.138867200000002,2.9135831999999997,0.0,0.0,0.0,0.0
2.9400000000000004,-0.1664208,-0.9759696,10.193121600000001,2.5304496,0.0,0.0,0.0,0.0
2.96,-0.1731264,-0.9759696,10.193121600000001,2.8370784000000002,0.0,0.0,0.0,0.0
2.98,-0.20116800000000004,-1.2469368,10.138867200000002,2.9903928,0.0,0.0,0.0,0.0
3.0,-0.39624000000000004,-1.4639544,10.247376,2.6069544000000002,0.0,0.0,0.0,0.0
3.02,-0.1438656,-0.8132064000000001,10.355580000000002,2.9135831999999997,0.0,0.0,0.0,0.0
3.04,-0.1609344,-1.4639544,10.138867200000002,2.683764,0.0,0.0,0.0,0.0
3.06,-0.22646640000000004,-1.3011912,10.193121600000001,2.7602688,0.0,0.0,0.0,0.0
3.08,-0.31516320000000003,-1.030224,10.247376,2.5304496,0.0,0.0,0.0,0.0
3.1,-0.27188160000000006,-1.030224,10.247376,2.8370784000000002,0.0,0.0,0.0,0.0
3.12,-0.33467040000000003,-1.6806672000000002,10.0303584,3.0672024,0.0,0.0,0.0,0.0
3.14,-0.3858768,-1.1387328,10.247376,2.8370784000000002,0.0,0.0,0.0,0.0
3.16,-0.31150560000000005,-1.1387328,10.138867200000002,2.7602688,0.0,0.0,0.0,0.0
3.18,-0.26639520000000005,-1.1387328,10.247376,2.683764,0.0,0.0,0.0,0.0
3.2,-0.298704,-1.7349216,10.0846128,3.1437072,0.0,0.0,0.0,0.0
3.2199999999999998,-0.43494960000000005,-0.5422392,10.4098344,2.223516,0.0,0.0,0.0,0.0
3.24,-0.6105144,-1.2469368,10.138867200000002,2.9135831999999997,0.0,0.0,0.0,0.0
3.26,-0.8043672000000001,-1.6806672000000002,10.138867200000002,3.1437072,0.0,0.0,0.0,0.0
3.2800000000000002,-0.8689848,-0.9759696,10.193121600000001,2.683764,0.0,0.0,0.0,0.0
3.3,-0.8766048,-1.1926824,10.193121600000001,2.4536400000000005,0.0,0.0,0.0,0.0
3.3200000000000003,-0.8052816,-1.2469368,10.0303584,3.3738312000000006,0.0,0.0,0.0,0.0
3.34,-0.8217408,-1.7349216,10.0846128,2.9903928,0.0,0.0,0.0,0.0
3.3600000000000003,-0.7092696000000001,-0.5964936000000001,10.355580000000002,2.223516,0.0,0.0,0.0,0.0
3.38,-0.5166360000000001,-0.9759696,10.3013256,2.4536400000000005,0.0,0.0,0.0,0.0
3.4000000000000004,-0.44317920000000005,-1.8976848000000002,9.9218496,3.6036504000000003,0.0,0.0,0.0,0.0
3.42,-0.288036,-1.5182088,10.0846128,2.8370784000000002,0.0,0.0,0.0,0.0
3.4400000000000004,-0.2218944,-0.16276320000000002,10.4640888,2.223516,0.0,0.0,0.0,0.0
3.46,-0.14295120000000003,-1.5182088,10.0846128,2.9135831999999997,0.0,0.0,0.0,0.0
3.48,-0.3212592,-2.2771608000000003,9.976104,3.7572696000000003,0.0,0.0,0.0,0.0
3.5,-0.41605200000000003,-0.5422392,10.626852000000001,1.6867632000000001,0.0,0.0,0.0,0.0
3.52,-0.3950208,-0.8132064000000001,10.138867200000002,2.9903928,0.0,0.0,0.0,0.0
3.54,-0.5955792,-2.4399240000000004,10.138867200000002,3.2970216000000003,0.0,0.0,0.0,0.0
3.56,-0.8878824000000001,-0.5964936000000001,9.9218496,2.7602688,0.0,0.0,0.0,0.0
3.58,-0.9982200000000001,-0.5422392,10.5183432,1.6102584000000002,0.0,0.0,0.0,0.0
3.6,-0.8948928,-2.2229064000000003,9.7051368,4.1404032,0.0,0.0,0.0,0.0
3.62,-1.048512,-1.4097000000000002,10.193121600000001,2.3768304000000002,0.0,0.0,0.0,0.0
3.64,-1.0631424,-0.4337304,10.4098344,2.3003256,0.0,0.0,0.0,0.0
3.66,-0.8363712,-1.7349216,10.0846128,2.8370784000000002,0.0,0.0,0.0,0.0
3.68,-0.9073896,-1.7349216,10.0846128,3.2970216000000003,0.0,0.0,0.0,0.0
3.7,-0.8628888,-1.030224,10.5725976,1.7635728,0.0,0.0,0.0,0.0
3.72,-0.7720584,-1.1926824,9.867595200000002,3.5271456,0.0,0.0,0.0,0.0
3.74,-0.6650736,-1.7349216,10.3013256,2.683764,0.0,0.0,0.0,0.0
3.7600000000000002,-0.6790944000000001,-0.5422392,9.867595200000002,2.9903928,0.0,0.0,0.0,0.0
3.7800000000000002,-0.7571232,-1.1926824,10.4098344,2.5304496,0.0,0.0,0.0,0.0
3.8,-0.7068312,-1.3554456000000001,9.9218496,3.0672024,0.0,0.0,0.0,0.0
3.8200000000000003,-0.5337048000000001,-1.4639544,10.247376,2.7602688,0.0,0.0,0.0,0.0
3.84,-0.536448,-0.7589520000000001,9.4338648,2.6069544000000002,0.0,0.0,0.0,0.0
3.8600000000000003,-0.757428,-1.3011912,10.3013256,2.9135831999999997,0.0,0.0,0.0,0.0
3.88,-0.6903720000000001,-1.3011912,9.867595200000002,2.8370784000000002,0.0,0.0,0.0,0.0
3.9,-0.4416552,-0.650748,9.7593912,2.9903928,0.0,0.0,0.0,0.0
3.92,-0.4623816,-0.7589520000000001,10.193121600000001,2.3003256,0.0,0.0,0.0,0.0
3.94,-0.4364736,-1.4639544,10.0303584,3.2970216000000003,0.0,0.0,0.0,0.0
3.96,-0.37216080000000007,-1.3554456000000001,9.7051368,2.4536400000000005,0.0,0.0,0.0,0.0
3.98,-0.475488,-0.2709672,9.596628,2.9903928,0.0,0.0,0.0,0.0
4.0,-0.49377600000000005,1.5724632,7.6446888,3.9870888,0.0,0.0,0.0,0.0
4.02,-0.5468112,-1.0844784,11.385804,3.450336,0.0,0.0,0.0,0.0
4.04,-0.49103280000000005,-1.7349216,10.626852000000001,2.6069544000000002,0.0,0.0,0.0,0.0
4.0600000000000005,-0.5309616,-0.8674608,10.0846128,3.1437072,0.0,0.0,0.0,0.0
4.08,-0.43312080000000003,-1.5182088,10.4098344,2.5304496,0.0,0.0,0.0,0.0
4.1,-0.3258312,-1.3554456000000001,10.0303584,3.2970216000000003,0.0,0.0,0.0,0.0
4.12,-0.23073360000000004,-0.650748,10.3013256,2.6069544000000002,0.0,0.0,0.0,0.0
4.14,-0.35631120000000005,-0.9759696,10.193121600000001,2.4536400000000005,0.0,0.0,0.0,0.0
4.16,-0.3788664,-1.7349216,10.0846128,3.0672024,0.0,0.0,0.0,0.0
4.18,-0.46329600000000004,-1.0844784,10.193121600000001,2.9135831999999997,0.0,0.0,0.0,0.0
4.2,-0.6303264000000001,-2.4399240000000004,1.5724632,0.6135624,0.0,0.0,0.0,0.0
4.22,-0.6912864000000001,-1.3011912,12.9040128,1.4569440000000002,0.0,0.0,0.0,0.0
4.24,-0.783336,2.548128,12.524536800000002,2.9135831999999997,0.0,0.0,0.0,0.0
4.26,-0.8702040000000001,-1.5182088,10.735360799999999,1.6102584000000002,0.0,0.0,0.0,0.0
4.28,-0.8296656,-2.8736544000000004,9.2714064,2.1470112,0.0,0.0,0.0,0.0
4.3,-0.8872728000000001,-0.3252216,10.193121600000001,2.9135831999999997,0.0,0.0,0.0,0.0
4.32,-0.8427720000000001,-0.650748,10.4098344,2.8370784000000002,0.0,0.0,0.0,0.0
4.34,-0.8339327999999999,-1.7349216,9.7593912,2.7602688,0.0,0.0,0.0,0.0
4.36,-0.7702296000000001,-0.9217152000000001,10.0303584,3.6036504000000003,0.0,0.0,0.0,0.0
4.38,-0.6184392,-0.3252216,10.193121600000001,3.2205168000000004,0.0,0.0,0.0,0.0
4.4,-0.7086600000000001,-1.3554456000000001,10.247376,2.5304496,0.0,0.0,0.0,0.0
4.42,-0.5797296000000001,-1.6264128000000002,9.7593912,3.1437072,0.0,0.0,0.0,0.0
4.44,-0.6452616,-0.8132064000000001,10.5725976,2.9135831999999997,0.0,0.0,0.0,0.0
4.46,-0.8461248,-1.2469368,10.138867200000002,2.3768304000000002,0.0,0.0,0.0,0.0
4.48,-1.1003280000000002,-1.3011912,10.193121600000001,2.9135831999999997,0.0,0.0,0.0,0.0
4.5,-1.2774168,-1.3554456000000001,10.138867200000002,3.2970216000000003,0.0,0.0,0.0,0.0
4.5200000000000005,-1.2454128000000002,-1.1387328,10.138867200000002,2.683764,0.0,0.0,0.0,0.0
4.54,-1.4042136,-0.8674608,10.193121600000001,2.683764,0.0,0.0,0.0,0.0
4.5600000000000005,-1.5157704,-1.6264128000000002,9.976104,3.1437072,0.0,0.0,0.0,0.0
4.58,-1.5761208,-1.030224,10.0303584,2.7602688,0.0,0.0,0.0,0.0
4.6,-1.527048,-1.1387328,10.138867200000002,2.4536400000000005,0.0,0.0,0.0,0.0
4.62,-1.4093952000000003,-0.8132064000000001,9.813645600000001,2.9135831999999997,0.0,0.0,0.0,0.0
4.64,-1.4063472000000001,-1.4097000000000002,9.867595200000002,2.9903928,0.0,0.0,0.0,0.0
4.66,-1.2508992,-2.6023824,17.458334400000002,6.9009768,0.0,0.0,0.0,0.0
4.68,-1.2347448,-5.367528,49.0676184,11.5781328,0.0,0.0,0.0,0.0
4.7,-1.0101072,-1.1926824,27.542947200000004,8.6645496,0.0,0.0,0.0,0.0
4.72,-1.0116312,-9.217152,42.7241208,13.6483344,0.0,0.0,0.0,0.0
4.74,-0.9372600000000001,-7.3194672,56.00760960000001,14.2618968,0.0,0.0,0.0,0.0
4.76,-0.9515856,-13.7172192,100.2496344,16.7920416,0.0,0.0,0.0,0.0
4.78,-0.7930896,-19.0847472,123.50922720000001,29.673804000000004,0.0,0.0,0.0,0.0
4.8,-0.6266688,-28.3018992,166.88379120000002,45.92909280000001,0.0,0.0,0.0,0.0
4.82,-0.39319200000000004,-17.729301600000003,204.34889280000002,69.3919872,0.0,0.0,0.0,0.0
4.84,-0.04541520000000001,-21.958401600000002,200.11979280000003,47.76917040000001,0.0,0.0,0.0,0.0
4.86,0.5660136,-0.0542544,222.02394,75.06614400000001,0.0,0.0,0.0,0.0
4.88,1.7333976,-0.0542544,222.02394,73.2257616,0.0,0.0,0.0,0.0
4.9,2.9306520000000003,-3.6326064,218.445588,79.28335679999999,0.0,0.0,0.0,0.0
4.92,4.2287952,-0.0542544,222.02394,87.8710968,0.0,0.0,0.0,0.0
4.94,5.7116472,-0.0542544,222.02394,85.72408560000001,0.0,0.0,0.0,0.0
4.96,7.0896479999999995,-0.0542544,222.02394,89.8644888,0.0,0.0,0.0,0.0
4.98,8.457590399999999,-0.0542544,222.02394,91.3214328,0.0,0.0,0.0,0.0
5.0,9.5243904,-0.0542544,222.02394,97.14890400000002,0.0,0.0,0.0,0.0
5.0200000000000005,10.86612,-0.0542544,222.02394,99.142296,0.0,0.0,0.0,0.0
5.04,12.032284800000001,-0.0542544,222.02394,95.7687696,0.0,0.0,0.0,0.0
5.0600000000000005,12.9503424,-0.0542544,222.02394,95.99858880000001,0.0,0.0,0.0,0.0
5.08,14.0948664,-0.0542544,222.02394,93.6982632,0.0,0.0,0.0,0.0
5.1,16.13154,-3.957828,218.12006159999999,99.75585840000001,0.0,0.0,0.0,0.0
5.12,19.219164,-0.0542544,222.02394,104.6631384,0.0,0.0,0.0,0.0
5.140000000000001,23.6399832,-0.0542544,222.02394,99.602544,0.0,0.0,0.0,0.0
5.16,28.3872432,-0.0542544,222.02394,90.4012416,0.0,0.0,0.0,0.0
5.18,31.854343200000002,-0.0542544,222.02394,92.70156720000001,0.0,0.0,0.0,0.0
5.2,33.997392,-9.7593912,212.3188032,85.4939616,0.0,0.0,0.0,0.0
5.22,35.447935199999996,-12.795504,209.28269040000004,76.1396496,0.0,0.0,0.0,0.0
5.24,36.8286792,-0.9759696,221.1022248,92.9316912,0.0,0.0,0.0,0.0
5.26,38.5468368,-11.928043200000001,210.15015120000004,88.79098320000001,0.0,0.0,0.0,0.0
5.28,41.1156912,-8.1326736,213.94552080000003,80.66349120000001,0.0,0.0,0.0,0.0
5.3,44.4569088,-15.6691584,206.40903600000001,80.739996,0.0,0.0,0.0,0.0
5.32,47.940468,-16.4281104,205.65008400000002,74.83602,0.0,0.0,0.0,0.0
5.34,50.890627200000004,-18.542508,203.53538160000002,72.6890088,0.0,0.0,0.0,0.0
5.36,53.434792800000004,-22.825862400000002,199.25233200000002,70.0055496,0.0,0.0,0.0,0.0
5.38,56.2938168,-19.3560192,181.7939976,61.110876000000005,0.0,0.0,0.0,0.0
5.4,59.544204,-18.000573600000003,163.3054392,59.73074160000001,0.0,0.0,0.0,0.0
5.42,63.01618080000001,-19.193256,138.69040080000002,54.13339440000001,0.0,0.0,0.0,0.0
5.44,66.3665424,-11.1690912,138.25667040000002,48.91948560000001,0.0,0.0,0.0,0.0
5.46,69.3173112,-11.385804,128.4972792,38.6446776,0.0,0.0,0.0,0.0
5.48,72.40158240000001,-12.3075192,117.2742384,39.7181832,0.0,0.0,0.0,0.0
5.5,75.7552968,-4.012082400000001,104.42448000000002,41.86519440000001,0.0,0.0,0.0,0.0
5.52,79.2321504,-3.578352,73.73691120000001,29.980432800000003,0.0,0.0,0.0,0.0
5.54,82.7992248,1.4097000000000002,51.72425520000001,17.17548,0.0,0.0,0.0,0.0
5.5600000000000005,85.9347024,3.1446216000000002,10.3013256,1.9168872,0.0,0.0,0.0,0.0
5.58,88.9034544,9.488119200000002,-6.668719200000001,8.971178400000001,0.0,0.0,0.0,0.0
5.6,92.07306960000001,14.421916800000002,-25.591008,-2.7602688,0.0,0.0,0.0,0.0
5.62,94.8458352,-17.512588800000003,-30.416601600000003,9.584436,0.0,0.0,0.0,0.0
5.640000000000001,97.57105200000001,-43.80829440000001,-16.482364800000003,-13.418210400000001,0.0,0.0,0.0,0.0
5.66,100.44897360000002,-33.6694272,-18.2715408,-6.1341,0.0,0.0,0.0,0.0
5.68,103.26319200000002,-28.9526472,-18.434304,-6.1341,0.0,0.0,0.0,0.0
5.7,106.27614000000001,-28.789884,-22.7173536,-4.1404032,0.0,0.0,0.0,0.0
5.72,109.09462560000001,-31.609284000000002,-16.753332,-3.3738312000000006,0.0,0.0,0.0,0.0
5.74,112.0362504,-31.8802512,-16.2653472,-2.9903928,0.0,0.0,0.0,0.0
5.76,114.94190880000001,-31.3383168,-16.590873600000002,-1.6867632000000001,0.0,0.0,0.0,0.0
5.78,117.8091624,-30.4705512,-16.373856,-5.2139088000000005,0.0,0.0,0.0,0.0
5.8,120.8248536,-29.548835999999998,-16.4281104,-4.6006512,0.0,0.0,0.0,0.0
5.82,123.6716856,-32.4767448,-14.259458400000002,-2.6069544000000002,0.0,0.0,0.0,0.0
5.84,126.60172800000001,-30.524805600000004,-14.259458400000002,-2.3768304000000002,0.0,0.0,0.0,0.0
5.86,129.4040592,-29.874362400000003,-14.476171200000001,-4.0638984,0.0,0.0,0.0,0.0
5.88,132.1000152,-27.9224232,-16.5366192,-5.2139088000000005,0.0,0.0,0.0,0.0
5.9,134.9812896,-27.651456,-14.747443200000001,-2.9903928,0.0,0.0,0.0,0.0
5.92,137.7510072,-26.7836904,-17.2413168,-3.68046,0.0,0.0,0.0,0.0
5.94,140.4387336,-26.241756000000002,-16.6993824,-3.9870888,0.0,0.0,0.0,0.0
5.96,143.1895536,-25.3742952,-16.0486344,-4.2172128,0.0,0.0,0.0,0.0
5.98,145.8318648,-25.0487688,-16.6993824,-2.9135831999999997,0.0,0.0,0.0,0.0
6.0,148.5278208,-25.970484,-16.4281104,-2.3003256,0.0,0.0,0.0,0.0
6.02,151.3417344,-25.591008,-16.8075864,-2.7602688,0.0,0.0,0.0,0.0
6.04,154.1410176,-25.157277600000004,-16.0486344,-3.2205168000000004,0.0,0.0,0.0,0.0
6.0600000000000005,156.85648080000004,-25.9162296,-15.2896824,-3.0672024,0.0,0.0,0.0,0.0
6.08,159.56127600000002,-24.072799200000002,-17.024604,-2.3768304000000002,0.0,0.0,0.0,0.0
6.1,162.43828320000003,-25.0487688,-16.590873600000002,-2.5304496,0.0,0.0,0.0,0.0
6.12,165.16502400000005,-25.4824992,-14.096695200000001,-2.3003256,0.0,0.0,0.0,0.0
6.140000000000001,167.8478736,-24.235562400000003,-16.4281104,-3.2205168000000004,0.0,0.0,0.0,0.0
6.16,170.3868576,-24.8863104,-14.1509496,-2.223516,0.0,0.0,0.0,0.0
6.18,173.09165280000002,-25.3200408,-11.873788800000002,-1.4569440000000002,0.0,0.0,0.0,0.0
6.2,175.72512480000003,-24.9405648,-13.1207256,-3.0672024,0.0,0.0,0.0,0.0
6.22,178.3838952,-25.591008,-12.4702824,-1.9936968000000002,0.0,0.0,0.0,0.0
6.24,181.1005776,-25.5367536,-11.440058400000002,-2.3003256,0.0,0.0,0.0,0.0
6.26,183.72429600000004,-25.970484,-12.958267200000002,-3.3738312000000006,0.0,0.0,0.0,0.0
6.28,186.31662000000003,-24.669292800000004,-11.76528,-3.2205168000000004,0.0,0.0,0.0,0.0
6.3,188.8729776,-24.344071200000002,-11.1148368,-3.6036504000000003,0.0,0.0,0.0,0.0
6.32,191.29308960000003,-23.5308648,-12.144756000000001,-3.7572696000000003,0.0,0.0,0.0,0.0
6.34,193.75404480000003,-21.0366864,-12.361773600000001,-3.2970216000000003,0.0,0.0,0.0,0.0
6.36,196.21682880000003,-20.8199736,-14.096695200000001,-4.4473368,0.0,0.0,0.0,0.0
6.38,198.71954160000004,-19.952208,-13.771473600000002,-3.2970216000000003,0.0,0.0,0.0,0.0
6.4,201.30790320000003,-21.904147200000004,-13.8799824,-4.677156,0.0,0.0,0.0,0.0
6.42,203.79049920000003,-20.5487016,-13.283488800000002,-3.2970216000000003,0.0,0.0,0.0,0.0
6.44,206.26699920000001,-22.392132000000004,-11.657076,-2.9135831999999997,0.0,0.0,0.0,0.0
6.46,208.71698160000003,-22.1211648,-12.2532648,-4.4473368,0.0,0.0,0.0,0.0
6.48,211.25291760000005,-20.8739232,-12.0908064,-3.0672024,0.0,0.0,0.0,0.0
6.5,213.68552640000004,-21.361908,-10.952073600000002,-2.683764,0.0,0.0,0.0,0.0
6.52,216.15166320000003,-21.5246712,-11.3315496,-1.8400776,0.0,0.0,0.0,0.0
6.54,218.53794240000002,-20.5487016,-10.789310400000002,-2.0702016,0.0,0.0,0.0,0.0
6.5600000000000005,220.81083600000002,-21.3076536,-10.5725976,-2.8370784000000002,0.0,0.0,0.0,0.0
6.58,223.1321928,-20.3319888,-10.789310400000002,-3.450336,0.0,0.0,0.0,0.0
6.6,225.51146160000005,-21.361908,-10.3013256,-2.3003256,0.0,0.0,0.0,0.0
6.62,227.8931688,-19.898258400000003,-10.681106400000001,-1.1500104,0.0,0.0,0.0,0.0
6.640000000000001,230.09931120000005,-19.898258400000003,-11.2230408,-2.3768304000000002,0.0,0.0,0.0,0.0
6.66,232.36123200000003,-18.976543200000002,-10.952073600000002,-2.7602688,0.0,0.0,0.0,0.0
6.68,234.67496880000002,-19.3560192,-9.7051368,-2.4536400000000005,0.0,0.0,0.0,0.0
6.7,236.90183760000005,-18.2715408,-10.5725976,-2.4536400000000005,0.0,0.0,0.0,0.0
6.720000000000001,239.12779200000003,-18.6510168,-10.0846128,-2.3003256,0.0,0.0,0.0,0.0
6.74,241.44061440000002,-19.0304928,-9.1628976,-2.7602688,0.0,0.0,0.0,0.0
6.76,243.68546640000002,-18.976543200000002,-9.6508824,-3.2970216000000003,0.0,0.0,0.0,0.0
6.78,246.02876880000002,-18.81378,-9.7051368,-2.8370784000000002,0.0,0.0,0.0,0.0
6.800000000000001,248.33884800000004,-19.193256,-9.7593912,-1.7635728,0.0,0.0,0.0,0.0
6.82,250.68062640000005,-17.024604,-10.626852000000001,-2.9903928,0.0,0.0,0.0,0.0
6.84,252.90566640000003,-17.837810400000002,-9.7051368,-2.683764,0.0,0.0,0.0,0.0
6.859999999999999,255.16362480000004,-18.000573600000003,-9.3256608,-2.683764,0.0,0.0,0.0,0.0
6.88,257.36732880000005,-16.5366192,-10.681106400000001,-2.3003256,0.0,0.0,0.0,0.0
6.9,259.5618888,-18.2715408,-8.837676,-2.0702016,0.0,0.0,0.0,0.0
6.92,261.6665328,-15.8316168,-10.952073600000002,-1.3036296,0.0,0.0,0.0,0.0
6.9399999999999995,263.876028,-16.6993824,-9.6508824,-1.3036296,0.0,0.0,0.0,0.0
6.96,266.06845440000006,-15.8858712,-10.138867200000002,-2.223516,0.0,0.0,0.0,0.0
6.98,268.236192,-15.506395200000002,-9.5423736,-3.1437072,0.0,0.0,0.0,0.0
7.0,270.44416320000005,-16.102888800000002,-8.837676,-3.0672024,0.0,0.0,0.0,0.0
7.02,272.67438480000004,-16.2113976,-8.729167200000001,-2.9903928,0.0,0.0,0.0,0.0
7.04,274.92533280000004,-16.482364800000003,-9.108643200000001,-2.683764,0.0,0.0,0.0,0.0
7.0600000000000005,277.0979472,-17.2413168,-7.6989432,-2.1470112,0.0,0.0,0.0,0.0
7.08,279.15565200000003,-16.0486344,-8.7834216,-2.5304496,0.0,0.0,0.0,0.0
7.1,281.237436,-15.018410400000002,-9.596628,-2.5304496,0.0,0.0,0.0,0.0
7.12,283.26953760000004,-15.3978864,-9.108643200000001,-3.0672024,0.0,0.0,0.0,0.0
7.140000000000001,285.39277440000006,-14.693188800000001,-9.2714064,-3.0672024,0.0,0.0,0.0,0.0
7.16,287.3910432,-16.0486344,-7.4822304,-2.0702016,0.0,0.0,0.0,0.0
7.18,289.53714,-15.7234128,-7.2652128,-1.7635728,0.0,0.0,0.0,0.0
7.2,291.666168,-15.6691584,-8.6206584,-2.683764,0.0,0.0,0.0,0.0
7.220000000000001,293.6848584,-13.7172192,-9.488119200000002,-2.223516,0.0,0.0,0.0,0.0
7.24,295.6358832,-14.909901600000001,-7.970215200000001,-2.1470112,0.0,0.0,0.0,0.0
7.26,297.53021520000004,-14.855952000000002,-8.024164800000001,-2.1470112,0.0,0.0,0.0,0.0
7.28,299.5351896,-14.096695200000001,-8.3496912,-0.996696,0.0,0.0,0.0,0.0
7.300000000000001,301.4688408,-14.476171200000001,-8.0784192,-1.9168872,0.0,0.0,0.0,0.0
7.32,303.51100080000003,-13.771473600000002,-8.024164800000001,-1.6102584000000002,0.0,0.0,0.0,0.0
7.34,305.39527440000006,-14.259458400000002,-7.5364848,-1.9936968000000002,0.0,0.0,0.0,0.0
7.359999999999999,307.3627584,-13.771473600000002,-7.3737216000000005,-1.8400776,0.0,0.0,0.0,0.0
7.38,309.31866,-12.795504,-7.807452,-1.7635728,0.0,0.0,0.0,0.0
7.4,311.21847840000004,-13.283488800000002,-8.0784192,-2.3768304000000002,0.0,0.0,0.0,0.0
7.42,313.1923632,-12.958267200000002,-7.970215200000001,-2.223516,0.0,0.0,0.0,0.0
7.4399999999999995,315.15862799999996,-12.686995200000002,-7.915960800000001,-1.8400776,0.0,0.0,0.0,0.0
7.46,317.2032264,-13.662964800000001,-7.3737216000000005,-1.8400776,0.0,0.0,0.0,0.0
7.48,319.1222472,-13.554456,-6.506260800000001,-2.0702016,0.0,0.0,0.0,0.0
7.5,321.0677856,-13.446252000000001,-7.048500000000001,-2.3003256,0.0,0.0,0.0,0.0
7.52,322.9160928,-12.9040128,-7.048500000000001,-1.3801344,0.0,0.0,0.0,0.0
7.54,324.7912224,-12.8497584,-6.5605152,-1.5334488,0.0,0.0,0.0,0.0
7.5600000000000005,326.64227279999994,-12.3075192,-7.6446888,-1.7635728,0.0,0.0,0.0,0.0
7.58,328.4866176,-11.6028216,-7.5904344,-2.0702016,0.0,0.0,0.0,0.0
7.6,330.314808,-12.0908064,-7.5364848,-2.5304496,0.0,0.0,0.0,0.0
7.62,332.17866000000004,-12.2532648,-7.4822304,-1.9936968000000002,0.0,0.0,0.0,0.0
7.640000000000001,333.95351039999997,-12.199010400000002,-6.4520064,-2.0702016,0.0,0.0,0.0,0.0
7.66,335.9194704,-12.524536800000002,-6.1267848,-2.3003256,0.0,0.0,0.0,0.0
7.68,337.75985280000003,-12.795504,-6.2892432000000005,-1.7635728,0.0,0.0,0.0,0.0
7.7,339.5536008,-11.76528,-6.668719200000001,-1.6102584000000002,0.0,0.0,0.0,0.0
7.720000000000001,341.4903,-11.4943128,-6.9399912,-1.6102584000000002,0.0,0.0,0.0,0.0
7.74,343.2956304,-11.5485672,-7.3194672,-1.9168872,0.0,0.0,0.0,0.0
7.76,345.14668079999996,-11.1690912,-7.156704,-1.6867632000000001,0.0,0.0,0.0,0.0
7.78,346.96511760000004,-11.3315496,-6.4520064,-1.9936968000000002,0.0,0.0,0.0,0.0
7.800000000000001,348.7920888,-11.2230408,-6.777228,-1.4569440000000002,0.0,0.0,0.0,0.0
7.82,350.5431648,-10.193121600000001,-7.048500000000001,-1.9936968000000002,0.0,0.0,0.0,0.0
7.84,352.2180408,-10.247376,-6.668719200000001,-2.0702016,0.0,0.0,0.0,0.0
7.859999999999999,353.9502192,-10.5183432,-6.397752,-1.4569440000000002,0.0,0.0,0.0,0.0
7.88,355.6982472,-10.355580000000002,-6.343497600000001,-1.6102584000000002,0.0,0.0,0.0,0.0
7.9,357.43530239999996,-10.138867200000002,-6.777228,-1.6867632000000001,0.0,0.0,0.0,0.0
7.92,359.23788959999996,-10.0303584,-6.2349888,-1.9168872,0.0,0.0,0.0,0.0
7.9399999999999995,360.9633624,-9.596628,-6.885736800000001,-1.5334488,0.0,0.0,0.0,0.0
7.96,362.672376,-10.843564800000001,-5.638800000000001,-1.6867632000000001,0.0,0.0,0.0,0.0
7.98,364.39327679999997,-9.813645600000001,-6.2349888,-1.6867632000000001,0.0,0.0,0.0,0.0
8.0,366.0523032,-10.4098344,-6.1807343999999995,-2.1470112,0.0,0.0,0.0,0.0
8.02,367.79301599999997,-10.193121600000001,-5.638800000000001,-1.7635728,0.0,0.0,0.0,0.0
8.04,369.49623840000004,-10.247376,-5.259324,-1.7635728,0.0,0.0,0.0,0.0
8.06,371.1308808,-10.0303584,-5.801258400000001,-1.4569440000000002,0.0,0.0,0.0,0.0
8.08,372.7819824,-9.108643200000001,-6.614769600000001,-1.6102584000000002,0.0,0.0,0.0,0.0
8.1,374.4836808,-8.837676,-6.885736800000001,-1.5334488,0.0,0.0,0.0,0.0
8.120000000000001,376.1698344,-8.5121496,-6.668719200000001,-1.0735056,0.0,0.0,0.0,0.0
8.14,377.831604,-8.6206584,-6.2349888,-2.0702016,0.0,0.0,0.0,0.0
8.16,379.4247936,-8.4582,-5.964021600000001,-1.9936968000000002,0.0,0.0,0.0,0.0
8.18,381.0935736,-8.7834216,-5.5302912,-2.3768304000000002,0.0,0.0,0.0,0.0
8.2,382.7797272,-7.807452,-6.506260800000001,-1.3036296,0.0,0.0,0.0,0.0
8.22,384.38419439999996,-9.217152,-4.988052,-0.996696,0.0,0.0,0.0,0.0
8.24,385.9685448,-9.7593912,-4.6628304,-0.6135624,0.0,0.0,0.0,0.0
8.26,387.46450319999997,-9.3256608,-5.205069600000001,-0.9201912000000001,0.0,0.0,0.0,0.0
8.280000000000001,389.0683608,-9.5423736,-4.7713392,-0.8433816000000001,0.0,0.0,0.0,0.0
8.3,390.7773744,-9.1628976,-4.8252888,-1.1500104,0.0,0.0,0.0,0.0
8.32,392.4681,-9.0001344,-4.6628304,-1.3036296,0.0,0.0,0.0,0.0
8.34,394.00916880000005,-8.729167200000001,-4.8252888,-1.2268200000000002,0.0,0.0,0.0,0.0
8.36,395.4725136,-8.837676,-5.1508152,-1.6102584000000002,0.0,0.0,0.0,0.0
8.379999999999999,397.04040480000003,-8.6749128,-4.988052,-1.7635728,0.0,0.0,0.0,0.0
8.4,398.650968,-8.024164800000001,-5.205069600000001,-1.6102584000000002,0.0,0.0,0.0,0.0
8.42,400.1530224,-7.3737216000000005,-5.3132736,-1.2268200000000002,0.0,0.0,0.0,0.0
8.44,401.70872160000005,-7.3194672,-5.1508152,-1.3801344,0.0,0.0,0.0,0.0
8.46,403.1903544,-6.777228,-5.476036800000001,-1.3801344,0.0,0.0,0.0,0.0
8.48,404.7067344,-7.6989432,-5.096560800000001,-1.1500104,0.0,0.0,0.0,0.0
8.5,406.3023624,-7.970215200000001,-4.933797600000001,-1.3036296,0.0,0.0,0.0,0.0
8.52,407.8580616,-7.6446888,-5.0423064,-1.6102584000000002,0.0,0.0,0.0,0.0
8.54,409.3299408,-7.2652128,-5.3132736,-1.6102584000000002,0.0,0.0,0.0,0.0
8.56,410.7689016,-8.295436800000001,-4.2833544,-1.7635728,0.0,0.0,0.0,0.0
8.58,412.2657744,-7.6989432,-4.554321600000001,-1.4569440000000002,0.0,0.0,0.0,0.0
8.6,413.6675496,-7.4822304,-4.554321600000001,-1.2268200000000002,0.0,0.0,0.0,0.0
8.620000000000001,415.2314784,-8.1326736,-4.120591200000001,-1.2268200000000002,0.0,0.0,0.0,0.0
8.64,416.6811072,-7.048500000000001,-4.8795432000000005,-1.1500104,0.0,0.0,0.0,0.0
8.66,418.10696160000003,-6.9399912,-4.7713392,-0.8433816000000001,0.0,0.0,0.0,0.0
8.68,419.4880104,-7.048500000000001,-4.554321600000001,-1.4569440000000002,0.0,0.0,0.0,0.0
8.7,421.0028664,-6.7229735999999995,-4.7713392,-1.5334488,0.0,0.0,0.0,0.0
8.719999999999999,422.451276,-6.668719200000001,-4.8252888,-1.5334488,0.0,0.0,0.0,0.0
8.74,423.8679864,-6.8314824000000005,-4.445812800000001,-0.996696,0.0,0.0,0.0,0.0
8.76,425.30603279999997,-5.8555128,-4.554321600000001,-0.8433816000000001,0.0,0.0,0.0,0.0
8.780000000000001,426.776388,-6.1267848,-4.5000672,-1.1500104,0.0,0.0,0.0,0.0
8.8,428.22540719999995,-6.7229735999999995,-4.012082400000001,-0.9201912000000001,0.0,0.0,0.0,0.0
8.82,429.5842056,-7.1024496,-3.7411152,-1.1500104,0.0,0.0,0.0,0.0
8.84,430.9646448,-7.156704,-3.7953696000000003,-1.4569440000000002,0.0,0.0,0.0,0.0
8.86,432.448716,-7.156704,-4.012082400000001,-1.5334488,0.0,0.0,0.0,0.0
8.879999999999999,433.8398232,-7.3737216000000005,-3.7953696000000003,-1.3801344,0.0,0.0,0.0,0.0
8.9,435.22544400000004,-6.777228,-3.8496240000000004,-1.3801344,0.0,0.0,0.0,0.0
8.92,436.60618800000003,-6.668719200000001,-3.957828,-1.3801344,0.0,0.0,0.0,0.0
8.940000000000001,437.9723016,-6.9399912,-3.6868608000000003,-1.5334488,0.0,0.0,0.0,0.0
8.96,439.3518264,-6.668719200000001,-3.7411152,-1.5334488,0.0,0.0,0.0,0.0
8.98,440.7060528,-6.397752,-4.012082400000001,-1.3801344,0.0,0.0,0.0,0.0
9.0,442.1117904,-6.2349888,-3.8496240000000004,-1.3036296,0.0,0.0,0.0,0.0
9.02,443.43005039999997,-6.5605152,-3.6326064,-1.3036296,0.0,0.0,0.0,0.0
9.04,444.74648160000004,-6.1807343999999995,-4.012082400000001,-0.9201912000000001,0.0,0.0,0.0,0.0
9.06,446.0751048,-5.8555128,-4.120591200000001,-0.9201912000000001,0.0,0.0,0.0,0.0
9.08,447.4271976,-5.5302912,-4.120591200000001,-1.3801344,0.0,0.0,0.0,0.0
9.1,448.885056,-5.421782400000001,-4.120591200000001,-0.996696,0.0,0.0,0.0,0.0
9.120000000000001,450.177408,-5.421782400000001,-4.2291,-0.6135624,0.0,0.0,0.0,0.0
9.14,451.5243192,-4.6628304,-5.205069600000001,-1.2268200000000002,0.0,0.0,0.0,0.0
9.16,452.868792,-5.476036800000001,-4.1748456,-0.8433816000000001,0.0,0.0,0.0,0.0
9.18,454.1751648,-5.638800000000001,-3.9035736000000005,-1.1500104,0.0,0.0,0.0,0.0
9.2,455.450448,-5.7470040000000004,-3.6868608000000003,-1.6102584000000002,0.0,0.0,0.0,0.0
9.219999999999999,456.73518,-5.8555128,-3.4698432,-1.3036296,0.0,0.0,0.0,0.0
9.24,457.9464552,-5.5845456,-3.5240976,-1.3036296,0.0,0.0,0.0,0.0
9.26,459.1555968,-5.421782400000001,-3.578352,-1.1500104,0.0,0.0,0.0,0.0
9.280000000000001,460.42600319999997,-5.7470040000000004,-3.3616392,-1.1500104,0.0,0.0,0.0,0.0
9.3,461.7729144,-5.638800000000001,-3.1446216000000002,-1.2268200000000002,0.0,0.0,0.0,0.0
9.32,463.01680319999997,-6.0725304,-3.3616392,-0.6135624,0.0,0.0,0.0,0.0
9.34,464.1363336,-5.096560800000001,-3.578352,-0.15331440000000002,0.0,0.0,0.0,0.0
9.36,465.40643520000003,-5.5302912,-3.578352,-1.1500104,0.0,0.0,0.0,0.0
9.379999999999999,466.69787279999997,-5.8555128,-2.9279088,-1.1500104,0.0,0.0,0.0,0.0
9.4,467.9947968,-5.5845456,-3.0903671999999998,-0.996696,0.0,0.0,0.0,0.0
9.42,469.25910719999996,-5.9097672,-3.198876,-0.8433816000000001,0.0,0.0,0.0,0.0
9.440000000000001,470.54627760000005,-5.9097672,-2.8736544000000004,-0.4599432,0.0,0.0,0.0,0.0
9.46,471.80449200000004,-5.5302912,-3.0361128,-0.3834384,0.0,0.0,0.0,0.0
9.48,472.9770576,-4.8252888,-3.6326064,-0.3834384,0.0,0.0,0.0,0.0
9.5,474.1496232,-3.957828,-3.957828,-0.6135624,0.0,0.0,0.0,0.0
9.52,475.3840632,-4.554321600000001,-3.4698432,-1.4569440000000002,0.0,0.0,0.0,0.0
9.54,476.502984,-4.5000672,-3.198876,-0.8433816000000001,0.0,0.0,0.0,0.0
9.56,477.6216,-5.5845456,-2.548128,-0.7668768,0.0,0.0,0.0,0.0
9.58,478.692972,-5.367528,-2.2229064000000003,-1.2268200000000002,0.0,0.0,0.0,0.0
9.6,479.80884480000003,-5.1508152,-2.3314152,-1.1500104,0.0,0.0,0.0,0.0
9.620000000000001,480.9427008,-5.5845456,-2.3314152,-0.9201912000000001,0.0,0.0,0.0,0.0
9.64,482.10520800000006,-5.096560800000001,-2.4941784,-1.0735056,0.0,0.0,0.0,0.0
9.66,483.3283704,-4.2833544,-3.0903671999999998,-1.2268200000000002,0.0,0.0,0.0,0.0
9.68,484.56707760000006,-3.6326064,-3.6326064,-1.4569440000000002,0.0,0.0,0.0,0.0
9.7,485.66130960000004,-4.445812800000001,-2.6023824,-0.996696,0.0,0.0,0.0,0.0
9.719999999999999,486.7908984,-4.7713392,-2.3856696,-0.7668768,0.0,0.0,0.0,0.0
9.74,487.9271928,-4.7170848,-2.548128,-0.8433816000000001,0.0,0.0,0.0,0.0
9.76,488.996736,-2.7108912000000003,-3.578352,-0.5367528,0.0,0.0,0.0,0.0
9.780000000000001,490.1817984,-4.445812800000001,-2.4941784,-0.0768096,0.0,0.0,0.0,0.0
9.8,491.2333584,-4.7170848,-2.1143976,-0.8433816000000001,0.0,0.0,0.0,0.0
9.82,492.3672144,-4.554321600000001,-2.2771608000000003,-1.0735056,0.0,0.0,0.0,0.0
9.84,493.4992416,-4.7170848,-2.1143976,-0.996696,0.0,0.0,0.0,0.0
9.86,494.53190400000005,-4.608576,-2.2229064000000003,-1.1500104,0.0,0.0,0.0,0.0
9.879999999999999,495.7492752,-4.7170848,-2.0061936,-1.0735056,0.0,0.0,0.0,0.0
9.9,496.89318959999997,-4.554321600000001,-2.1686520000000002,-1.4569440000000002,0.0,0.0,0.0,0.0
9.92,497.99930880000005,-4.445812800000001,-2.0601432,-1.1500104,0.0,0.0,0.0,0.0
9.940000000000001,499.08317760000006,-4.5000672,-2.0061936,-1.1500104,0.0,0.0,0.0,0.0
9.96,500.1749712,-4.554321600000001,-2.0601432,-1.1500104,0.0,0.0,0.0,0.0
9.98,501.2119008,-4.445812800000001,-2.2771608000000003,-0.9201912000000001,0.0,0.0,0.0,0.0
10.0,502.2899784,-4.3915584,-2.1143976,-1.0735056,0.0,0.0,0.0,0.0
10.02,503.2555848,-4.120591200000001,-2.2771608000000003,-0.996696,0.0,0.0,0.0,0.0
10.04,504.1638888,-4.2291,-2.0601432,-0.9201912000000001,0.0,0.0,0.0,0.0
10.06,505.2331272,-4.2833544,-2.1143976,-1.0735056,0.0,0.0,0.0,0.0
10.08,506.30480400000005,-4.1748456,-2.1143976,-0.7668768,0.0,0.0,0.0,0.0
10.1,507.2707152,-4.1748456,-2.2229064000000003,-0.8433816000000001,0.0,0.0,0.0,0.0
10.120000000000001,508.220472,-3.7953696000000003,-2.2771608000000003,-0.7668768,0.0,0.0,0.0,0.0
10.14,509.2189968,-3.6868608000000003,-2.1686520000000002,-0.4599432,0.0,0.0,0.0,0.0
10.16,510.22331280000003,-3.9035736000000005,-2.0601432,-0.6900672,0.0,0.0,0.0,0.0
10.18,511.1355792,-4.1748456,-1.8976848000000002,-0.996696,0.0,0.0,0.0,0.0
10.2,512.1914064,-4.2291,-1.7349216,-0.7668768,0.0,0.0,0.0,0.0
10.219999999999999,513.2475384,-4.0663368,-2.0061936,-0.8433816000000001,0.0,0.0,0.0,0.0
10.24,514.279896,-3.9035736000000005,-1.9519392,-0.5367528,0.0,0.0,0.0,0.0
10.26,515.2665336,-3.9035736000000005,-2.0601432,-0.3834384,0.0,0.0,0.0,0.0
10.280000000000001,516.227568,-3.6868608000000003,-2.3856696,-0.7668768,0.0,0.0,0.0,0.0
10.3,517.3025976,-3.4698432,-2.1686520000000002,-0.7668768,0.0,0.0,0.0,0.0
10.32,518.4626664,-3.5240976,-2.2229064000000003,-0.9201912000000001,0.0,0.0,0.0,0.0
10.34,519.4852704,-3.4698432,-2.0601432,-0.6135624,0.0,0.0,0.0,0.0
10.36,520.47648,-3.578352,-1.9519392,-0.9201912000000001,0.0,0.0,0.0,0.0
10.379999999999999,521.5137144,-3.4698432,-1.9519392,-0.6900672,0.0,0.0,0.0,0.0
10.4,522.3839184,-3.5240976,-1.789176,-0.7668768,0.0,0.0,0.0,0.0
10.42,523.3809192,-3.578352,-1.8434304000000001,-0.6900672,0.0,0.0,0.0,0.0
10.440000000000001,524.2901376,-3.7953696000000003,-1.6264128000000002,-0.5367528,0.0,0.0,0.0,0.0
10.46,525.1862496,-3.4698432,-1.8434304000000001,-0.7668768,0.0,0.0,0.0,0.0
10.48,526.0866288,-3.9035736000000005,-1.5182088,-0.7668768,0.0,0.0,0.0,0.0
10.5,526.9415928,-3.6326064,-1.4639544,-0.7668768,0.0,0.0,0.0,0.0
10.52,527.8931784,-3.578352,-1.5182088,-0.8433816000000001,0.0,0.0,0.0,0.0
10.54,528.8929224,-3.578352,-1.5182088,-0.6135624,0.0,0.0,0.0,0.0
10.56,529.7978736,-3.4698432,-1.4097000000000002,-0.4599432,0.0,0.0,0.0,0.0
10.58,530.6479608000001,-3.3073848000000003,-1.789176,-0.5367528,0.0,0.0,0.0,0.0
10.6,531.5367576,-3.198876,-1.8976848000000002,-1.1500104,0.0,0.0,0.0,0.0
10.620000000000001,532.3752624,-3.0903671999999998,-1.789176,-0.6900672,0.0,0.0,0.0,0.0
10.64,533.2576584,-2.8194000000000004,-1.5182088,0.0,0.0,0.0,0.0,0.0
10.66,534.1046976,-2.548128,-1.5724632,-0.6135624,0.0,0.0,0.0,0.0
10.68,534.9459456,-2.7108912000000003,-1.4097000000000002,-0.6900672,0.0,0.0,0.0,0.0
10.7,535.9200864000001,-2.3856696,-1.5182088,-0.4599432,0.0,0.0,0.0,0.0
10.719999999999999,536.8850832,-2.9279088,-1.1926824,-0.9201912000000001,0.0,0.0,0.0,0.0
10.74,537.6696384,-3.0361128,-1.3011912,-0.8433816000000001,0.0,0.0,0.0,0.0
10.76,538.5340512,-3.5240976,-1.030224,-1.2268200000000002,0.0,0.0,0.0,0.0
10.780000000000001,539.456376,-3.6868608000000003,-1.0844784,-0.6900672,0.0,0.0,0.0,0.0
10.8,540.3412104,-3.4158936000000004,-1.2469368,-0.5367528,0.0,0.0,0.0,0.0
10.82,541.21812,-3.4158936000000004,-1.2469368,-0.4599432,0.0,0.0,0.0,0.0
10.84,542.0782656,-2.9818584,-1.4639544,-0.3834384,0.0,0.0,0.0,0.0
10.86,543.0341184,-2.6566368,-1.3554456000000001,-0.3834384,0.0,0.0,0.0,0.0
10.879999999999999,543.8381808,-2.4399240000000004,-1.1387328,-0.3834384,0.0,0.0,0.0,0.0
10.9,544.5992664,-2.548128,-1.2469368,-0.4599432,0.0,0.0,0.0,0.0
10.92,545.4225312,-2.548128,-1.2469368,-0.5367528,0.0,0.0,0.0,0.0
10.940000000000001,546.2262888,-2.7108912000000003,-1.0844784,-0.5367528,0.0,0.0,0.0,0.0
10.96,546.9538464,-2.7651456,-1.3554456000000001,-0.3834384,0.0,0.0,0.0,0.0
10.98,547.7630904,-2.7651456,-1.1387328,-0.4599432,0.0,0.0,0.0,0.0
11.0,548.5695912,-2.7651456,-1.2469368,-0.4599432,0.0,0.0,0.0,0.0
11.02,549.3879792,-2.548128,-1.1387328,-0.6135624,0.0,0.0,0.0,0.0
11.04,550.1810688,-2.548128,-1.2469368,-0.6135624,0.0,0.0,0.0,0.0
11.06,551.0003712,-2.4941784,-0.9759696,-0.3834384,0.0,0.0,0.0,0.0
11.08,551.819064,-2.548128,-1.2469368,-0.6135624,0.0,0.0,0.0,0.0
11.1,552.5886840000001,-2.548128,-0.9217152000000001,-0.3834384,0.0,0.0,0.0,0.0
11.120000000000001,553.3528176,-2.3856696,-1.0844784,-0.3834384,0.0,0.0,0.0,0.0
11.14,554.1748632,-2.2771608000000003,-0.9759696,-0.6135624,0.0,0.0,0.0,0.0
11.16,554.8990679999999,-2.2771608000000003,-0.9759696,-0.4599432,0.0,0.0,0.0,0.0
11.18,555.6135192,-2.2229064000000003,-0.9217152000000001,-0.4599432,0.0,0.0,0.0,0.0
11.2,556.2743256,-2.2771608000000003,-0.9759696,-0.6900672,0.0,0.0,0.0,0.0
11.219999999999999,556.9369608000001,-2.3856696,-1.0844784,-0.6135624,0.0,0.0,0.0,0.0
11.24,557.5422936,-2.4399240000000004,-0.8132064000000001,-0.4599432,0.0,0.0,0.0,0.0
11.26,558.4323096,-2.2771608000000003,-0.9759696,-0.6900672,0.0,0.0,0.0,0.0
11.280000000000001,559.1854704,-2.2771608000000003,-0.9759696,-0.5367528,0.0,0.0,0.0,0.0
11.3,560.0169648,-2.1686520000000002,-0.8674608,-0.6135624,0.0,0.0,0.0,0.0
11.32,560.7814032,-2.1143976,-0.8132064000000001,-0.6135624,0.0,0.0,0.0,0.0
11.34,561.6339288,-2.1686520000000002,-0.8674608,-0.6900672,0.0,0.0,0.0,0.0
11.36,562.4038536,-2.1686520000000002,-0.7589520000000001,-0.5367528,0.0,0.0,0.0,0.0
11.379999999999999,563.113428,-2.1686520000000002,-0.8674608,-0.5367528,0.0,0.0,0.0,0.0
11.4,563.846472,-2.2771608000000003,-0.7589520000000001,-0.5367528,0.0,0.0,0.0,0.0
11.42,564.6487056,-2.1143976,-0.8132064000000001,-0.4599432,0.0,0.0,0.0,0.0
11.440000000000001,565.4122296,-2.1686520000000002,-0.650748,-0.5367528,0.0,0.0,0.0,0.0
11.46,566.2034904000001,-2.1686520000000002,-0.650748,-0.7668768,0.0,0.0,0.0,0.0
11.48,566.8694784,-2.2771608000000003,-0.7589520000000001,-0.7668768,0.0,0.0,0.0,0.0
11.5,567.4921848,-2.2771608000000003,-0.5422392,-0.7668768,0.0,0.0,0.0,0.0
11.52,568.1529912,-2.2771608000000003,-0.5422392,-0.9201912000000001,0.0,0.0,0.0,0.0
11.54,568.7610672,-2.2229064000000003,-0.4879848,-0.6900672,0.0,0.0,0.0,0.0
11.56,569.4608880000001,-2.2771608000000003,-0.4337304,-0.6135624,0.0,0.0,0.0,0.0
11.58,570.2506248,-2.0601432,-0.4337304,-0.6900672,0.0,0.0,0.0,0.0
11.6,570.8855232,-2.0601432,-0.5422392,-0.6135624,0.0,0.0,0.0,0.0
11.620000000000001,571.6207008,-1.9519392,-0.3252216,-0.30662880000000003,0.0,0.0,0.0,0.0
11.64,572.1851904,-1.8976848000000002,-0.5964936000000001,-0.3834384,0.0,0.0,0.0,0.0
11.66,572.740536,-1.789176,-0.4879848,-0.3834384,0.0,0.0,0.0,0.0
11.68,573.4967448,-1.789176,-0.4879848,-0.4599432,0.0,0.0,0.0,0.0
11.7,574.14414,-2.0061936,-0.5964936000000001,-0.6900672,0.0,0.0,0.0,0.0
11.719999999999999,574.8561528,-1.8976848000000002,-0.37947600000000004,-0.7668768,0.0,0.0,0.0,0.0
11.74,575.5154352000001,-1.8976848000000002,-0.5964936000000001,-0.8433816000000001,0.0,0.0,0.0,0.0
11.76,576.1293024,-1.8976848000000002,-0.4879848,-0.6900672,0.0,0.0,0.0,0.0
11.780000000000001,576.7172616,-2.0601432,-0.4337304,-0.6135624,0.0,0.0,0.0,0.0
11.8,577.2095136,-1.9519392,-0.4337304,-0.4599432,0.0,0.0,0.0,0.0
11.82,577.7837568,-1.9519392,-0.5422392,-0.6135624,0.0,0.0,0.0,0.0
11.84,578.3778120000001,-1.8976848000000002,-0.37947600000000004,-0.5367528,0.0,0.0,0.0,0.0
11.86,578.9285856,-1.6806672000000002,-0.37947600000000004,-0.6135624,0.0,0.0,0.0,0.0
11.879999999999999,579.6546192,-1.7349216,-0.4337304,-0.5367528,0.0,0.0,0.0,0.0
11.9,580.1605872,-1.7349216,-0.3252216,-0.5367528,0.0,0.0,0.0,0.0
11.92,580.7619576,-1.7349216,-0.4337304,-0.5367528,0.0,0.0,0.0,0.0
11.940000000000001,581.2481136,-1.6806672000000002,-0.37947600000000004,-0.5367528,0.0,0.0,0.0,0.0
11.96,581.8348536,-1.6806672000000002,-0.37947600000000004,-0.3834384,0.0,0.0,0.0,0.0
11.98,582.4334808,-1.6264128000000002,-0.3252216,-0.3834384,0.0,0.0,0.0,0.0
12.0,583.0571016,-1.5182088,-0.4337304,-0.4599432,0.0,0.0,0.0,0.0
12.02,583.6267728,-1.6806672000000002,-0.37947600000000004,-0.4599432,0.0,0.0,0.0,0.0
12.04,584.0766576,-1.6264128000000002,-0.3252216,-0.3834384,0.0,0.0,0.0,0.0
12.06,584.5996944,-1.6264128000000002,-0.3252216,-0.5367528,0.0,0.0,0.0,0.0
12.08,585.2208767999999,-1.6264128000000002,-0.3252216,-0.4599432,0.0,0.0,0.0,0.0
12.1,585.717396,-1.6264128000000002,-0.3252216,-0.6135624,0.0,0.0,0.0,0.0
12.120000000000001,586.243176,-1.6264128000000002,-0.3252216,-0.4599432,0.0,0.0,0.0,0.0
12.14,586.832964,-1.5724632,-0.37947600000000004,-0.3834384,0.0,0.0,0.0,0.0
12.16,587.439516,-1.5724632,-0.37947600000000004,-0.4599432,0.0,0.0,0.0,0.0
12.18,588.049116,-1.5724632,-0.37947600000000004,-0.3834384,0.0,0.0,0.0,0.0
12.2,588.6111672,-1.5724632,-0.37947600000000004,-0.6135624,0.0,0.0,0.0,0.0
12.219999999999999,589.2289968,-1.6264128000000002,-0.3252216,-0.5367528,0.0,0.0,0.0,0.0
12.24,589.8480456,-1.5724632,-0.2709672,-0.6135624,0.0,0.0,0.0,0.0
12.26,590.429604,-1.6264128000000002,-0.3252216,-0.6135624,0.0,0.0,0.0,0.0
12.280000000000001,590.9285616,-1.5724632,-0.2709672,-0.6135624,0.0,0.0,0.0,0.0
12.3,591.3833232,-1.6264128000000002,-0.3252216,-0.6900672,0.0,0.0,0.0,0.0
12.32,591.9115416,-1.5182088,-0.2170176,-0.5367528,0.0,0.0,0.0,0.0
12.34,592.4787744,-1.5724632,-0.2709672,-0.6135624,0.0,0.0,0.0,0.0
12.36,593.0420448,-1.5182088,-0.2170176,-0.4599432,0.0,0.0,0.0,0.0
12.379999999999999,593.5650816000001,-1.5724632,-0.2709672,-0.6135624,0.0,0.0,0.0,0.0
12.4,594.0792792,-1.6264128000000002,-0.3252216,-0.5367528,0.0,0.0,0.0,0.0
12.42,594.5858568,-1.5182088,-0.2170176,-0.5367528,0.0,0.0,0.0,0.0
12.440000000000001,595.147908,-1.6264128000000002,-0.2170176,-0.5367528,0.0,0.0,0.0,0.0
12.46,595.6590576,-1.5724632,-0.2709672,-0.3834384,0.0,0.0,0.0,0.0
12.48,596.126316,-1.6264128000000002,-0.3252216,-0.30662880000000003,0.0,0.0,0.0,0.0
12.5,596.5704096000001,-1.6264128000000002,-0.2170176,-0.3834384,0.0,0.0,0.0,0.0
12.52,596.9824992,-1.5724632,-0.16276320000000002,-0.4599432,0.0,0.0,0.0,0.0
12.54,597.4299456,-1.4639544,-0.16276320000000002,-0.4599432,0.0,0.0,0.0,0.0
12.56,597.9115296,-1.4639544,-0.16276320000000002,-0.3834384,0.0,0.0,0.0,0.0
12.58,598.3574520000001,-1.6264128000000002,-0.1085088,-0.4599432,0.0,0.0,0.0,0.0
12.6,598.811604,-1.6264128000000002,-0.1085088,-0.3834384,0.0,0.0,0.0,0.0
12.62,599.2020528,-1.7349216,-0.1085088,-0.3834384,0.0,0.0,0.0,0.0
12.64,599.6229816,-1.6264128000000002,0.0,-0.6135624,0.0,0.0,0.0,0.0
12.66,600.0838392,-1.5724632,-0.16276320000000002,-0.4599432,0.0,0.0,0.0,0.0
12.68,600.4937952,-1.5724632,-0.16276320000000002,-0.5367528,0.0,0.0,0.0,0.0
12.7,600.9077136,-1.4639544,-0.0542544,-0.4599432,0.0,0.0,0.0,0.0
12.72,601.3039536,-1.4097000000000002,-0.1085088,-0.6135624,0.0,0.0,0.0,0.0
12.74,601.7084232,-1.3554456000000001,-0.0542544,-0.5367528,0.0,0.0,0.0,0.0
12.76,602.184216,-1.4097000000000002,-0.1085088,-0.5367528,0.0,0.0,0.0,0.0
12.78,602.5612536,-1.4639544,0.0542544,-0.23012400000000002,0.0,0.0,0.0,0.0
12.8,602.9760864,-1.4639544,0.0542544,-0.4599432,0.0,0.0,0.0,0.0
12.82,603.4146936,-1.5182088,0.0,-0.15331440000000002,0.0,0.0,0.0,0.0
12.84,603.7719192,-1.5182088,0.0,-0.23012400000000002,0.0,0.0,0.0,0.0
12.86,604.2958704,-1.4097000000000002,0.0,-0.4599432,0.0,0.0,0.0,0.0
12.88,604.6665072,-1.5724632,0.16276320000000002,-0.30662880000000003,0.0,0.0,0.0,0.0
12.9,605.1145632,-1.5724632,0.16276320000000002,-0.4599432,0.0,0.0,0.0,0.0
12.92,605.50806,-1.6264128000000002,0.1085088,-0.30662880000000003,0.0,0.0,0.0,0.0
12.94,605.9518488,-1.5182088,0.1085088,-0.30662880000000003,0.0,0.0,0.0,0.0
12.96,606.317304,-1.5724632,0.0542544,-0.23012400000000002,0.0,0.0,0.0,0.0
12.98,606.7613976,-1.3554456000000001,0.16276320000000002,-0.15331440000000002,0.0,0.0,0.0,0.0
13.0,607.1146608,-1.4097000000000002,0.2170176,-0.0768096,0.0,0.0,0.0,0.0
13.02,607.525836,-1.3011912,0.2170176,-0.0768096,0.0,0.0,0.0,0.0
13.040000000000001,607.887024,-1.4639544,0.2709672,-0.15331440000000002,0.0,0.0,0.0,0.0
13.06,608.3436144,-1.2469368,0.16276320000000002,-0.23012400000000002,0.0,0.0,0.0,0.0
13.08,608.5597176,-1.3554456000000001,0.2709672,-0.23012400000000002,0.0,0.0,0.0,0.0
13.1,608.917248,-1.6806672000000002,-0.16276320000000002,-0.3834384,0.0,0.0,0.0,0.0
13.12,609.2473464,-1.3554456000000001,0.16276320000000002,0.0,0.0,0.0,0.0,0.0
13.14,609.6432816,-1.4097000000000002,0.1085088,-0.15331440000000002,0.0,0.0,0.0,0.0
13.16,610.0700016,-1.3554456000000001,0.16276320000000002,-0.23012400000000002,0.0,0.0,0.0,0.0
13.18,610.3866888,-1.4097000000000002,0.1085088,-0.0768096,0.0,0.0,0.0,0.0
13.2,610.6856976,-1.3011912,0.1085088,-0.15331440000000002,0.0,0.0,0.0,0.0
13.22,611.031036,-1.3011912,0.2170176,-0.30662880000000003,0.0,0.0,0.0,0.0
13.24,611.2821912,-1.3011912,0.0,-0.30662880000000003,0.0,0.0,0.0,0.0
13.26,611.6723352,-1.3011912,0.1085088,-0.30662880000000003,0.0,0.0,0.0,0.0
13.28,612.0606504,-1.1926824,0.1085088,-0.23012400000000002,0.0,0.0,0.0,0.0
13.3,612.4587192,-1.1387328,0.16276320000000002,0.0,0.0,0.0,0.0,0.0
13.32,612.7555944,-1.3011912,0.1085088,-0.0768096,0.0,0.0,0.0,0.0
13.34,613.1244024,-1.2469368,0.0542544,0.15331440000000002,0.0,0.0,0.0,0.0
13.36,613.422192,-1.2469368,0.0542544,-0.23012400000000002,0.0,0.0,0.0,0.0
13.38,613.7821608,-1.2469368,0.2709672,-0.30662880000000003,0.0,0.0,0.0,0.0
13.4,614.0458128,-1.2469368,0.0542544,-0.4599432,0.0,0.0,0.0,0.0
13.42,614.327448,-1.2469368,0.0542544,-0.30662880000000003,0.0,0.0,0.0,0.0
13.44,614.6871120000001,-1.1387328,0.16276320000000002,-0.15331440000000002,0.0,0.0,0.0,0.0
13.46,614.976672,-1.0844784,0.2170176,-0.30662880000000003,0.0,0.0,0.0,0.0
13.48,615.293664,-1.1387328,0.16276320000000002,-0.3834384,0.0,0.0,0.0,0.0
13.5,615.5000136,-1.0844784,0.2170176,-0.23012400000000002,0.0,0.0,0.0,0.0
13.52,615.8096904,-1.1926824,0.1085088,-0.15331440000000002,0.0,0.0,0.0,0.0
13.540000000000001,616.0605408,-1.1387328,0.16276320000000002,0.0,0.0,0.0,0.0,0.0
13.56,616.2739008,-1.0844784,0.2170176,-0.0768096,0.0,0.0,0.0,0.0
13.58,616.5796152,-1.1387328,0.16276320000000002,-0.0768096,0.0,0.0,0.0,0.0
13.6,616.8646032,-1.0844784,0.2170176,-0.15331440000000002,0.0,0.0,0.0,0.0
13.62,617.1334368,-1.030224,0.2709672,-0.23012400000000002,0.0,0.0,0.0,0.0
13.64,617.4022704,-1.030224,0.2709672,-0.23012400000000002,0.0,0.0,0.0,0.0
13.66,617.66958,-1.0844784,0.2170176,-0.4599432,0.0,0.0,0.0,0.0
13.68,617.8625184,-1.0844784,0.2170176,-0.30662880000000003,0.0,0.0,0.0,0.0
13.7,618.0420456,-1.030224,0.2709672,-0.30662880000000003,0.0,0.0,0.0,0.0
13.72,618.250224,-1.030224,0.2709672,-0.30662880000000003,0.0,0.0,0.0,0.0
13.74,618.5181432,-1.030224,0.2709672,-0.3834384,0.0,0.0,0.0,0.0
13.76,618.7766136,-1.030224,0.2709672,-0.30662880000000003,0.0,0.0,0.0,0.0
13.78,618.9433392000001,-1.0844784,0.2170176,-0.30662880000000003,0.0,0.0,0.0,0.0
13.8,619.2152208,-0.9217152000000001,0.37947600000000004,-0.30662880000000003,0.0,0.0,0.0,0.0
13.82,619.405416,-0.9759696,0.3252216,-0.30662880000000003,0.0,0.0,0.0,0.0
13.84,619.5754944,-0.9759696,0.3252216,-0.30662880000000003,0.0,0.0,0.0,0.0
13.86,619.8272592,-1.030224,0.2709672,-0.23012400000000002,0.0,0.0,0.0,0.0
13.88,620.1360216,-0.9217152000000001,0.37947600000000004,-0.30662880000000003,0.0,0.0,0.0,0.0
13.9,620.2469688,-0.2709672,1.030224,-1.1500104,0.0,0.0,0.0,0.0
13.92,620.661192,140.47957680000002,81.4901088,148.44522,0.0,0.0,0.0,0.0
13.94,620.8861344000001,7.5364848,79.32145679999999,-10.5814368,0.0,0.0,0.0,0.0
13.96,621.109248,17.2413168,6.614769600000001,36.574476000000004,0.0,0.0,0.0,0.0
13.98,622.1041152,-42.669866400000004,5.5845456,10.5046272,0.0,0.0,0.0,0.0
14.0,623.5037568,5.9097672,-19.0304928,7.744358400000001,0.0,0.0,0.0,0.0
14.02,625.3252416,65.76669600000001,-57.0917832,33.9675216,0.0,0.0,0.0,0.0
14.040000000000001,626.7834048,-45.597470400000006,-65.76669600000001,8.357616,0.0,0.0,0.0,0.0
14.06,627.0391320000001,-58.8267048,-142.6482288,10.9645704,0.0,0.0,0.0,0.0
14.08,626.4334944000001,28.3561536,-59.260740000000006,-12.958267200000002,0.0,0.0,0.0,0.0
14.1,625.7967672000001,80.622648,-105.34619520000001,2.4536400000000005,0.0,0.0,0.0,0.0
14.12,625.2548328,47.92888560000001,-67.3391592,-0.6135624,0.0,0.0,0.0,0.0
14.14,625.0899360000001,40.1214336,-47.603664,9.5079312,0.0,0.0,0.0,0.0
14.16,625.0689047999999,26.5127232,-31.717792800000005,52.8300696,0.0,0.0,0.0,0.0
14.18,624.8540208,18.2715408,-24.8863104,27.986736,0.0,0.0,0.0,0.0
14.2,624.5797008,9.0543888,-14.476171200000001,16.5622224,0.0,0.0,0.0,0.0
14.22,624.369084,-1.2469368,9.379915200000001,14.5685256,0.0,0.0,0.0,0.0
14.24,624.1718784000001,-4.8252888,8.6206584,-4.7539656,0.0,0.0,0.0,0.0
14.26,624.0399,14.096695200000001,-4.6628304,1.2268200000000002,0.0,0.0,0.0,0.0
14.28,623.8942056,2.1143976,1.1387328,-2.0702016,0.0,0.0,0.0,0.0
14.3,623.777772,-0.4879848,-4.5000672,-1.0735056,0.0,0.0,0.0,0.0
14.32,623.8006320000001,-1.8976848000000002,-3.0903671999999998,1.7635728,0.0,0.0,0.0,0.0
14.34,623.8841472,-2.8194000000000004,-7.6989432,0.15331440000000002,0.0,0.0,0.0,0.0
14.36,623.9460216,-3.6868608000000003,-5.7470040000000004,1.2268200000000002,0.0,0.0,0.0,0.0
14.38,623.951508,-3.6326064,-4.2833544,0.0,0.0,0.0,0.0,0.0
14.4,624.033804,-3.6868608000000003,-7.2652128,0.0,0.0,0.0,0.0,0.0
14.42,624.096288,-2.7651456,-6.4520064,-0.30662880000000003,0.0,0.0,0.0,0.0
14.44,624.1532856,-2.2229064000000003,-7.753197600000001,0.0,0.0,0.0,0.0,0.0
14.46,624.120672,-1.8976848000000002,-7.210958400000001,-0.0768096,0.0,0.0,0.0,0.0
14.48,624.2081496000001,-1.5182088,-6.397752,0.30662880000000003,0.0,0.0,0.0,0.0
14.5,624.2611848,-0.7589520000000001,-4.8795432000000005,-0.15331440000000002,0.0,0.0,0.0,0.0
14.52,624.3236688000001,-0.5422392,-4.7713392,-0.7668768,0.0,0.0,0.0,0.0
14.540000000000001,624.503196,-0.7046976,-4.933797600000001,0.4599432,0.0,0.0,0.0,0.0
14.56,624.5723856,-0.7046976,-4.2833544,0.3834384,0.0,0.0,0.0,0.0
14.58,624.7055832,-0.650748,-3.578352,0.3834384,0.0,0.0,0.0,0.0
14.6,624.7567895999999,-0.650748,-3.0361128,0.5367528,0.0,0.0,0.0,0.0
14.62,624.8113488,-0.650748,-2.6023824,0.6135624,0.0,0.0,0.0,0.0
14.64,624.8805384,-0.7589520000000001,-1.7349216,0.30662880000000003,0.0,0.0,0.0,0.0
14.66,624.9506424,-1.1387328,-0.8132064000000001,1.0735056,0.0,0.0,0.0,0.0
14.68,625.0058112,-1.030224,-0.9217152000000001,0.15331440000000002,0.0,0.0,0.0,0.0
14.7,625.0740864,-0.4879848,-0.2709672,0.0768096,0.0,0.0,0.0,0.0
14.72,625.0180032,-0.5422392,-0.4337304,-0.30662880000000003,0.0,0.0,0.0,0.0
14.74,625.039644,-0.650748,-0.1085088,-0.0768096,0.0,0.0,0.0,0.0
14.76,625.0417775999999,-3.2531304000000003,-2.2771608000000003,-0.996696,0.0,0.0,0.0,0.0
14.78,625.0393392000001,-0.4337304,0.0,-1.6867632000000001,0.0,0.0,0.0,0.0
14.8,624.98478,-0.650748,0.5422392,-0.6900672,0.0,0.0,0.0,0.0
14.82,625.0225752000001,-0.4337304,0.9759696,-0.5367528,0.0,0.0,0.0,0.0
14.84,625.0768296,-0.4879848,0.8132064000000001,-0.30662880000000003,0.0,0.0,0.0,0.0
14.86,625.0469592000001,-0.5422392,0.650748,-0.0768096,0.0,0.0,0.0,0.0
