time,baro_altitude,accl_x,accl_y,accl_z,gps_altitude,gyro_roll,gyro_pitch,gyro_yaw
0.0,0.0,-3.4698432,1.6264128000000002,-9.6612456,0.0,0.0,0.0,0.0
0.019999999999999574,0.05181599999999998,-3.957828,0.9217152000000001,-9.584436,0.0,0.0,0.0,0.0
0.040000000000000036,0.09357359999999999,-3.4698432,1.6264128000000002,-9.6612456,0.0,0.0,0.0,0.0
0.05999999999999961,0.38831519999999997,-3.1446216000000002,1.0844784,-9.737750400000001,0.0,0.0,0.0,0.0
0.08000000000000007,0.33375599999999994,-2.9818584,1.6806672000000002,-9.891369599999999,0.0,0.0,0.0,0.0
0.09999999999999964,0.4440936,-2.9279088,0.9759696,-9.814560000000002,0.0,0.0,0.0,0.0
0.1200000000000001,0.4017264,-2.6023824,1.4097000000000002,-9.967874400000001,0.0,0.0,0.0,0.0
0.13999999999999968,0.29138879999999995,-2.8736544000000004,1.1387328,-9.814560000000002,0.0,0.0,0.0,0.0
0.16000000000000014,0.19872959999999992,-3.0903671999999998,1.1387328,-9.6612456,0.0,0.0,0.0,0.0
0.17999999999999972,0.3995927999999999,-2.9818584,1.1387328,-9.814560000000002,0.0,0.0,0.0,0.0
0.20000000000000018,0.3767327999999999,-3.0903671999999998,1.3554456000000001,-9.814560000000002,0.0,0.0,0.0,0.0
0.21999999999999975,0.31150559999999994,-3.3616392,0.7589520000000001,-9.814560000000002,0.0,0.0,0.0,0.0
0.2400000000000002,0.24841199999999994,-3.4698432,1.1926824,-9.6612456,0.0,0.0,0.0,0.0
0.2599999999999998,0.2618231999999999,-3.1446216000000002,1.0844784,-9.737750400000001,0.0,0.0,0.0,0.0
0.28000000000000025,0.23652479999999995,-3.578352,1.1926824,-9.6612456,0.0,0.0,0.0,0.0
0.2999999999999998,0.3069336,-3.4158936000000004,1.3554456000000001,-9.814560000000002,0.0,0.0,0.0,0.0
0.3200000000000003,0.24444959999999996,-3.3616392,1.4097000000000002,-9.891369599999999,0.0,0.0,0.0,0.0
0.33999999999999986,0.15361919999999993,-3.4158936000000004,1.5724632,-9.737750400000001,0.0,0.0,0.0,0.0
0.3600000000000003,0.27736799999999995,-3.198876,1.3554456000000001,-9.6612456,0.0,0.0,0.0,0.0
0.3799999999999999,-0.016154400000000117,-2.9818584,1.6806672000000002,-9.6612456,0.0,0.0,0.0,0.0
0.3999999999999999,-0.13075920000000008,-3.0903671999999998,1.2469368,-9.814560000000002,0.0,0.0,0.0,0.0
0.41999999999999993,0.11795760000000001,-2.9279088,1.7349216,-9.737750400000001,0.0,0.0,0.0,0.0
0.43999999999999995,0.05425439999999998,-3.3073848000000003,1.3554456000000001,-9.737750400000001,0.0,0.0,0.0,0.0
0.45999999999999996,0.2767583999999999,-3.3616392,1.5182088,-9.6612456,0.0,0.0,0.0,0.0
0.48,0.37764719999999996,-3.3073848000000003,1.4639544,-9.737750400000001,0.0,0.0,0.0,0.0
0.5,0.22707599999999997,-3.4158936000000004,1.2469368,-9.737750400000001,0.0,0.0,0.0,0.0
0.52,0.31577279999999996,-3.3073848000000003,1.4639544,-9.737750400000001,0.0,0.0,0.0,0.0
0.54,0.27218639999999994,-3.0903671999999998,1.3554456000000001,-9.814560000000002,0.0,0.0,0.0,0.0
0.56,0.16032479999999993,-2.9818584,1.1387328,-9.891369599999999,0.0,0.0,0.0,0.0
0.5800000000000001,0.22799039999999995,-2.7651456,1.2469368,-9.891369599999999,0.0,0.0,0.0,0.0
0.6000000000000001,0.07528559999999997,-3.0903671999999998,0.9217152000000001,-9.891369599999999,0.0,0.0,0.0,0.0
0.6200000000000001,0.24231599999999992,-3.1446216000000002,1.3011912,-9.814560000000002,0.0,0.0,0.0,0.0
0.6399999999999997,0.303276,-3.1446216000000002,1.0844784,-9.814560000000002,0.0,0.0,0.0,0.0
0.6599999999999997,0.5084063999999999,-3.4158936000000004,1.1387328,-9.814560000000002,0.0,0.0,0.0,0.0
0.6799999999999997,0.3624072,-3.3616392,1.0844784,-9.814560000000002,0.0,0.0,0.0,0.0
0.6999999999999997,0.23835359999999994,-3.4158936000000004,1.1387328,-9.6612456,0.0,0.0,0.0,0.0
0.7199999999999998,0.382524,-3.198876,1.3554456000000001,-9.891369599999999,0.0,0.0,0.0,0.0
0.7399999999999998,0.3236976,-3.6326064,1.030224,-9.737750400000001,0.0,0.0,0.0,0.0
0.7599999999999998,0.16733519999999993,-2.9279088,1.4097000000000002,-9.814560000000002,0.0,0.0,0.0,0.0
0.7799999999999998,0.11612879999999993,-3.6326064,1.030224,-9.6612456,0.0,0.0,0.0,0.0
0.7999999999999998,0.26517599999999997,-3.0903671999999998,1.5724632,-9.814560000000002,0.0,0.0,0.0,0.0
0.8199999999999998,0.2593847999999999,-3.198876,1.5724632,-9.814560000000002,0.0,0.0,0.0,0.0
0.8399999999999999,0.49865279999999995,-3.3616392,1.6264128000000002,-9.6612456,0.0,0.0,0.0,0.0
0.8599999999999999,0.5291328,-3.3616392,1.4097000000000002,-9.737750400000001,0.0,0.0,0.0,0.0
0.8799999999999999,0.6733031999999999,-3.578352,1.5182088,-9.737750400000001,0.0,0.0,0.0,0.0
0.8999999999999999,1.0296144,-3.4158936000000004,1.5724632,-9.6612456,0.0,0.0,0.0,0.0
0.9199999999999999,1.0021824,-3.4698432,1.1926824,-9.584436,0.0,0.0,0.0,0.0
0.94,0.8558784,-2.7651456,1.4639544,-9.737750400000001,0.0,0.0,0.0,0.0
0.96,0.751332,-3.1446216000000002,1.1926824,-9.814560000000002,0.0,0.0,0.0,0.0
0.98,0.6190488,-2.548128,1.5724632,-9.891369599999999,0.0,0.0,0.0,0.0
1.0,0.35021519999999995,-3.1446216000000002,1.3011912,-9.891369599999999,0.0,0.0,0.0,0.0
1.02,0.28285439999999995,-2.6023824,1.5182088,-9.891369599999999,0.0,0.0,0.0,0.0
1.04,0.2538983999999999,-2.9818584,1.1387328,-9.814560000000002,0.0,0.0,0.0,0.0
1.06,0.05090159999999995,-2.8194000000000004,1.4097000000000002,-9.814560000000002,0.0,0.0,0.0,0.0
1.08,0.12070079999999991,-3.5240976,1.030224,-9.6612456,0.0,0.0,0.0,0.0
1.1,0.13685519999999995,-3.578352,1.5182088,-9.584436,0.0,0.0,0.0,0.0
1.12,0.06766559999999999,-3.7953696000000003,1.0844784,-9.6612456,0.0,0.0,0.0,0.0
1.1399999999999997,0.2688336,-3.1446216000000002,1.6264128000000002,-9.737750400000001,0.0,0.0,0.0,0.0
1.1599999999999997,0.19232879999999994,-3.5240976,1.2469368,-9.737750400000001,0.0,0.0,0.0,0.0
1.1799999999999997,0.04480559999999994,-3.2531304000000003,1.4097000000000002,-9.814560000000002,0.0,0.0,0.0,0.0
1.1999999999999997,0.027736799999999926,-3.4698432,0.9759696,-9.6612456,0.0,0.0,0.0,0.0
1.2199999999999998,-0.02621280000000009,-3.198876,1.1387328,-9.737750400000001,0.0,0.0,0.0,0.0
1.2399999999999998,-0.08442960000000005,-2.8194000000000004,1.0844784,-9.814560000000002,0.0,0.0,0.0,0.0
1.2599999999999998,-0.043586400000000074,-3.1446216000000002,1.4097000000000002,-9.737750400000001,0.0,0.0,0.0,0.0
1.2799999999999998,0.03139439999999993,-3.198876,1.1387328,-9.737750400000001,0.0,0.0,0.0,0.0
1.2999999999999998,0.2703576,-3.3073848000000003,1.6806672000000002,-9.737750400000001,0.0,0.0,0.0,0.0
1.3199999999999998,0.22372319999999993,-3.4698432,1.3011912,-9.814560000000002,0.0,0.0,0.0,0.0
1.3399999999999999,0.2639568,-3.0361128,1.8434304000000001,-9.737750400000001,0.0,0.0,0.0,0.0
1.3599999999999999,0.37795199999999995,-3.578352,1.4097000000000002,-9.6612456,0.0,0.0,0.0,0.0
1.38,0.39776399999999995,-3.198876,1.789176,-9.737750400000001,0.0,0.0,0.0,0.0
1.4,0.3057144,-3.7411152,1.030224,-9.814560000000002,0.0,0.0,0.0,0.0
1.42,0.36118799999999995,-3.8496240000000004,1.030224,-9.584436,0.0,0.0,0.0,0.0
1.44,0.5032247999999999,-3.5240976,0.9217152000000001,-9.6612456,0.0,0.0,0.0,0.0
1.46,0.43464479999999994,-3.3073848000000003,1.5724632,-9.6612456,0.0,0.0,0.0,0.0
1.48,0.29687519999999995,-3.3616392,1.1926824,-9.814560000000002,0.0,0.0,0.0,0.0
1.5,0.7757160000000001,-2.9818584,1.789176,-9.891369599999999,0.0,0.0,0.0,0.0
1.52,0.798576,-2.8736544000000004,1.2469368,-9.814560000000002,0.0,0.0,0.0,0.0
1.54,0.8790432,-2.6566368,1.8976848000000002,-9.891369599999999,0.0,0.0,0.0,0.0
1.56,0.8872728,-2.9279088,1.4097000000000002,-9.967874400000001,0.0,0.0,0.0,0.0
1.58,0.7787639999999999,-2.6566368,1.4639544,-9.891369599999999,0.0,0.0,0.0,0.0
1.6,0.9957816,-2.6023824,1.0844784,-9.814560000000002,0.0,0.0,0.0,0.0
1.62,1.0232136,-2.4941784,1.5182088,-9.891369599999999,0.0,0.0,0.0,0.0
1.6399999999999997,0.9049512,-2.4399240000000004,1.3554456000000001,-9.967874400000001,0.0,0.0,0.0,0.0
1.6599999999999997,0.786384,-2.3314152,1.8976848000000002,-10.044684,0.0,0.0,0.0,0.0
1.6799999999999997,0.9083039999999999,-2.548128,1.3554456000000001,-9.891369599999999,0.0,0.0,0.0,0.0
1.6999999999999997,0.8284464,-2.7108912000000003,1.4097000000000002,-9.891369599999999,0.0,0.0,0.0,0.0
1.7199999999999998,0.8345423999999999,-3.5240976,1.030224,-9.737750400000001,0.0,0.0,0.0,0.0
1.7399999999999998,0.9970008,-3.5240976,0.9217152000000001,-9.814560000000002,0.0,0.0,0.0,0.0
1.7599999999999998,0.7604759999999999,-3.2531304000000003,1.0844784,-9.6612456,0.0,0.0,0.0,0.0
1.7799999999999998,0.6211824,-3.957828,0.0542544,-9.737750400000001,0.0,0.0,0.0,0.0
1.7999999999999998,0.6711696,-3.6326064,0.9217152000000001,-9.737750400000001,0.0,0.0,0.0,0.0
1.8199999999999998,0.6915912,-4.2833544,0.5964936000000001,-9.4311216,0.0,0.0,0.0,0.0
1.8399999999999999,0.600456,-4.1748456,0.8132064000000001,-9.4311216,0.0,0.0,0.0,0.0
1.8599999999999999,0.650748,-3.578352,0.5422392,-9.737750400000001,0.0,0.0,0.0,0.0
1.88,0.490728,-2.6023824,1.3011912,-9.737750400000001,0.0,0.0,0.0,0.0
1.9,0.4376928,-2.1143976,1.6806672000000002,-9.814560000000002,0.0,0.0,0.0,0.0
1.92,0.38953439999999995,-2.9818584,1.5724632,-9.737750400000001,0.0,0.0,0.0,0.0
1.94,0.16123919999999992,-3.8496240000000004,1.3554456000000001,-9.737750400000001,0.0,0.0,0.0,0.0
1.96,0.08656319999999995,-3.4158936000000004,1.8976848000000002,-9.584436,0.0,0.0,0.0,0.0
1.98,0.22829519999999998,-4.7170848,2.6566368,-9.3546168,0.0,0.0,0.0,0.0
2.0,0.35753039999999997,-4.3915584,2.0061936,-9.4311216,0.0,0.0,0.0,0.0
2.02,0.5593079999999999,-3.4158936000000004,2.1143976,-9.584436,0.0,0.0,0.0,0.0
2.04,0.7129272,-3.7411152,1.8976848000000002,-9.6612456,0.0,0.0,0.0,0.0
2.06,0.6083807999999999,-3.7411152,0.4879848,-9.737750400000001,0.0,0.0,0.0,0.0
2.08,0.48097439999999997,-2.4941784,1.5182088,-10.121188800000002,0.0,0.0,0.0,0.0
2.1,0.393192,-3.3073848000000003,1.6806672000000002,-9.891369599999999,0.0,0.0,0.0,0.0
2.12,0.4888991999999999,-2.9818584,2.2229064000000003,-9.814560000000002,0.0,0.0,0.0,0.0
2.1399999999999997,0.344424,-2.7108912000000003,2.2771608000000003,-9.814560000000002,0.0,0.0,0.0,0.0
2.1599999999999997,0.303276,-2.4399240000000004,2.0061936,-9.891369599999999,0.0,0.0,0.0,0.0
2.1799999999999997,0.22097999999999998,-2.8194000000000004,1.3011912,-9.814560000000002,0.0,0.0,0.0,0.0
2.1999999999999997,0.21762719999999994,-2.8736544000000004,1.2469368,-9.891369599999999,0.0,0.0,0.0,0.0
2.2199999999999998,0.2535936,-2.8194000000000004,1.3011912,-10.044684,0.0,0.0,0.0,0.0
2.2399999999999998,0.1292351999999999,-3.0903671999999998,0.9217152000000001,-9.814560000000002,0.0,0.0,0.0,0.0
2.26,0.10027919999999993,-3.3073848000000003,1.1387328,-9.814560000000002,0.0,0.0,0.0,0.0
2.28,0.14386559999999993,-3.5240976,0.7046976,-9.891369599999999,0.0,0.0,0.0,0.0
2.3,0.17251679999999997,-3.6326064,0.8132064000000001,-9.4311216,0.0,0.0,0.0,0.0
2.32,0.1106424,-3.957828,0.8132064000000001,-9.6612456,0.0,0.0,0.0,0.0
2.34,0.32765999999999995,-4.120591200000001,0.9759696,-9.584436,0.0,0.0,0.0,0.0
2.36,0.24963119999999994,-4.0663368,0.5964936000000001,-9.584436,0.0,0.0,0.0,0.0
2.38,0.21031199999999992,-3.7411152,1.030224,-9.6612456,0.0,0.0,0.0,0.0
2.4,0.22463759999999997,-3.4698432,1.4097000000000002,-9.584436,0.0,0.0,0.0,0.0
2.42,0.22128479999999995,-2.9279088,1.0844784,-9.814560000000002,0.0,0.0,0.0,0.0
2.44,0.3395472,-1.8976848000000002,1.2469368,-9.737750400000001,0.0,0.0,0.0,0.0
2.46,0.44317919999999994,-2.3856696,1.9519392,-9.814560000000002,0.0,0.0,0.0,0.0
2.48,0.5062728,-3.8496240000000004,1.8976848000000002,-9.6612456,0.0,0.0,0.0,0.0
2.5,0.3758184,-3.9035736000000005,1.7349216,-9.584436,0.0,0.0,0.0,0.0
2.5199999999999996,0.34777679999999994,-3.6326064,2.4399240000000004,-9.737750400000001,0.0,0.0,0.0,0.0
2.54,0.38831519999999997,-3.4698432,1.9519392,-9.6612456,0.0,0.0,0.0,0.0
2.5599999999999996,0.2727959999999999,-4.554321600000001,1.5182088,-9.584436,0.0,0.0,0.0,0.0
2.58,0.31028639999999996,-4.0663368,0.9217152000000001,-9.5079312,0.0,0.0,0.0,0.0
2.5999999999999996,0.5260847999999999,-3.7411152,0.4879848,-9.584436,0.0,0.0,0.0,0.0
2.62,0.5529071999999999,-3.8496240000000004,2.2229064000000003,-9.584436,0.0,0.0,0.0,0.0
2.6399999999999997,0.7424928000000001,-3.1446216000000002,2.4941784,-9.737750400000001,0.0,0.0,0.0,0.0
2.66,0.797052,-3.3616392,2.2771608000000003,-9.737750400000001,0.0,0.0,0.0,0.0
2.6799999999999997,0.6748272000000001,-2.1143976,2.7651456,-10.044684,0.0,0.0,0.0,0.0
2.7,0.7763256,-2.548128,2.1143976,-9.814560000000002,0.0,0.0,0.0,0.0
2.7199999999999998,0.5111496,-2.8736544000000004,1.4639544,-9.814560000000002,0.0,0.0,0.0,0.0
2.74,0.7315200000000001,-2.4941784,0.9759696,-9.891369599999999,0.0,0.0,0.0,0.0
2.76,0.8744712,-3.7411152,-0.4879848,-9.6612456,0.0,0.0,0.0,0.0
2.78,0.8418575999999999,-3.4698432,-0.3252216,-9.891369599999999,0.0,0.0,0.0,0.0
2.8,0.809244,-2.1143976,1.1387328,-10.121188800000002,0.0,0.0,0.0,0.0
2.82,0.7876032,-3.0361128,-0.3252216,-9.967874400000001,0.0,0.0,0.0,0.0
2.84,0.9841991999999999,-3.198876,0.2709672,-9.814560000000002,0.0,0.0,0.0,0.0
2.86,1.0579608,-1.8976848000000002,1.8976848000000002,-10.044684,0.0,0.0,0.0,0.0
2.88,1.2899135999999998,-3.3616392,2.0601432,-9.584436,0.0,0.0,0.0,0.0
2.9,1.3767816,-2.6023824,2.2771608000000003,-9.814560000000002,0.0,0.0,0.0,0.0
2.92,1.3786104,-2.4941784,2.1686520000000002,-9.891369599999999,0.0,0.0,0.0,0.0
2.94,1.397508,-3.3073848000000003,1.030224,-9.737750400000001,0.0,0.0,0.0,0.0
2.96,1.1350752,-2.9818584,0.16276320000000002,-9.814560000000002,0.0,0.0,0.0,0.0
2.98,0.897636,-3.2531304000000003,0.1085088,-9.891369599999999,0.0,0.0,0.0,0.0
3.0,0.8522208,-3.7953696000000003,0.7589520000000001,-9.737750400000001,0.0,0.0,0.0,0.0
3.0199999999999996,0.7495031999999999,-3.198876,1.2469368,-9.814560000000002,0.0,0.0,0.0,0.0
3.04,0.9238487999999999,-2.6566368,1.2469368,-9.814560000000002,0.0,0.0,0.0,0.0
3.0599999999999996,0.6403848,-3.578352,0.7589520000000001,-9.6612456,0.0,0.0,0.0,0.0
3.08,0.5663183999999999,-2.6023824,2.1686520000000002,-9.891369599999999,0.0,0.0,0.0,0.0
3.0999999999999996,0.35813999999999996,-3.1446216000000002,0.7589520000000001,-9.737750400000001,0.0,0.0,0.0,0.0
3.12,0.3319271999999999,-3.198876,1.789176,-9.6612456,0.0,0.0,0.0,0.0
3.1399999999999997,0.26822399999999996,-3.198876,1.5724632,-9.737750400000001,0.0,0.0,0.0,0.0
3.16,0.14447519999999994,-3.5240976,1.5724632,-9.6612456,0.0,0.0,0.0,0.0
3.1799999999999997,0.16489679999999993,-2.548128,2.8736544000000004,-9.737750400000001,0.0,0.0,0.0,0.0
3.2,0.32278319999999994,-4.2291,1.8434304000000001,-9.4311216,0.0,0.0,0.0,0.0
3.2199999999999998,0.33314639999999995,-3.4698432,2.3856696,-9.6612456,0.0,0.0,0.0,0.0
3.24,0.5364479999999999,-2.7108912000000003,2.7108912000000003,-9.891369599999999,0.0,0.0,0.0,0.0
3.26,0.6824472,-3.0903671999999998,1.789176,-9.737750400000001,0.0,0.0,0.0,0.0
3.28,0.8241792,-3.1446216000000002,1.9519392,-9.737750400000001,0.0,0.0,0.0,0.0
3.3,0.923544,-2.9818584,1.8976848000000002,-9.891369599999999,0.0,0.0,0.0,0.0
3.32,0.9607296,-2.6023824,1.7349216,-9.967874400000001,0.0,0.0,0.0,0.0
3.34,1.1972544,-2.9279088,0.4337304,-9.891369599999999,0.0,0.0,0.0,0.0
3.36,1.2082271999999998,-3.9035736000000005,-0.8674608,-9.737750400000001,0.0,0.0,0.0,0.0
3.38,1.3161264,-3.1446216000000002,0.2170176,-9.891369599999999,0.0,0.0,0.0,0.0
3.4,0.9186672,-3.198876,-0.16276320000000002,-9.6612456,0.0,0.0,0.0,0.0
3.42,0.717804,-2.8194000000000004,0.2170176,-10.044684,0.0,0.0,0.0,0.0
3.44,0.5940552,-3.3073848000000003,0.5964936000000001,-9.814560000000002,0.0,0.0,0.0,0.0
3.46,0.6129528,-3.1446216000000002,2.2771608000000003,-9.6612456,0.0,0.0,0.0,0.0
3.48,0.8625839999999999,-2.3314152,2.8736544000000004,-9.891369599999999,0.0,0.0,0.0,0.0
3.5,1.0131552,-2.9279088,2.9279088,-9.584436,0.0,0.0,0.0,0.0
3.52,0.8391143999999999,-2.8194000000000004,0.5422392,-9.967874400000001,0.0,0.0,0.0,0.0
3.54,0.8558784,-1.8434304000000001,0.7589520000000001,-10.121188800000002,0.0,0.0,0.0,0.0
3.56,0.8342375999999999,-1.8976848000000002,1.030224,-10.1979984,0.0,0.0,0.0,0.0
3.58,0.5504688,-2.548128,-0.16276320000000002,-9.967874400000001,0.0,0.0,0.0,0.0
3.5999999999999996,0.29870399999999997,-3.6868608000000003,1.5182088,-9.967874400000001,0.0,0.0,0.0,0.0
3.62,0.6723888,-3.3073848000000003,1.5724632,-9.814560000000002,0.0,0.0,0.0,0.0
3.6399999999999997,0.7958328,-3.0903671999999998,1.1387328,-9.814560000000002,0.0,0.0,0.0,0.0
3.66,0.9214104,-4.3915584,0.8132064000000001,-9.3546168,0.0,0.0,0.0,0.0
3.6799999999999997,0.9445752,-3.4698432,2.0601432,-9.6612456,0.0,0.0,0.0,0.0
3.6999999999999997,0.8446008,-3.7411152,1.8976848000000002,-9.737750400000001,0.0,0.0,0.0,0.0
3.7199999999999998,0.6297168,-4.554321600000001,2.0601432,-9.4311216,0.0,0.0,0.0,0.0
3.7399999999999998,0.8726423999999999,-3.3073848000000003,2.8736544000000004,-9.6612456,0.0,0.0,0.0,0.0
3.76,1.0719816,-2.7108912000000003,2.7108912000000003,-9.737750400000001,0.0,0.0,0.0,0.0
3.78,0.9854183999999999,-2.4399240000000004,1.5724632,-9.891369599999999,0.0,0.0,0.0,0.0
3.8,0.9808464,-3.7411152,0.2709672,-9.891369599999999,0.0,0.0,0.0,0.0
3.82,1.1518392,-2.8736544000000004,1.789176,-9.967874400000001,0.0,0.0,0.0,0.0
3.84,1.0756392000000001,-2.9818584,1.6806672000000002,-9.814560000000002,0.0,0.0,0.0,0.0
3.86,1.1807952,-3.198876,1.2469368,-8.58774,0.0,0.0,0.0,0.0
3.88,1.322832,-3.7411152,0.2709672,-9.737750400000001,0.0,0.0,0.0,0.0
3.9,1.2521183999999999,-3.5240976,-0.0542544,-9.891369599999999,0.0,0.0,0.0,0.0
3.92,1.3697712,-1.8434304000000001,0.9759696,-10.121188800000002,0.0,0.0,0.0,0.0
3.94,1.2987528000000002,-1.8434304000000001,0.7589520000000001,-10.044684,0.0,0.0,0.0,0.0
3.96,1.2963144000000002,-2.1686520000000002,-0.3252216,-10.121188800000002,0.0,0.0,0.0,0.0
3.98,1.3341096,-3.4698432,2.4941784,-9.6612456,0.0,0.0,0.0,0.0
4.0,1.1527536,-2.1143976,2.8736544000000004,-9.967874400000001,0.0,0.0,0.0,0.0
4.02,1.1024616,-3.4698432,1.7349216,-9.6612456,0.0,0.0,0.0,0.0
4.04,1.2597384,-4.6628304,1.1926824,-9.4311216,0.0,0.0,0.0,0.0
4.06,1.080516,-3.2531304000000003,0.5422392,-9.967874400000001,0.0,0.0,0.0,0.0
4.08,1.2688824,-3.4158936000000004,0.37947600000000004,-9.891369599999999,0.0,0.0,0.0,0.0
4.1,1.1359896,-3.198876,0.2709672,-9.737750400000001,0.0,0.0,0.0,0.0
4.12,1.0573512,-3.0903671999999998,0.9217152000000001,-10.274503200000002,0.0,0.0,0.0,0.0
4.14,1.2231624,-4.5000672,2.3314152,-7.437729600000001,0.0,0.0,0.0,0.0
4.16,1.0552176,-0.5422392,0.650748,-8.357616,0.0,0.0,0.0,0.0
4.18,1.007364,-0.650748,1.0844784,-9.6612456,0.0,0.0,0.0,0.0
4.2,1.2097512,-0.9217152000000001,2.9818584,-9.814560000000002,0.0,0.0,0.0,0.0
4.22,1.1771376,-4.012082400000001,3.578352,-9.5079312,0.0,0.0,0.0,0.0
4.24,1.2691872,-4.933797600000001,1.789176,-9.4311216,0.0,0.0,0.0,0.0
4.26,1.3420344,-4.2833544,1.5724632,-9.584436,0.0,0.0,0.0,0.0
4.28,1.4349984000000002,-4.988052,3.6868608000000003,-9.737750400000001,0.0,0.0,0.0,0.0
4.3,1.5307056,-8.729167200000001,2.548128,-6.1341,0.0,0.0,0.0,0.0
4.32,1.4282928000000001,-6.1807343999999995,0.3252216,-11.654637600000001,0.0,0.0,0.0,0.0
4.34,1.4106144,-4.2291,2.6023824,-8.2811112,0.0,0.0,0.0,0.0
4.36,1.2859512,-3.9035736000000005,3.9035736000000005,-10.888065600000001,0.0,0.0,0.0,0.0
4.38,1.2121896,2.9818584,-3.6326064,-8.971178400000001,0.0,0.0,0.0,0.0
4.3999999999999995,1.1576304000000002,3.2531304000000003,0.4337304,-10.888065600000001,0.0,0.0,0.0,0.0
4.42,1.0939272,-2.9818584,2.2229064000000003,-24.6897144,0.0,0.0,0.0,0.0
4.4399999999999995,0.9909048,-6.9399912,3.1446216000000002,-32.5873872,0.0,0.0,0.0,0.0
4.46,1.1289792,-8.4582,1.6264128000000002,-35.8844088,0.0,0.0,0.0,0.0
4.4799999999999995,1.153668,-17.024604,5.096560800000001,-45.2390256,0.0,0.0,0.0,0.0
4.5,1.1158728,-17.5668432,1.4097000000000002,-56.356910400000004,0.0,0.0,0.0,0.0
4.52,1.0847832,-14.8016976,2.9818584,-62.567820000000005,0.0,0.0,0.0,0.0
4.54,1.3408151999999998,-14.909901600000001,-16.102888800000002,-68.932044,0.0,0.0,0.0,0.0
4.56,1.3792200000000001,-28.627120800000004,8.4582,-82.5035688,0.0,0.0,0.0,0.0
4.58,1.4023848,-26.349960000000003,14.313712800000001,-89.1744216,0.0,0.0,0.0,0.0
4.6,1.7102328,-20.6572104,4.5000672,-95.38533120000001,0.0,0.0,0.0,0.0
4.62,1.7550384,-18.3800496,9.2714064,-101.7492504,0.0,0.0,0.0,0.0
4.64,2.2442424,0.0542544,7.6446888,-115.78102319999999,0.0,0.0,0.0,0.0
4.66,2.84226,-23.259592800000004,11.1148368,-121.22505600000001,0.0,0.0,0.0,0.0
4.68,2.9589984,-36.0008424,7.048500000000001,-126.66908880000001,0.0,0.0,0.0,0.0
4.7,3.1357824,-36.814353600000004,4.7170848,-136.33033440000003,0.0,0.0,0.0,0.0
4.72,3.450336,-36.1093512,5.205069600000001,-138.860784,0.0,0.0,0.0,0.0
4.74,3.6463224000000003,-32.1515232,7.6446888,-119.998236,0.0,0.0,0.0,0.0
4.76,3.97002,-29.548835999999998,2.4399240000000004,-109.11017040000002,0.0,0.0,0.0,0.0
4.78,4.0821864,-26.133247200000003,3.1446216000000002,-100.2926112,0.0,0.0,0.0,0.0
4.8,4.353153600000001,-26.133247200000003,4.445812800000001,-96.4588368,0.0,0.0,0.0,0.0
4.82,4.5180504,-25.5367536,1.3554456000000001,-90.4012416,0.0,0.0,0.0,0.0
4.84,4.605223199999999,-24.832056,3.7953696000000003,-88.4078496,0.0,0.0,0.0,0.0
4.859999999999999,4.8594264,-25.265786400000003,3.3616392,-84.9572088,0.0,0.0,0.0,0.0
4.88,5.7406032,-26.349960000000003,3.578352,-83.3469504,0.0,0.0,0.0,0.0
4.9,6.754368,-26.2960104,4.1748456,-80.739996,0.0,0.0,0.0,0.0
4.92,7.747101600000001,-25.5367536,4.608576,-79.35986160000002,0.0,0.0,0.0,0.0
4.9399999999999995,8.727948000000001,-22.4463864,2.9279088,-76.8297168,0.0,0.0,0.0,0.0
4.96,9.675266400000002,-22.0669104,4.3915584,-75.832716,0.0,0.0,0.0,0.0
4.9799999999999995,10.515600000000001,-22.2836232,4.3915584,-76.21615440000001,0.0,0.0,0.0,0.0
5.0,11.383365600000001,-20.5487016,4.2833544,-75.1426488,0.0,0.0,0.0,0.0
5.02,12.1164096,-20.9281776,5.205069600000001,-74.5293912,0.0,0.0,0.0,0.0
5.04,13.1228592,-18.9222888,7.210958400000001,-73.1492568,0.0,0.0,0.0,0.0
5.06,14.2353792,-18.000573600000003,7.048500000000001,-72.612504,0.0,0.0,0.0,0.0
5.08,15.320467200000001,-18.217286400000003,6.8314824000000005,-72.15225600000001,0.0,0.0,0.0,0.0
5.1,16.1586672,-16.5366192,11.1148368,-72.30557040000001,0.0,0.0,0.0,0.0
5.12,17.012107200000003,-15.4521408,10.4640888,-70.2353688,0.0,0.0,0.0,0.0
5.14,17.6217072,-12.5787912,7.5904344,-70.7721216,0.0,0.0,0.0,0.0
5.16,18.0801264,-12.361773600000001,9.976104,-71.5389984,0.0,0.0,0.0,0.0
5.18,18.5223912,-12.686995200000002,8.1326736,-71.69231280000001,0.0,0.0,0.0,0.0
5.2,19.069812,-13.229234400000001,6.9399912,-70.0055496,0.0,0.0,0.0,0.0
5.22,19.6757544,-14.1509496,7.210958400000001,-70.2353688,0.0,0.0,0.0,0.0
5.24,20.349362400000004,-15.8316168,4.3376088,-69.3919872,0.0,0.0,0.0,0.0
5.26,21.266505600000002,-14.0424408,2.6566368,-68.2419768,0.0,0.0,0.0,0.0
5.28,22.5024696,-14.367967200000002,-1.030224,-69.5453016,0.0,0.0,0.0,0.0
5.3,23.7436152,-11.4943128,-1.1926824,-70.2353688,0.0,0.0,0.0,0.0
5.32,24.9216672,-12.8497584,-0.7046976,-68.5486056,0.0,0.0,0.0,0.0
5.34,26.1490968,-12.3075192,-3.5240976,-66.40159440000001,0.0,0.0,0.0,0.0
5.359999999999999,27.389328000000003,-15.235428,-2.4399240000000004,-66.63171840000001,0.0,0.0,0.0,0.0
5.38,28.537814400000002,-15.3978864,-1.9519392,-68.08835760000001,0.0,0.0,0.0,0.0
5.4,29.684472000000003,-17.6750472,-4.6628304,-65.6347176,0.0,0.0,0.0,0.0
5.42,30.9064152,-16.1571432,0.9759696,-66.40159440000001,0.0,0.0,0.0,0.0
5.4399999999999995,32.450532,-16.8618408,-0.8132064000000001,-66.018156,0.0,0.0,0.0,0.0
5.46,34.215324,-17.40408,-0.16276320000000002,-64.7148312,0.0,0.0,0.0,0.0
5.48,35.9874312,-16.590873600000002,3.4698432,-64.024764,0.0,0.0,0.0,0.0
5.5,37.6354848,-15.560649600000001,3.7411152,-63.8714496,0.0,0.0,0.0,0.0
5.52,39.217701600000005,-19.952208,4.8795432000000005,-62.4145056,0.0,0.0,0.0,0.0
5.54,40.875204,-16.970349600000002,5.1508152,-62.797944,0.0,0.0,0.0,0.0
5.56,42.6180504,-18.2715408,4.5000672,-62.6446296,0.0,0.0,0.0,0.0
5.58,44.2846968,-19.193256,5.3132736,-62.261191200000006,0.0,0.0,0.0,0.0
5.6,45.9190344,-12.524536800000002,7.210958400000001,-62.33769600000001,0.0,0.0,0.0,0.0
5.62,47.540265600000005,-13.825728,4.2833544,-62.33769600000001,0.0,0.0,0.0,0.0
5.64,49.0852968,-13.0664712,4.608576,-61.724438400000004,0.0,0.0,0.0,0.0
5.66,50.744628000000006,-13.283488800000002,2.0061936,-62.9512584,0.0,0.0,0.0,0.0
5.68,52.42620960000001,-10.138867200000002,3.8496240000000004,-63.10457280000001,0.0,0.0,0.0,0.0
5.7,53.986785600000005,-11.76528,-0.37947600000000004,-62.261191200000006,0.0,0.0,0.0,0.0
5.72,55.62843840000001,-14.313712800000001,1.8434304000000001,-61.0343712,0.0,0.0,0.0,0.0
5.74,57.356654400000004,-14.6389344,0.0,-60.4208088,0.0,0.0,0.0,0.0
5.76,59.237880000000004,-14.8016976,1.5724632,-60.1909896,0.0,0.0,0.0,0.0
5.779999999999999,60.7978464,-15.777667200000002,4.2833544,-58.657236,0.0,0.0,0.0,0.0
5.8,62.484304800000004,-15.560649600000001,2.6566368,-57.813854400000004,0.0,0.0,0.0,0.0
5.82,64.1064504,-16.0486344,2.8194000000000004,-57.5837304,0.0,0.0,0.0,0.0
5.84,65.8380192,-15.6691584,0.8132064000000001,-60.267494400000004,0.0,0.0,0.0,0.0
5.859999999999999,67.4333424,-14.476171200000001,3.957828,-57.7373496,0.0,0.0,0.0,0.0
5.88,69.1182768,-14.367967200000002,1.4639544,-57.813854400000004,0.0,0.0,0.0,0.0
5.9,70.88276400000001,-16.102888800000002,1.4639544,-57.2005968,0.0,0.0,0.0,0.0
5.92,72.639936,-13.012521600000001,2.4941784,-56.8936632,0.0,0.0,0.0,0.0
5.9399999999999995,74.3641896,-11.76528,-0.16276320000000002,-56.356910400000004,0.0,0.0,0.0,0.0
5.96,76.225908,-11.1690912,4.2291,-55.053585600000005,0.0,0.0,0.0,0.0
5.98,78.1022568,-9.976104,2.9279088,-54.13339440000001,0.0,0.0,0.0,0.0
6.0,80.01335279999999,-11.440058400000002,3.198876,-55.3602144,0.0,0.0,0.0,0.0
6.02,81.9430416,-9.3256608,1.9519392,-54.2867088,0.0,0.0,0.0,0.0
6.04,83.8148184,-12.199010400000002,4.5000672,-53.2132032,0.0,0.0,0.0,0.0
6.06,85.67836559999999,-13.9342368,2.6566368,-52.3698216,0.0,0.0,0.0,0.0
6.08,87.63000000000001,-14.367967200000002,1.030224,-53.2132032,0.0,0.0,0.0,0.0
6.1,89.5703568,-12.8497584,1.030224,-53.29001280000001,0.0,0.0,0.0,0.0
6.12,91.5567384,-14.476171200000001,1.6806672000000002,-52.523136,0.0,0.0,0.0,0.0
6.14,93.62633039999999,-12.7412496,1.5724632,-52.4466312,0.0,0.0,0.0,0.0
6.16,95.7504816,-12.9040128,1.1926824,-52.4466312,0.0,0.0,0.0,0.0
6.18,97.87798559999999,-11.76528,3.4158936000000004,-52.0631928,0.0,0.0,0.0,0.0
6.2,99.9466632,-12.686995200000002,2.7108912000000003,-51.83306880000001,0.0,0.0,0.0,0.0
6.22,102.07660560000001,-11.006328,3.957828,-51.6797544,0.0,0.0,0.0,0.0
6.24,104.1361392,-9.7593912,4.445812800000001,-50.8363728,0.0,0.0,0.0,0.0
6.26,106.20451200000001,-11.385804,3.578352,-50.1463056,0.0,0.0,0.0,0.0
6.279999999999999,108.3405504,-10.4098344,3.1446216000000002,-50.06949600000001,0.0,0.0,0.0,0.0
6.3,110.4293448,-11.1690912,3.1446216000000002,-49.456238400000004,0.0,0.0,0.0,0.0
6.32,112.39073280000001,-12.144756000000001,-0.2170176,-50.1463056,0.0,0.0,0.0,0.0
6.34,114.4444752,-11.657076,2.1143976,-48.1526088,0.0,0.0,0.0,0.0
6.359999999999999,116.48053920000001,-11.440058400000002,0.5964936000000001,-50.1463056,0.0,0.0,0.0,0.0
6.38,118.5693336,-10.626852000000001,1.1926824,-48.7661712,0.0,0.0,0.0,0.0
6.4,120.69104639999999,-11.4943128,3.578352,-50.2228104,0.0,0.0,0.0,0.0
6.42,122.8929216,-7.970215200000001,1.6806672000000002,-48.076104,0.0,0.0,0.0,0.0
6.4399999999999995,125.0713272,-9.7051368,1.1387328,-47.079103200000006,0.0,0.0,0.0,0.0
6.46,127.243332,-10.247376,1.2469368,-48.459542400000004,0.0,0.0,0.0,0.0
6.48,129.39522,-9.7051368,2.7651456,-47.692665600000005,0.0,0.0,0.0,0.0
6.5,131.5126656,-10.0303584,1.6806672000000002,-48.7661712,0.0,0.0,0.0,0.0
6.52,133.6359024,-11.1148368,5.476036800000001,-45.62246400000001,0.0,0.0,0.0,0.0
6.54,135.86307599999998,-10.138867200000002,1.6806672000000002,-47.615856,0.0,0.0,0.0,0.0
6.5600000000000005,138.11981519999998,-13.446252000000001,4.3376088,-45.392340000000004,0.0,0.0,0.0,0.0
6.58,140.3372352,-7.8617064,2.0061936,-46.849284000000004,0.0,0.0,0.0,0.0
6.6,142.5342336,-10.735360799999999,1.6264128000000002,-45.545654400000004,0.0,0.0,0.0,0.0
6.62,144.77573280000001,-11.982297599999999,1.6806672000000002,-45.4691496,0.0,0.0,0.0,0.0
6.64,147.1674984,-9.867595200000002,1.8434304000000001,-45.6989688,0.0,0.0,0.0,0.0
6.66,149.5172016,-10.789310400000002,3.5240976,-44.6254632,0.0,0.0,0.0,0.0
6.68,151.80015360000002,-11.385804,4.988052,-42.095318400000004,0.0,0.0,0.0,0.0
6.699999999999999,154.17149759999998,-11.7110256,4.445812800000001,-41.86519440000001,0.0,0.0,0.0,0.0
6.72,156.58612320000003,-8.729167200000001,3.6326064,-42.708576,0.0,0.0,0.0,0.0
6.74,158.99922480000004,-9.217152,5.205069600000001,-42.4019472,0.0,0.0,0.0,0.0
6.76,161.54735280000003,-11.1148368,3.8496240000000004,-45.0089016,0.0,0.0,0.0,0.0
6.779999999999999,164.00952720000004,-8.186928,-1.030224,-43.4754528,0.0,0.0,0.0,0.0
6.8,166.38940560000003,-8.4582,1.9519392,-40.9450032,0.0,0.0,0.0,0.0
6.82,168.80281200000002,-11.440058400000002,2.3314152,-43.8588912,0.0,0.0,0.0,0.0
6.84,171.20616,-8.1326736,3.0361128,-43.2453288,0.0,0.0,0.0,0.0
6.859999999999999,173.6726016,-8.7834216,2.6023824,-43.0920144,0.0,0.0,0.0,0.0
6.88,176.06436720000002,-12.6327408,4.5000672,-41.635070400000004,0.0,0.0,0.0,0.0
6.9,178.49027040000004,-13.7172192,2.4399240000000004,-43.7820816,0.0,0.0,0.0,0.0
6.92,181.0828992,-8.8919304,2.4941784,-40.1016216,0.0,0.0,0.0,0.0
6.9399999999999995,183.8306712,-9.217152,4.2291,-41.481756000000004,0.0,0.0,0.0,0.0
6.96,186.37849440000002,-12.4702824,0.650748,-40.638374400000004,0.0,0.0,0.0,0.0
6.98,188.80683600000003,-12.416028,8.0784192,-37.878105600000005,0.0,0.0,0.0,0.0
7.0,191.3028432,-7.427976000000001,1.1387328,-38.4148584,0.0,0.0,0.0,0.0
7.02,193.75556880000002,-5.5845456,2.548128,-41.788689600000005,0.0,0.0,0.0,0.0
7.04,196.17903360000003,-7.5364848,3.8496240000000004,-40.8684984,0.0,0.0,0.0,0.0
7.0600000000000005,198.61316640000004,-9.488119200000002,3.0903671999999998,-40.791688799999996,0.0,0.0,0.0,0.0
7.08,201.12654720000003,-8.5121496,5.259324,-38.6446776,0.0,0.0,0.0,0.0
7.1,203.64937680000003,-11.657076,2.7651456,-38.721487200000006,0.0,0.0,0.0,0.0
7.12,206.19811440000004,-8.837676,-0.2709672,-38.1847344,0.0,0.0,0.0,0.0
7.14,208.77611280000002,-10.735360799999999,2.9279088,-39.488364000000004,0.0,0.0,0.0,0.0
7.16,211.4257392,-9.976104,2.4941784,-37.724791200000006,0.0,0.0,0.0,0.0
7.18,214.15491840000004,-7.6989432,2.8194000000000004,-39.4115544,0.0,0.0,0.0,0.0
7.199999999999999,216.65336400000004,-7.4822304,3.1446216000000002,-38.7982968,0.0,0.0,0.0,0.0
7.22,219.39808800000003,-7.156704,2.8194000000000004,-38.3380488,0.0,0.0,0.0,0.0
7.24,221.98949760000002,-11.657076,0.7046976,-32.6641968,0.0,0.0,0.0,0.0
7.26,224.5732872,-2.6023824,4.8795432000000005,-36.114532800000006,0.0,0.0,0.0,0.0
7.279999999999999,227.13238800000002,-10.247376,8.0784192,-35.2711512,0.0,0.0,0.0,0.0
7.3,229.77043200000003,-2.9279088,-0.7589520000000001,-36.0377232,0.0,0.0,0.0,0.0
7.32,232.36793760000003,-12.199010400000002,2.9818584,-35.2711512,0.0,0.0,0.0,0.0
7.34,235.19343360000002,-6.1807343999999995,1.4097000000000002,-32.203948800000006,0.0,0.0,0.0,0.0
7.359999999999999,237.9841824,-9.0543888,1.030224,-37.2645432,0.0,0.0,0.0,0.0
7.38,240.75115680000002,-9.976104,1.4097000000000002,-38.6446776,0.0,0.0,0.0,0.0
7.4,243.45534240000003,-9.5423736,0.1085088,-36.114532800000006,0.0,0.0,0.0,0.0
7.42,246.22932720000003,-10.0846128,4.3376088,-36.3446568,0.0,0.0,0.0,0.0
7.4399999999999995,248.92040640000002,-9.6508824,1.4097000000000002,-34.6575888,0.0,0.0,0.0,0.0
7.46,251.6669592,-2.8736544000000004,6.1267848,-33.0473304,0.0,0.0,0.0,0.0
7.48,254.42357040000005,-3.1446216000000002,0.9759696,-11.7314472,0.0,0.0,0.0,0.0
7.5,256.9384752,4.2291,-3.2531304000000003,26.146658400000003,0.0,0.0,0.0,0.0
7.52,259.49148,8.241182400000001,-3.3616392,32.894016,0.0,0.0,0.0,0.0
7.54,262.0783176,10.8978192,-5.1508152,33.7377024,0.0,0.0,0.0,0.0
7.5600000000000005,264.7069128,5.638800000000001,4.445812800000001,32.894016,0.0,0.0,0.0,0.0
7.58,267.28430160000005,10.952073600000002,2.0601432,33.8910168,0.0,0.0,0.0,0.0
7.6,269.80042560000004,8.5121496,-0.8132064000000001,34.0443312,0.0,0.0,0.0,0.0
7.62,272.4564528,5.5302912,0.9759696,33.8142072,0.0,0.0,0.0,0.0
7.64,274.98659760000004,5.638800000000001,3.4698432,31.744005600000005,0.0,0.0,0.0,0.0
7.66,277.4603544,5.5845456,0.4879848,31.897320000000004,0.0,0.0,0.0,0.0
7.68,279.9216144,11.4943128,3.9035736000000005,31.0539384,0.0,0.0,0.0,0.0
7.699999999999999,282.3356304,4.0663368,-1.5724632,31.5138816,0.0,0.0,0.0,0.0
7.72,284.611572,6.343497600000001,4.608576,30.977128800000003,0.0,0.0,0.0,0.0
7.74,286.8805032,8.024164800000001,-0.4337304,30.133747200000002,0.0,0.0,0.0,0.0
7.76,289.0942656,7.3194672,2.7651456,30.210556800000003,0.0,0.0,0.0,0.0
7.779999999999999,291.5789952,4.7170848,1.8976848000000002,27.910231200000002,0.0,0.0,0.0,0.0
7.8,293.93052720000003,4.554321600000001,2.2771608000000003,29.0602416,0.0,0.0,0.0,0.0
7.82,296.16867360000003,2.2229064000000003,1.8976848000000002,28.370174400000003,0.0,0.0,0.0,0.0
7.84,298.34890800000005,7.2652128,0.650748,27.526792800000003,0.0,0.0,0.0,0.0
7.859999999999999,300.5840064,6.506260800000001,1.7349216,27.603602400000003,0.0,0.0,0.0,0.0
7.88,302.65512240000004,1.6264128000000002,3.9035736000000005,27.066849600000005,0.0,0.0,0.0,0.0
7.9,304.81097280000006,6.2892432000000005,1.7349216,26.5300968,0.0,0.0,0.0,0.0
7.92,306.8735544,5.964021600000001,0.9759696,26.759916,0.0,0.0,0.0,0.0
7.9399999999999995,309.05043600000005,5.259324,-2.2229064000000003,27.2966688,0.0,0.0,0.0,0.0
7.96,311.2370712,3.9035736000000005,2.9279088,26.683411200000002,0.0,0.0,0.0,0.0
7.98,313.44199440000006,6.0725304,-0.2170176,27.220164000000004,0.0,0.0,0.0,0.0
8.0,315.6505752,6.9942456,3.5240976,25.6864104,0.0,0.0,0.0,0.0
8.02,317.73571200000004,7.2652128,3.1446216000000002,24.9198384,0.0,0.0,0.0,0.0
8.04,319.88912400000004,7.3737216000000005,2.3856696,26.299972800000003,0.0,0.0,0.0,0.0
8.06,321.9599352,4.120591200000001,0.2170176,24.306276000000004,0.0,0.0,0.0,0.0
8.08,323.9627760000001,5.5302912,0.3252216,24.459590400000003,0.0,0.0,0.0,0.0
8.1,326.05278960000004,3.0903671999999998,-1.030224,23.999647200000002,0.0,0.0,0.0,0.0
8.120000000000001,328.1488992,4.1748456,-1.1387328,25.2264672,0.0,0.0,0.0,0.0
8.14,330.18039120000003,6.018276,1.2469368,23.693018400000003,0.0,0.0,0.0,0.0
8.16,332.1088608,1.6264128000000002,-0.7589520000000001,24.1529616,0.0,0.0,0.0,0.0
8.18,334.0376352,5.801258400000001,-0.2709672,23.9231424,0.0,0.0,0.0,0.0
8.2,336.046572,7.807452,1.0844784,22.542703200000002,0.0,0.0,0.0,0.0
8.219999999999999,337.9860144,3.198876,1.2469368,22.9261416,0.0,0.0,0.0,0.0
8.24,340.12967280000004,3.3073848000000003,-1.4639544,22.8496368,0.0,0.0,0.0,0.0
8.26,342.1660416,5.3132736,-1.7349216,21.852636,0.0,0.0,0.0,0.0
8.28,344.24416800000006,5.259324,-0.0542544,22.312884,0.0,0.0,0.0,0.0
8.3,346.3253424,6.1267848,-0.4879848,21.622816800000003,0.0,0.0,0.0,0.0
8.32,348.3074568,4.3915584,0.2709672,21.5460072,0.0,0.0,0.0,0.0
8.34,350.2569576,-1.6806672000000002,-0.37947600000000004,22.772827200000002,0.0,0.0,0.0,0.0
8.36,352.1723208,2.4941784,-0.3252216,21.9294456,0.0,0.0,0.0,0.0
8.379999999999999,354.15931200000006,4.554321600000001,1.4097000000000002,21.622816800000003,0.0,0.0,0.0,0.0
8.399999999999999,356.2234176,5.476036800000001,0.4879848,21.469502400000003,0.0,0.0,0.0,0.0
8.42,358.0979376,5.476036800000001,-0.37947600000000004,21.239378400000003,0.0,0.0,0.0,0.0
8.44,360.1739304,3.9035736000000005,1.5182088,20.779130400000003,0.0,0.0,0.0,0.0
8.46,362.2218816,5.964021600000001,-0.2170176,20.089063200000002,0.0,0.0,0.0,0.0
8.48,364.1335872,1.6806672000000002,-0.4879848,20.3959968,0.0,0.0,0.0,0.0
8.5,366.14953440000005,4.608576,0.5964936000000001,19.7059296,0.0,0.0,0.0,0.0
8.52,367.9978416000001,2.7651456,3.8496240000000004,20.625816,0.0,0.0,0.0,0.0
8.54,369.9043656,4.6628304,0.2170176,20.5493112,0.0,0.0,0.0,0.0
8.559999999999999,371.72585040000007,0.2709672,1.3554456000000001,19.629120000000004,0.0,0.0,0.0,0.0
8.58,373.56958560000004,3.198876,-2.1143976,19.3224912,0.0,0.0,0.0,0.0
8.6,375.41210159999997,9.3256608,-3.6868608000000003,18.4023,0.0,0.0,0.0,0.0
8.620000000000001,377.4411552,10.3013256,-0.650748,17.0221656,0.0,0.0,0.0,0.0
8.64,379.4503968,5.367528,1.4639544,18.8622432,0.0,0.0,0.0,0.0
8.66,381.4572,4.1748456,2.6566368,18.939052800000002,0.0,0.0,0.0,0.0
8.68,383.27655120000003,1.8434304000000001,2.3856696,19.1691768,0.0,0.0,0.0,0.0
8.7,384.9782496000001,1.3554456000000001,1.3554456000000001,19.1691768,0.0,0.0,0.0,0.0
8.719999999999999,386.5257192000001,5.5845456,-0.5964936000000001,18.4791096,0.0,0.0,0.0,0.0
8.74,388.2015096,4.6628304,1.3011912,17.482108800000002,0.0,0.0,0.0,0.0
8.76,389.99647680000004,1.8434304000000001,4.012082400000001,18.0956712,0.0,0.0,0.0,0.0
8.780000000000001,391.65306480000004,4.3915584,0.5964936000000001,17.482108800000002,0.0,0.0,0.0,0.0
8.8,393.42212400000005,3.1446216000000002,1.1926824,16.715536800000002,0.0,0.0,0.0,0.0
8.82,395.18173440000004,2.9279088,0.9759696,17.405604,0.0,0.0,0.0,0.0
8.84,396.87093600000003,3.4158936000000004,-3.4158936000000004,16.715536800000002,0.0,0.0,0.0,0.0
8.86,398.61561120000005,2.4941784,0.9759696,15.948660000000002,0.0,0.0,0.0,0.0
8.879999999999999,400.35297120000007,4.445812800000001,2.8194000000000004,16.6387272,0.0,0.0,0.0,0.0
8.899999999999999,402.10557120000004,2.7108912000000003,0.2170176,16.945356,0.0,0.0,0.0,0.0
8.92,403.77983760000006,3.2531304000000003,0.1085088,15.948660000000002,0.0,0.0,0.0,0.0
8.94,405.3815616,0.5964936000000001,-0.8132064000000001,15.795345600000001,0.0,0.0,0.0,0.0
8.96,407.1216648,3.7411152,0.37947600000000004,15.795345600000001,0.0,0.0,0.0,0.0
8.98,408.8044656,2.0601432,0.650748,16.101974400000003,0.0,0.0,0.0,0.0
9.0,410.55279840000003,3.6868608000000003,1.3011912,15.871850400000001,0.0,0.0,0.0,0.0
9.02,412.2304176,1.9519392,3.3616392,16.4854128,0.0,0.0,0.0,0.0
9.04,413.88273840000005,1.4639544,4.2833544,16.3320984,0.0,0.0,0.0,0.0
9.059999999999999,415.6213176,2.8736544000000004,2.1143976,15.335402400000001,0.0,0.0,0.0,0.0
9.08,417.24986400000006,2.4941784,-2.0601432,15.565221600000001,0.0,0.0,0.0,0.0
9.1,418.8488448,3.5240976,-0.37947600000000004,15.105278400000001,0.0,0.0,0.0,0.0
9.120000000000001,420.4094208,5.367528,-1.2469368,14.8751544,0.0,0.0,0.0,0.0
9.14,422.04589200000004,2.548128,-0.2709672,14.798649600000001,0.0,0.0,0.0,0.0
9.16,423.64152000000007,5.096560800000001,-0.4337304,14.2618968,0.0,0.0,0.0,0.0
9.18,425.2819536,2.1686520000000002,0.0,14.5685256,0.0,0.0,0.0,0.0
9.2,426.91903440000004,4.608576,0.8132064000000001,13.8016488,0.0,0.0,0.0,0.0
9.219999999999999,428.54575200000005,2.7108912000000003,1.9519392,13.8016488,0.0,0.0,0.0,0.0
9.24,430.1432088,0.5422392,0.9759696,14.108277600000001,0.0,0.0,0.0,0.0
9.26,431.6534928,2.9279088,-0.2170176,13.725144,0.0,0.0,0.0,0.0
9.280000000000001,433.09611120000005,0.7046976,1.3554456000000001,13.418210400000001,0.0,0.0,0.0,0.0
9.3,434.69783520000004,1.5724632,1.1387328,13.571829600000001,0.0,0.0,0.0,0.0
9.32,436.2514008,0.5422392,0.8674608,13.6483344,0.0,0.0,0.0,0.0
9.34,437.828436,2.3314152,2.2229064000000003,13.8016488,0.0,0.0,0.0,0.0
9.36,439.3551792,3.7953696000000003,0.650748,12.958267200000002,0.0,0.0,0.0,0.0
9.379999999999999,440.7886536,3.3616392,2.0601432,12.7281432,0.0,0.0,0.0,0.0
9.399999999999999,442.267848,3.8496240000000004,0.16276320000000002,12.345009600000001,0.0,0.0,0.0,0.0
9.42,443.82293760000005,2.9279088,-0.3252216,12.2682,0.0,0.0,0.0,0.0
9.44,445.0912104000001,3.3616392,1.8434304000000001,12.1913904,0.0,0.0,0.0,0.0
9.46,446.69964,2.1143976,1.030224,12.345009600000001,0.0,0.0,0.0,0.0
9.48,448.03161600000004,2.6023824,-0.1085088,12.038076,0.0,0.0,0.0,0.0
9.5,449.45106960000004,1.9519392,0.2170176,12.1913904,0.0,0.0,0.0,0.0
9.52,450.78274080000006,2.0601432,0.5422392,11.7314472,0.0,0.0,0.0,0.0
9.54,452.2939392,2.0061936,-0.2709672,11.9615712,0.0,0.0,0.0,0.0
9.559999999999999,453.92949600000003,1.2469368,-0.0542544,11.8847616,0.0,0.0,0.0,0.0
9.58,455.35565520000006,0.650748,0.8674608,11.501323200000002,0.0,0.0,0.0,0.0
9.6,456.83210640000004,2.7108912000000003,0.4337304,11.3480088,0.0,0.0,0.0,0.0
9.620000000000001,458.18755200000004,1.1926824,0.650748,11.194694400000001,0.0,0.0,0.0,0.0
9.64,459.58445040000004,1.3011912,0.5422392,11.271504,0.0,0.0,0.0,0.0
9.66,461.09717280000007,1.9519392,1.1926824,11.501323200000002,0.0,0.0,0.0,0.0
9.68,462.43585440000004,1.1387328,1.3554456000000001,11.04138,0.0,0.0,0.0,0.0
9.7,463.7129664,1.8434304000000001,0.7589520000000001,11.1181896,0.0,0.0,0.0,0.0
9.719999999999999,465.1046832,1.8976848000000002,2.0061936,10.5046272,0.0,0.0,0.0,0.0
9.74,466.32235920000005,3.4158936000000004,1.030224,10.1979984,0.0,0.0,0.0,0.0
9.76,467.6522016,3.4698432,1.7349216,10.5046272,0.0,0.0,0.0,0.0
9.780000000000001,469.0372128,1.8976848000000002,0.9217152000000001,10.5046272,0.0,0.0,0.0,0.0
9.8,470.51945520000004,2.548128,-0.16276320000000002,9.967874400000001,0.0,0.0,0.0,0.0
9.82,471.9123912,1.0844784,0.0,10.274503200000002,0.0,0.0,0.0,0.0
9.84,473.2437576,1.4639544,-0.2709672,10.1979984,0.0,0.0,0.0,0.0
9.86,474.73941120000006,0.8132064000000001,-1.1387328,9.737750400000001,0.0,0.0,0.0,0.0
9.879999999999999,476.04334560000007,1.9519392,1.7349216,10.121188800000002,0.0,0.0,0.0,0.0
9.899999999999999,477.443292,1.3554456000000001,-0.16276320000000002,10.121188800000002,0.0,0.0,0.0,0.0
9.92,478.81092960000007,0.9759696,0.5422392,9.5079312,0.0,0.0,0.0,0.0
9.94,480.1654608,1.5182088,-0.1085088,9.967874400000001,0.0,0.0,0.0,0.0
9.96,481.43617200000006,1.1387328,0.2709672,9.6612456,0.0,0.0,0.0,0.0
9.98,482.78186400000004,1.6806672000000002,0.37947600000000004,9.5079312,0.0,0.0,0.0,0.0
10.0,484.1339568,1.8434304000000001,0.5422392,9.1244928,0.0,0.0,0.0,0.0
10.02,485.3912568,3.198876,0.4879848,9.2013024,0.0,0.0,0.0,0.0
10.04,486.6546528,2.2771608000000003,-0.2170176,9.1244928,0.0,0.0,0.0,0.0
10.059999999999999,487.8595272,2.2229064000000003,2.7651456,8.8943688,0.0,0.0,0.0,0.0
10.08,489.19668480000007,1.5724632,0.37947600000000004,8.971178400000001,0.0,0.0,0.0,0.0
10.1,490.5530448,2.0061936,1.1387328,9.047683200000002,0.0,0.0,0.0,0.0
10.120000000000001,491.7896184,1.3011912,1.0844784,8.741054400000001,0.0,0.0,0.0,0.0
10.14,493.0472232,0.9217152000000001,0.16276320000000002,8.741054400000001,0.0,0.0,0.0,0.0
10.16,494.23015200000003,0.2709672,0.5964936000000001,9.047683200000002,0.0,0.0,0.0,0.0
10.18,495.408204,0.4879848,0.2709672,8.5109304,0.0,0.0,0.0,0.0
10.2,496.58381760000003,1.6806672000000002,1.2469368,8.357616,0.0,0.0,0.0,0.0
10.219999999999999,497.758212,1.4639544,-0.0542544,8.1277968,0.0,0.0,0.0,0.0
10.24,498.99874800000003,2.2771608000000003,0.650748,8.2043016,0.0,0.0,0.0,0.0
10.26,500.2389792,1.6806672000000002,0.5964936000000001,8.050987200000002,0.0,0.0,0.0,0.0
10.280000000000001,501.493536,2.2229064000000003,1.030224,7.6675488,0.0,0.0,0.0,0.0
10.3,502.811796,1.7349216,1.1926824,7.8208632,0.0,0.0,0.0,0.0
10.32,503.98283760000004,2.0061936,0.8132064000000001,7.8208632,0.0,0.0,0.0,0.0
10.34,505.294392,0.8132064000000001,0.7046976,7.591044000000001,0.0,0.0,0.0,0.0
10.36,506.3736888000001,1.5182088,1.0844784,8.050987200000002,0.0,0.0,0.0,0.0
10.379999999999999,507.4712736,0.37947600000000004,0.8132064000000001,7.9744824,0.0,0.0,0.0,0.0
10.399999999999999,508.6880352,0.8674608,0.1085088,7.591044000000001,0.0,0.0,0.0,0.0
10.42,509.92034160000003,1.8976848000000002,0.9217152000000001,7.437729600000001,0.0,0.0,0.0,0.0
10.44,511.0654752,0.0542544,0.7046976,7.36092,0.0,0.0,0.0,0.0
10.46,512.3102784,1.030224,0.37947600000000004,7.6675488,0.0,0.0,0.0,0.0
10.48,513.3950616,1.8434304000000001,1.3011912,7.36092,0.0,0.0,0.0,0.0
10.5,514.596888,1.1387328,0.8132064000000001,7.0542912,0.0,0.0,0.0,0.0
10.52,515.7398880000001,1.3011912,0.3252216,6.8241672,0.0,0.0,0.0,0.0
10.54,516.9054432,1.4639544,-0.0542544,6.9774816,0.0,0.0,0.0,0.0
10.559999999999999,517.9981512,0.3252216,0.2170176,6.6708528000000005,0.0,0.0,0.0,0.0
10.58,519.1588296,1.8976848000000002,1.030224,6.6708528000000005,0.0,0.0,0.0,0.0
10.6,520.1323608,0.8132064000000001,0.4879848,6.594043200000001,0.0,0.0,0.0,0.0
10.620000000000001,521.2805424000001,1.5724632,0.5964936000000001,6.9009768,0.0,0.0,0.0,0.0
10.64,522.4631664,1.5182088,0.1085088,6.8241672,0.0,0.0,0.0,0.0
10.66,523.5958032000001,1.3554456000000001,0.5964936000000001,6.5175384,0.0,0.0,0.0,0.0
10.68,524.7872664,2.4941784,-0.3252216,6.6708528000000005,0.0,0.0,0.0,0.0
10.7,525.9500784,0.5422392,0.1085088,6.594043200000001,0.0,0.0,0.0,0.0
10.719999999999999,527.0010288000001,0.8674608,0.1085088,6.2874144,0.0,0.0,0.0,0.0
10.74,528.1019664,0.650748,0.2170176,6.4407288000000005,0.0,0.0,0.0,0.0
10.76,529.1166456000001,0.3252216,1.6264128000000002,6.4407288000000005,0.0,0.0,0.0,0.0
10.780000000000001,530.1590616,0.0542544,0.16276320000000002,6.4407288000000005,0.0,0.0,0.0,0.0
10.8,531.2197656000001,0.9217152000000001,0.4879848,6.2109096,0.0,0.0,0.0,0.0
10.82,532.1963448,0.3252216,0.2170176,6.594043200000001,0.0,0.0,0.0,0.0
10.84,533.1741432,0.9759696,0.9759696,6.2109096,0.0,0.0,0.0,0.0
10.86,534.2269224,-0.2170176,1.1926824,6.2109096,0.0,0.0,0.0,0.0
10.879999999999999,535.3083528,0.0,0.7589520000000001,6.1341,0.0,0.0,0.0,0.0
10.899999999999999,536.502864,1.030224,0.8132064000000001,5.903976000000001,0.0,0.0,0.0,0.0
10.92,537.5178480000001,0.9759696,0.4337304,5.5205376,0.0,0.0,0.0,0.0
10.94,538.5246024,1.3554456000000001,1.2469368,5.367223200000001,0.0,0.0,0.0,0.0
10.96,539.5822584000001,1.5724632,0.37947600000000004,5.5205376,0.0,0.0,0.0,0.0
10.98,540.6990456000001,1.0844784,0.9759696,5.5205376,0.0,0.0,0.0,0.0
11.0,541.6853784,1.0844784,0.2170176,5.2907184,0.0,0.0,0.0,0.0
11.02,542.7204792,1.1926824,0.3252216,5.137404,0.0,0.0,0.0,0.0
11.04,543.7750872,1.0844784,0.650748,5.060594400000001,0.0,0.0,0.0,0.0
11.059999999999999,544.7178336000001,0.37947600000000004,0.0542544,5.137404,0.0,0.0,0.0,0.0
11.08,545.6953272000001,0.37947600000000004,0.0542544,4.984089600000001,0.0,0.0,0.0,0.0
11.1,546.7249416000001,0.8674608,0.2170176,5.367223200000001,0.0,0.0,0.0,0.0
11.120000000000001,547.6704312,0.8674608,0.4337304,5.060594400000001,0.0,0.0,0.0,0.0
11.14,548.6528016,0.3252216,0.2170176,4.907280000000001,0.0,0.0,0.0,0.0
11.16,549.5227008,0.7589520000000001,0.5422392,4.677156,0.0,0.0,0.0,0.0
11.18,550.3993056,0.0,0.9759696,5.060594400000001,0.0,0.0,0.0,0.0
11.2,551.355768,-0.2170176,0.5422392,5.2139088000000005,0.0,0.0,0.0,0.0
11.219999999999999,552.3024768,0.5422392,0.2170176,4.7539656,0.0,0.0,0.0,0.0
11.24,553.1979792,0.7046976,0.0542544,4.6006512,0.0,0.0,0.0,0.0
11.26,554.21022,0.8132064000000001,0.8132064000000001,4.523841600000001,0.0,0.0,0.0,0.0
11.280000000000001,555.17034,0.9217152000000001,-0.2709672,4.370527200000001,0.0,0.0,0.0,0.0
11.3,556.1079048,0.7046976,0.0542544,4.6006512,0.0,0.0,0.0,0.0
11.32,557.0485176,0.650748,-0.5422392,4.4473368,0.0,0.0,0.0,0.0
11.34,557.8617240000001,0.5964936000000001,0.2709672,4.370527200000001,0.0,0.0,0.0,0.0
11.36,558.83556,0.9759696,0.9759696,4.2172128,0.0,0.0,0.0,0.0
11.379999999999999,559.8023856000001,0.7046976,0.7046976,4.1404032,0.0,0.0,0.0,0.0
11.399999999999999,560.7774408,1.030224,0.7046976,4.2937176,0.0,0.0,0.0,0.0
11.42,561.6881832,1.0844784,0.9759696,4.370527200000001,0.0,0.0,0.0,0.0
11.44,562.6233096,0.7589520000000001,0.650748,4.2172128,0.0,0.0,0.0,0.0
11.46,563.4773592,0.7046976,0.37947600000000004,4.2172128,0.0,0.0,0.0,0.0
11.48,564.3076344,0.37947600000000004,0.2709672,4.2937176,0.0,0.0,0.0,0.0
11.5,565.2199008,0.1085088,0.3252216,3.910584,0.0,0.0,0.0,0.0
11.52,566.2309224,0.1085088,0.2170176,4.2937176,0.0,0.0,0.0,0.0
11.54,567.030108,-0.2709672,0.7046976,4.2937176,0.0,0.0,0.0,0.0
11.559999999999999,567.8085672000001,0.16276320000000002,0.0542544,4.0638984,0.0,0.0,0.0,0.0
11.58,568.6348800000001,0.5422392,0.5422392,4.1404032,0.0,0.0,0.0,0.0
11.6,569.5111800000001,0.7589520000000001,0.0,3.910584,0.0,0.0,0.0,0.0
11.620000000000001,570.213744,0.5422392,-0.1085088,3.910584,0.0,0.0,0.0,0.0
11.64,571.0004328000001,1.0844784,-0.1085088,3.450336,0.0,0.0,0.0,0.0
11.66,571.93434,0.7589520000000001,0.1085088,3.3738312000000006,0.0,0.0,0.0,0.0
11.68,572.6384280000001,0.8674608,0.0,3.5271456,0.0,0.0,0.0,0.0
11.7,573.3937224,1.0844784,-0.2170176,3.0672024,0.0,0.0,0.0,0.0
11.719999999999999,574.1438352,0.5422392,0.650748,3.68046,0.0,0.0,0.0,0.0
11.74,574.8323784,0.9217152000000001,0.4879848,3.6036504000000003,0.0,0.0,0.0,0.0
11.76,575.6379648000001,0.7046976,0.37947600000000004,3.5271456,0.0,0.0,0.0,0.0
11.780000000000001,576.4709832,0.2170176,1.1926824,3.5271456,0.0,0.0,0.0,0.0
11.8,577.2915048,0.2170176,0.8674608,3.7572696000000003,0.0,0.0,0.0,0.0
11.82,578.0879472,-0.2170176,0.9759696,3.68046,0.0,0.0,0.0,0.0
11.84,579.0669648,-0.0542544,1.030224,3.7572696000000003,0.0,0.0,0.0,0.0
11.86,579.9539328000001,-0.5964936000000001,1.030224,3.3738312000000006,0.0,0.0,0.0,0.0
11.879999999999999,580.7899992,-0.4337304,0.4337304,3.450336,0.0,0.0,0.0,0.0
11.899999999999999,581.6992176,-0.1085088,0.7589520000000001,3.2970216000000003,0.0,0.0,0.0,0.0
11.92,582.5541816,0.0,1.0844784,3.2970216000000003,0.0,0.0,0.0,0.0
11.94,583.3116096,-0.37947600000000004,0.16276320000000002,3.1437072,0.0,0.0,0.0,0.0
11.96,584.1309120000001,0.650748,0.7589520000000001,3.0672024,0.0,0.0,0.0,0.0
11.98,585.0678672,0.7589520000000001,0.9759696,3.0672024,0.0,0.0,0.0,0.0
12.0,585.8082264000001,0.8132064000000001,0.2709672,2.9135831999999997,0.0,0.0,0.0,0.0
12.02,586.6342344000001,1.5182088,0.7589520000000001,2.683764,0.0,0.0,0.0,0.0
12.04,587.3739840000001,0.650748,1.0844784,2.9903928,0.0,0.0,0.0,0.0
12.059999999999999,588.0908736,0.4879848,1.3554456000000001,2.7602688,0.0,0.0,0.0,0.0
12.08,588.7175424000001,1.030224,0.37947600000000004,2.7602688,0.0,0.0,0.0,0.0
12.1,589.5008784,0.4337304,0.9759696,3.0672024,0.0,0.0,0.0,0.0
12.120000000000001,590.1074304,0.3252216,0.4337304,2.9135831999999997,0.0,0.0,0.0,0.0
12.14,590.8462656,0.5964936000000001,0.37947600000000004,2.9135831999999997,0.0,0.0,0.0,0.0
12.16,591.6055224,-0.0542544,0.9217152000000001,2.9135831999999997,0.0,0.0,0.0,0.0
12.18,592.3541112,-0.0542544,0.0542544,2.8370784000000002,0.0,0.0,0.0,0.0
12.2,593.0505792,0.4337304,0.0,2.7602688,0.0,0.0,0.0,0.0
12.219999999999999,593.8991424000001,0.37947600000000004,-0.0542544,2.6069544000000002,0.0,0.0,0.0,0.0
12.24,594.673944,0.4337304,0.2170176,2.683764,0.0,0.0,0.0,0.0
12.26,595.4149128,0.4337304,0.1085088,2.4536400000000005,0.0,0.0,0.0,0.0
12.280000000000001,596.1345456,-0.1085088,-0.3252216,2.3768304000000002,0.0,0.0,0.0,0.0
12.3,596.8505208,0.2709672,-0.37947600000000004,2.3768304000000002,0.0,0.0,0.0,0.0
12.32,597.5134608000001,0.1085088,-0.4337304,2.3768304000000002,0.0,0.0,0.0,0.0
12.34,598.2684504,-0.3252216,-0.5422392,2.5304496,0.0,0.0,0.0,0.0
12.36,598.9448016,0.0542544,0.2709672,2.683764,0.0,0.0,0.0,0.0
12.379999999999999,599.6848560000001,-0.37947600000000004,0.0542544,2.9135831999999997,0.0,0.0,0.0,0.0
12.399999999999999,600.3340800000001,-0.3252216,0.650748,2.7602688,0.0,0.0,0.0,0.0
12.419999999999998,600.9720264,-0.2709672,1.2469368,2.683764,0.0,0.0,0.0,0.0
12.440000000000001,601.717872,-0.0542544,0.9217152000000001,2.683764,0.0,0.0,0.0,0.0
12.46,602.3814216000001,-0.2709672,0.4879848,2.683764,0.0,0.0,0.0,0.0
12.48,603.0257688,-0.2709672,0.8132064000000001,2.3768304000000002,0.0,0.0,0.0,0.0
12.5,603.5969640000001,-0.2170176,0.9759696,2.4536400000000005,0.0,0.0,0.0,0.0
12.52,604.27362,0.0542544,0.8132064000000001,2.4536400000000005,0.0,0.0,0.0,0.0
12.54,605.0337912,-0.2709672,1.1387328,2.3768304000000002,0.0,0.0,0.0,0.0
12.559999999999999,605.7357456000001,-0.2709672,1.1387328,2.6069544000000002,0.0,0.0,0.0,0.0
12.579999999999998,606.3285816,0.1085088,1.1926824,2.1470112,0.0,0.0,0.0,0.0
12.600000000000001,607.083876,-0.1085088,1.0844784,2.3768304000000002,0.0,0.0,0.0,0.0
12.620000000000001,607.716336,0.16276320000000002,0.8132064000000001,2.1470112,0.0,0.0,0.0,0.0
12.64,608.3597688000001,-0.16276320000000002,0.5964936000000001,1.9936968000000002,0.0,0.0,0.0,0.0
12.66,608.9992392,0.16276320000000002,0.5964936000000001,1.9936968000000002,0.0,0.0,0.0,0.0
12.68,609.5847600000001,0.2170176,0.5422392,1.9936968000000002,0.0,0.0,0.0,0.0
12.7,610.1760720000001,0.9759696,1.3011912,1.9936968000000002,0.0,0.0,0.0,0.0
12.719999999999999,610.7365992,0.8132064000000001,1.3554456000000001,1.9936968000000002,0.0,0.0,0.0,0.0
12.739999999999998,611.2002,0.5964936000000001,1.1387328,1.9936968000000002,0.0,0.0,0.0,0.0
12.760000000000002,611.6619720000001,1.030224,-0.16276320000000002,1.6867632000000001,0.0,0.0,0.0,0.0
12.780000000000001,612.1972008,0.1085088,0.3252216,1.9936968000000002,0.0,0.0,0.0,0.0
12.8,612.7025592000001,0.4337304,0.3252216,1.9168872,0.0,0.0,0.0,0.0
12.82,613.0966656,0.7589520000000001,0.1085088,1.7635728,0.0,0.0,0.0,0.0
12.84,613.6297608,0.16276320000000002,0.37947600000000004,1.6102584000000002,0.0,0.0,0.0,0.0
12.86,614.1390816,0.3252216,0.0,1.9936968000000002,0.0,0.0,0.0,0.0
12.879999999999999,614.6788824,0.0542544,0.0542544,1.6102584000000002,0.0,0.0,0.0,0.0
12.899999999999999,615.2900064,-0.1085088,0.0,1.6867632000000001,0.0,0.0,0.0,0.0
12.919999999999998,615.9181992,-0.37947600000000004,0.16276320000000002,1.7635728,0.0,0.0,0.0,0.0
12.940000000000001,616.6616064000001,-0.2170176,0.1085088,1.8400776,0.0,0.0,0.0,0.0
12.96,617.415072,0.0542544,0.2709672,1.9168872,0.0,0.0,0.0,0.0
12.98,617.9594448,-0.0542544,-0.0542544,1.8400776,0.0,0.0,0.0,0.0
13.0,618.7083384,-0.2709672,0.2709672,1.9168872,0.0,0.0,0.0,0.0
13.02,619.4200464,-0.37947600000000004,0.4879848,1.7635728,0.0,0.0,0.0,0.0
13.04,620.1503472,-0.4337304,0.5422392,1.8400776,0.0,0.0,0.0,0.0
13.059999999999999,620.7767112,-0.16276320000000002,0.37947600000000004,1.6867632000000001,0.0,0.0,0.0,0.0
13.079999999999998,621.4823232,-0.3252216,0.5422392,1.6102584000000002,0.0,0.0,0.0,0.0
13.100000000000001,621.985548,-0.4337304,0.3252216,1.6867632000000001,0.0,0.0,0.0,0.0
13.120000000000001,622.5482088,-0.4879848,0.9217152000000001,1.6867632000000001,0.0,0.0,0.0,0.0
13.14,623.0026656,-0.3252216,0.7589520000000001,1.8400776,0.0,0.0,0.0,0.0
13.16,623.5174728000001,-0.4879848,0.8132064000000001,1.6102584000000002,0.0,0.0,0.0,0.0
13.18,624.0213072,-0.0542544,0.9217152000000001,1.7635728,0.0,0.0,0.0,0.0
13.2,624.5004528000001,-0.37947600000000004,0.8132064000000001,1.7635728,0.0,0.0,0.0,0.0
13.219999999999999,624.9753312,-0.16276320000000002,0.2709672,1.6867632000000001,0.0,0.0,0.0,0.0
13.239999999999998,625.3752288,-0.2709672,0.5964936000000001,1.6867632000000001,0.0,0.0,0.0,0.0
13.260000000000002,625.9592256000001,-0.8132064000000001,0.8132064000000001,1.6867632000000001,0.0,0.0,0.0,0.0
13.280000000000001,626.4398952000001,-0.3252216,0.8674608,1.6867632000000001,0.0,0.0,0.0,0.0
13.3,626.9495208,-0.16276320000000002,0.5964936000000001,1.4569440000000002,0.0,0.0,0.0,0.0
13.32,627.5572920000001,-0.5422392,0.650748,1.5334488,0.0,0.0,0.0,0.0
13.34,628.044972,-0.4879848,0.5964936000000001,1.4569440000000002,0.0,0.0,0.0,0.0
13.36,628.4665104000001,0.0542544,0.5964936000000001,1.5334488,0.0,0.0,0.0,0.0
13.379999999999999,629.0151504,-0.1085088,0.2170176,1.6102584000000002,0.0,0.0,0.0,0.0
13.399999999999999,629.4763128000001,-0.2170176,0.2170176,1.3801344,0.0,0.0,0.0,0.0
13.419999999999998,629.863104,-0.2709672,0.16276320000000002,1.3036296,0.0,0.0,0.0,0.0
13.440000000000001,630.2172816,0.1085088,0.2170176,1.3801344,0.0,0.0,0.0,0.0
13.46,630.6040728,-0.0542544,-0.0542544,1.2268200000000002,0.0,0.0,0.0,0.0
13.48,631.0408512,0.2170176,-0.1085088,1.2268200000000002,0.0,0.0,0.0,0.0
13.5,631.3340688000001,0.1085088,0.1085088,1.2268200000000002,0.0,0.0,0.0,0.0
13.52,631.730004,0.0,0.3252216,0.9201912000000001,0.0,0.0,0.0,0.0
13.54,632.0707704,0.2170176,0.1085088,0.7668768,0.0,0.0,0.0,0.0
13.559999999999999,632.4673152,0.1085088,0.2170176,1.2268200000000002,0.0,0.0,0.0,0.0
13.579999999999998,632.7529128000001,-0.37947600000000004,0.2709672,1.0735056,0.0,0.0,0.0,0.0
13.600000000000001,633.2149896,-0.37947600000000004,0.4879848,1.0735056,0.0,0.0,0.0,0.0
13.620000000000001,633.6752376000001,0.0,0.1085088,1.2268200000000002,0.0,0.0,0.0,0.0
13.64,634.0973855999999,0.1085088,0.3252216,1.2268200000000002,0.0,0.0,0.0,0.0
13.66,634.5381264000001,0.0,0.4337304,0.9201912000000001,0.0,0.0,0.0,0.0
13.68,635.0096520000001,-0.1085088,0.4337304,0.9201912000000001,0.0,0.0,0.0,0.0
13.7,635.6530848000001,-0.1085088,0.3252216,0.9201912000000001,0.0,0.0,0.0,0.0
13.719999999999999,636.1206480000001,0.2170176,0.4337304,0.6900672,0.0,0.0,0.0,0.0
13.739999999999998,636.6119856,0.16276320000000002,0.5964936000000001,0.7668768,0.0,0.0,0.0,0.0
13.760000000000002,636.9631152,0.0,0.650748,0.8433816000000001,0.0,0.0,0.0,0.0
13.780000000000001,637.5358344000001,0.1085088,0.3252216,0.8433816000000001,0.0,0.0,0.0,0.0
13.8,637.9494480000001,-0.2709672,0.2709672,0.8433816000000001,0.0,0.0,0.0,0.0
13.82,638.3490408,-0.1085088,0.0,0.6900672,0.0,0.0,0.0,0.0
13.84,638.7157152,-0.2170176,0.0,0.7668768,0.0,0.0,0.0,0.0
13.86,639.1140888000001,-0.5422392,-0.3252216,0.9201912000000001,0.0,0.0,0.0,0.0
13.879999999999999,639.5170344000001,-0.8132064000000001,0.0542544,0.8433816000000001,0.0,0.0,0.0,0.0
13.899999999999999,639.8510952000001,-0.5964936000000001,-0.16276320000000002,0.996696,0.0,0.0,0.0,0.0
13.919999999999998,640.2448968000001,-0.4879848,0.0542544,0.8433816000000001,0.0,0.0,0.0,0.0
13.940000000000001,640.6158384,-0.5964936000000001,-0.0542544,0.8433816000000001,0.0,0.0,0.0,0.0
13.96,640.9974480000001,-0.5422392,-0.1085088,0.8433816000000001,0.0,0.0,0.0,0.0
13.98,641.5631568,-0.8674608,-0.1085088,0.7668768,0.0,0.0,0.0,0.0
14.0,641.8286376000001,-0.4879848,0.0542544,0.6900672,0.0,0.0,0.0,0.0
14.02,642.0974712000001,-0.2709672,0.0542544,0.6135624,0.0,0.0,0.0,0.0
14.04,642.3943464,-0.2709672,0.0542544,0.6900672,0.0,0.0,0.0,0.0
14.059999999999999,642.7451712000001,-0.2709672,0.0542544,0.6135624,0.0,0.0,0.0,0.0
14.079999999999998,642.9603599999999,-0.37947600000000004,0.16276320000000002,0.6135624,0.0,0.0,0.0,0.0
14.100000000000001,643.1856071999999,-0.4879848,0.16276320000000002,0.6135624,0.0,0.0,0.0,0.0
14.120000000000001,643.4574888000001,-0.37947600000000004,-0.0542544,0.6135624,0.0,0.0,0.0,0.0
14.14,643.8589104000001,-0.16276320000000002,-0.0542544,0.6900672,0.0,0.0,0.0,0.0
14.16,644.136888,-0.16276320000000002,0.2709672,0.3834384,0.0,0.0,0.0,0.0
14.18,644.4200472,-0.16276320000000002,0.37947600000000004,0.6135624,0.0,0.0,0.0,0.0
14.2,644.802876,-0.0542544,0.2709672,0.4599432,0.0,0.0,0.0,0.0
14.219999999999999,645.0668328,0.2170176,0.7589520000000001,0.3834384,0.0,0.0,0.0,0.0
14.239999999999998,645.3975408,0.0,0.4337304,0.4599432,0.0,0.0,0.0,0.0
14.260000000000002,645.7422696000001,0.0542544,0.7046976,0.3834384,0.0,0.0,0.0,0.0
14.280000000000001,646.1281464,-0.0542544,0.4879848,0.30662880000000003,0.0,0.0,0.0,0.0
14.3,646.468608,0.1085088,0.5422392,0.6135624,0.0,0.0,0.0,0.0
14.32,646.828272,-0.3252216,0.650748,0.4599432,0.0,0.0,0.0,0.0
14.34,647.0955816,-0.2709672,0.5964936000000001,0.4599432,0.0,0.0,0.0,0.0
14.36,647.443968,-0.37947600000000004,0.7046976,0.6900672,0.0,0.0,0.0,0.0
14.379999999999999,647.7667512,-0.3252216,0.7589520000000001,0.3834384,0.0,0.0,0.0,0.0
14.399999999999999,648.0685032,-0.4879848,0.4879848,0.3834384,0.0,0.0,0.0,0.0
14.419999999999998,648.4900416,-0.4879848,0.37947600000000004,0.30662880000000003,0.0,0.0,0.0,0.0
14.440000000000001,648.8100816,-0.650748,0.3252216,0.30662880000000003,0.0,0.0,0.0,0.0
14.46,649.0572744,-0.5422392,0.2170176,0.23012400000000002,0.0,0.0,0.0,0.0
14.48,649.3011144000001,-0.4337304,0.0,0.15331440000000002,0.0,0.0,0.0,0.0
14.5,649.5644616000001,-0.5964936000000001,0.2709672,0.23012400000000002,0.0,0.0,0.0,0.0
14.52,649.8524976,-0.4879848,0.0542544,0.23012400000000002,0.0,0.0,0.0,0.0
14.54,650.0899368,-0.2709672,-0.0542544,-0.0768096,0.0,0.0,0.0,0.0
14.559999999999999,650.3420064000001,-0.5964936000000001,-0.0542544,0.30662880000000003,0.0,0.0,0.0,0.0
14.579999999999998,650.5791408,-0.5964936000000001,-0.0542544,0.23012400000000002,0.0,0.0,0.0,0.0
14.600000000000001,650.7873192,-0.5422392,-0.1085088,0.0768096,0.0,0.0,0.0,0.0
14.620000000000001,650.982696,-0.2170176,0.2170176,0.0768096,0.0,0.0,0.0,0.0
14.64,651.15948,-0.4879848,-0.0542544,0.0,0.0,0.0,0.0,0.0
14.66,651.3649152,-0.2170176,0.0,0.0768096,0.0,0.0,0.0,0.0
14.68,651.5810184000001,-0.1085088,-0.3252216,0.23012400000000002,0.0,0.0,0.0,0.0
14.7,651.8007792000001,-0.2709672,0.0542544,0.23012400000000002,0.0,0.0,0.0,0.0
