time,baro_altitude,accl_x,accl_y,accl_z,gps_altitude,gyro_roll,gyro_pitch,gyro_yaw
0.0,0.0,6.668719200000001,0.9217152000000001,7.2841104,0.0,0.0,0.0,0.0
0.020000000000000018,-0.0932688,6.777228,1.1387328,7.2076056,0.0,0.0,0.0,0.0
0.040000000000000036,-0.16855440000000002,6.668719200000001,0.9217152000000001,7.2076056,0.0,0.0,0.0,0.0
0.06000000000000005,-0.26182320000000003,6.668719200000001,0.9217152000000001,7.130796,0.0,0.0,0.0,0.0
0.08000000000000007,-0.16764,6.777228,0.9217152000000001,7.2841104,0.0,0.0,0.0,0.0
0.10000000000000009,-0.224028,6.668719200000001,1.030224,7.2076056,0.0,0.0,0.0,0.0
0.1200000000000001,-0.21518879999999999,6.668719200000001,1.030224,7.2076056,0.0,0.0,0.0,0.0
0.14000000000000012,-0.25481280000000006,6.777228,0.9217152000000001,7.130796,0.0,0.0,0.0,0.0
0.16000000000000014,-0.2679192,6.668719200000001,1.030224,7.2076056,0.0,0.0,0.0,0.0
0.17999999999999972,-0.01158240000000001,6.668719200000001,0.9217152000000001,7.2076056,0.0,0.0,0.0,0.0
0.19999999999999973,-0.1374648,6.668719200000001,1.1387328,7.130796,0.0,0.0,0.0,0.0
0.21999999999999975,0.04267200000000001,6.7229735999999995,0.9759696,7.2076056,0.0,0.0,0.0,0.0
0.23999999999999977,0.11612879999999999,6.7229735999999995,0.9759696,7.2076056,0.0,0.0,0.0,0.0
0.2599999999999998,0.0381,6.7229735999999995,0.9759696,7.2076056,0.0,0.0,0.0,0.0
0.2799999999999998,0.0527304,6.7229735999999995,0.9759696,7.2841104,0.0,0.0,0.0,0.0
0.2999999999999998,0.07924799999999999,6.8314824000000005,0.9759696,7.130796,0.0,0.0,0.0,0.0
0.31999999999999984,0.08046719999999999,6.777228,0.9217152000000001,7.2076056,0.0,0.0,0.0,0.0
0.33999999999999986,0.1255776,6.8314824000000005,0.9759696,7.130796,0.0,0.0,0.0,0.0
0.3599999999999999,-0.022860000000000005,6.668719200000001,0.9217152000000001,7.2076056,0.0,0.0,0.0,0.0
0.3799999999999999,-0.01036320000000001,6.777228,0.9217152000000001,7.2076056,0.0,0.0,0.0,0.0
0.3999999999999999,-0.016763999999999998,6.8314824000000005,0.8674608,7.130796,0.0,0.0,0.0,0.0
0.41999999999999993,-0.08808720000000002,6.777228,0.9217152000000001,7.2076056,0.0,0.0,0.0,0.0
0.43999999999999995,-0.09418320000000001,6.7229735999999995,1.0844784,7.2076056,0.0,0.0,0.0,0.0
0.45999999999999996,-0.146304,6.777228,0.9217152000000001,7.2076056,0.0,0.0,0.0,0.0
0.48,-0.283464,6.7229735999999995,0.9759696,7.130796,0.0,0.0,0.0,0.0
0.5,-0.2889504,6.777228,0.9217152000000001,7.2076056,0.0,0.0,0.0,0.0
0.52,-0.32064960000000003,6.668719200000001,0.9217152000000001,7.2076056,0.0,0.0,0.0,0.0
0.54,-0.40416480000000005,6.668719200000001,0.9217152000000001,7.2076056,0.0,0.0,0.0,0.0
0.56,-0.33162240000000004,6.7229735999999995,0.9759696,7.2076056,0.0,0.0,0.0,0.0
0.5800000000000001,-0.301752,6.777228,1.030224,7.130796,0.0,0.0,0.0,0.0
0.6000000000000001,-0.28956,6.668719200000001,1.1387328,7.130796,0.0,0.0,0.0,0.0
0.6200000000000001,-0.3590544,6.777228,0.9217152000000001,7.130796,0.0,0.0,0.0,0.0
0.6400000000000001,-0.37703760000000003,6.7229735999999995,0.9759696,7.2076056,0.0,0.0,0.0,0.0
0.6600000000000001,-0.23835360000000003,6.7229735999999995,0.9759696,7.2076056,0.0,0.0,0.0,0.0
0.6799999999999997,0.07162800000000001,6.777228,1.030224,7.2076056,0.0,0.0,0.0,0.0
0.6999999999999997,0.0316992,6.7229735999999995,0.9759696,7.2076056,0.0,0.0,0.0,0.0
0.7199999999999998,0.1267968,6.7229735999999995,0.9759696,7.2076056,0.0,0.0,0.0,0.0
0.7399999999999998,0.17800320000000003,6.7229735999999995,0.9759696,7.130796,0.0,0.0,0.0,0.0
0.7599999999999998,0.06126480000000001,6.777228,1.030224,7.2841104,0.0,0.0,0.0,0.0
0.7799999999999998,0.044805599999999994,6.777228,0.8132064000000001,7.2076056,0.0,0.0,0.0,0.0
0.7999999999999998,-0.039014400000000005,6.668719200000001,0.9217152000000001,7.2076056,0.0,0.0,0.0,0.0
0.8199999999999998,-0.24018240000000002,6.668719200000001,0.9217152000000001,7.2076056,0.0,0.0,0.0,0.0
0.8399999999999999,-0.18531840000000005,6.668719200000001,1.030224,7.2076056,0.0,0.0,0.0,0.0
0.8599999999999999,-0.10607040000000001,6.614769600000001,0.9759696,7.2076056,0.0,0.0,0.0,0.0
0.8799999999999999,-0.00975360000000001,6.668719200000001,1.030224,7.2076056,0.0,0.0,0.0,0.0
0.8999999999999999,-0.050596800000000004,6.668719200000001,0.9217152000000001,7.2076056,0.0,0.0,0.0,0.0
0.9199999999999999,-0.06858000000000002,6.777228,1.030224,7.2841104,0.0,0.0,0.0,0.0
0.94,-0.08290560000000001,6.777228,1.030224,7.2076056,0.0,0.0,0.0,0.0
0.96,-0.19232880000000002,6.777228,1.030224,7.2841104,0.0,0.0,0.0,0.0
0.98,-0.013716000000000013,6.777228,1.030224,7.2076056,0.0,0.0,0.0,0.0
1.0,-0.037185600000000006,6.7229735999999995,0.9759696,7.2076056,0.0,0.0,0.0,0.0
1.02,-0.10637520000000002,6.7229735999999995,0.9759696,7.2076056,0.0,0.0,0.0,0.0
1.04,-0.21000720000000003,6.7229735999999995,0.9759696,7.130796,0.0,0.0,0.0,0.0
1.06,-0.20756880000000003,6.7229735999999995,0.9759696,7.2841104,0.0,0.0,0.0,0.0
1.08,-0.021336000000000004,6.614769600000001,0.9759696,7.130796,0.0,0.0,0.0,0.0
1.1,-0.2526792,6.668719200000001,1.030224,7.2076056,0.0,0.0,0.0,0.0
1.12,-0.16977360000000002,6.668719200000001,1.030224,7.2076056,0.0,0.0,0.0,0.0
1.1400000000000001,-0.21610320000000002,6.777228,1.030224,7.2076056,0.0,0.0,0.0,0.0
1.1600000000000001,-0.021031200000000003,6.777228,0.9217152000000001,7.130796,0.0,0.0,0.0,0.0
1.1799999999999997,-0.09753600000000001,6.7229735999999995,0.9759696,7.2076056,0.0,0.0,0.0,0.0
1.1999999999999997,-0.1591056,6.668719200000001,1.030224,7.2076056,0.0,0.0,0.0,0.0
1.2199999999999998,-0.339852,6.7229735999999995,0.9759696,7.2841104,0.0,0.0,0.0,0.0
1.2399999999999998,-0.4956048,6.777228,0.9217152000000001,7.130796,0.0,0.0,0.0,0.0
1.2599999999999998,-0.5949696,6.7229735999999995,0.9759696,7.2841104,0.0,0.0,0.0,0.0
1.2799999999999998,-0.4002024,6.777228,1.030224,7.130796,0.0,0.0,0.0,0.0
1.2999999999999998,-0.48768,6.777228,1.030224,7.130796,0.0,0.0,0.0,0.0
1.3199999999999998,-0.4514088,6.8314824000000005,1.0844784,7.2076056,0.0,0.0,0.0,0.0
1.3399999999999999,-0.3355848,6.7229735999999995,0.9759696,7.130796,0.0,0.0,0.0,0.0
1.3599999999999999,-0.0765048,6.777228,0.9217152000000001,7.2841104,0.0,0.0,0.0,0.0
1.38,-0.006705600000000006,6.777228,0.9217152000000001,7.2076056,0.0,0.0,0.0,0.0
1.4,0.06096000000000001,6.7229735999999995,0.9759696,7.2076056,0.0,0.0,0.0,0.0
1.42,0.10728960000000001,6.8314824000000005,0.9759696,7.130796,0.0,0.0,0.0,0.0
1.44,0.052425599999999996,6.777228,1.030224,7.130796,0.0,0.0,0.0,0.0
1.46,0.265176,6.7229735999999995,0.9759696,7.130796,0.0,0.0,0.0,0.0
1.48,0.17617440000000004,6.777228,1.030224,7.130796,0.0,0.0,0.0,0.0
1.5,0.12954000000000002,6.7229735999999995,0.9759696,7.130796,0.0,0.0,0.0,0.0
1.52,0.102108,6.777228,1.030224,7.130796,0.0,0.0,0.0,0.0
1.54,-0.008229600000000007,6.668719200000001,1.030224,7.130796,0.0,0.0,0.0,0.0
1.56,-0.1975104,6.7229735999999995,1.0844784,7.2076056,0.0,0.0,0.0,0.0
1.58,-0.1155192,6.668719200000001,1.030224,7.130796,0.0,0.0,0.0,0.0
1.6,-0.0987552,6.777228,0.9217152000000001,7.2076056,0.0,0.0,0.0,0.0
1.62,-0.1331976,6.777228,0.9217152000000001,7.2076056,0.0,0.0,0.0,0.0
1.6400000000000001,-0.27432,6.7229735999999995,0.9759696,7.2076056,0.0,0.0,0.0,0.0
1.6600000000000001,-0.19903440000000003,6.777228,0.9217152000000001,7.2841104,0.0,0.0,0.0,0.0
1.6799999999999997,-0.2182368,6.777228,1.030224,7.2076056,0.0,0.0,0.0,0.0
1.6999999999999997,-0.19659600000000002,6.668719200000001,1.030224,7.130796,0.0,0.0,0.0,0.0
1.7199999999999998,-0.11033760000000001,6.668719200000001,1.030224,7.2076056,0.0,0.0,0.0,0.0
1.7399999999999998,-0.12283440000000001,6.777228,1.030224,7.130796,0.0,0.0,0.0,0.0
1.7599999999999998,-0.16398240000000003,6.885736800000001,0.9217152000000001,7.2076056,0.0,0.0,0.0,0.0
1.7799999999999998,-0.21183600000000002,6.777228,0.9217152000000001,7.0542912,0.0,0.0,0.0,0.0
1.7999999999999998,-0.1161288,6.777228,1.030224,7.2076056,0.0,0.0,0.0,0.0
1.8199999999999998,-0.2874264,6.777228,0.9217152000000001,7.2076056,0.0,0.0,0.0,0.0
1.8399999999999999,-0.38770560000000004,6.777228,1.030224,7.2076056,0.0,0.0,0.0,0.0
1.8599999999999999,-0.31242,6.777228,0.9217152000000001,7.130796,0.0,0.0,0.0,0.0
1.88,-0.4642104,6.614769600000001,0.9759696,7.0542912,0.0,0.0,0.0,0.0
1.9,-0.42885360000000006,6.7229735999999995,0.8674608,7.2841104,0.0,0.0,0.0,0.0
1.92,-0.23042880000000002,6.777228,0.9217152000000001,7.2076056,0.0,0.0,0.0,0.0
1.94,-0.17099280000000003,6.777228,1.1387328,7.130796,0.0,0.0,0.0,0.0
1.96,-0.2066544,6.777228,0.9217152000000001,7.2841104,0.0,0.0,0.0,0.0
1.98,-0.037185600000000006,6.7229735999999995,0.9759696,7.2076056,0.0,0.0,0.0,0.0
2.0,-0.007010400000000007,6.777228,1.030224,7.2076056,0.0,0.0,0.0,0.0
2.02,0.14447520000000003,6.668719200000001,1.030224,7.2841104,0.0,0.0,0.0,0.0
2.04,-0.10424160000000002,6.7229735999999995,0.9759696,7.130796,0.0,0.0,0.0,0.0
2.0599999999999996,-0.2081784,6.668719200000001,0.9217152000000001,7.130796,0.0,0.0,0.0,0.0
2.08,-0.1426464,6.8314824000000005,0.9759696,7.2076056,0.0,0.0,0.0,0.0
2.0999999999999996,0.12192,6.777228,0.9217152000000001,7.130796,0.0,0.0,0.0,0.0
2.12,0.1289304,6.7229735999999995,0.9759696,7.130796,0.0,0.0,0.0,0.0
2.1399999999999997,0.11186159999999999,6.8314824000000005,0.9759696,7.2076056,0.0,0.0,0.0,0.0
2.16,0.17526,6.7229735999999995,0.9759696,7.130796,0.0,0.0,0.0,0.0
2.1799999999999997,0.10241280000000001,6.8314824000000005,0.9759696,7.2841104,0.0,0.0,0.0,0.0
2.2,0.18836639999999996,6.7229735999999995,1.0844784,7.2076056,0.0,0.0,0.0,0.0
2.2199999999999998,0.07071360000000002,6.8314824000000005,0.9759696,7.2841104,0.0,0.0,0.0,0.0
2.24,0.022860000000000005,6.777228,1.030224,7.130796,0.0,0.0,0.0,0.0
2.26,-0.0164592,6.7229735999999995,1.0844784,7.2076056,0.0,0.0,0.0,0.0
2.2800000000000002,-0.0804672,6.7229735999999995,0.9759696,7.130796,0.0,0.0,0.0,0.0
2.3,-0.0795528,6.7229735999999995,1.0844784,7.2076056,0.0,0.0,0.0,0.0
2.32,-0.2090928,6.7229735999999995,0.9759696,7.2076056,0.0,0.0,0.0,0.0
2.34,-0.4062984,6.614769600000001,0.8674608,7.2076056,0.0,0.0,0.0,0.0
2.36,-0.45567599999999997,6.668719200000001,1.030224,7.2841104,0.0,0.0,0.0,0.0
2.38,-0.38496240000000004,6.7229735999999995,0.9759696,7.2841104,0.0,0.0,0.0,0.0
2.4,-0.20543519999999998,6.885736800000001,1.030224,7.130796,0.0,0.0,0.0,0.0
2.42,-0.0740664,6.7229735999999995,0.9759696,7.2076056,0.0,0.0,0.0,0.0
2.44,-0.11856720000000001,6.777228,1.030224,7.2076056,0.0,0.0,0.0,0.0
2.46,-0.0377952,6.777228,1.030224,7.130796,0.0,0.0,0.0,0.0
2.48,0.025298399999999988,6.7229735999999995,0.9759696,7.2076056,0.0,0.0,0.0,0.0
2.5,0.17129760000000002,6.8314824000000005,0.9759696,7.130796,0.0,0.0,0.0,0.0
2.52,0.10119360000000001,6.777228,0.9217152000000001,7.2076056,0.0,0.0,0.0,0.0
2.54,-0.025908000000000007,6.7229735999999995,0.9759696,7.130796,0.0,0.0,0.0,0.0
2.5599999999999996,0.0024384000000000025,6.8314824000000005,0.8674608,7.130796,0.0,0.0,0.0,0.0
2.58,-0.0749808,6.777228,1.030224,7.2076056,0.0,0.0,0.0,0.0
2.5999999999999996,-0.1542288,6.777228,1.030224,7.2076056,0.0,0.0,0.0,0.0
2.62,-0.034442400000000005,6.777228,1.030224,7.2076056,0.0,0.0,0.0,0.0
2.6399999999999997,-0.10515600000000001,6.7229735999999995,0.9759696,7.2076056,0.0,0.0,0.0,0.0
2.66,-0.0283464,6.777228,0.9217152000000001,7.130796,0.0,0.0,0.0,0.0
2.6799999999999997,-0.0676656,6.777228,0.9217152000000001,7.130796,0.0,0.0,0.0,0.0
2.7,0.0326136,6.668719200000001,1.030224,7.2076056,0.0,0.0,0.0,0.0
2.7199999999999998,-0.0697992,6.668719200000001,1.030224,7.2076056,0.0,0.0,0.0,0.0
2.74,-0.1524,6.7229735999999995,0.9759696,7.2076056,0.0,0.0,0.0,0.0
2.76,-0.1825752,6.668719200000001,1.030224,7.2841104,0.0,0.0,0.0,0.0
2.7800000000000002,-0.022250400000000004,6.7229735999999995,0.9759696,7.2076056,0.0,0.0,0.0,0.0
2.8,0.0054863999999999885,6.668719200000001,0.9217152000000001,7.2076056,0.0,0.0,0.0,0.0
2.82,-0.0399288,6.7229735999999995,0.9759696,7.2841104,0.0,0.0,0.0,0.0
2.84,0.039319200000000006,6.777228,0.9217152000000001,7.130796,0.0,0.0,0.0,0.0
2.86,0.0344424,6.614769600000001,0.9759696,7.2841104,0.0,0.0,0.0,0.0
2.88,0.04663439999999999,6.777228,1.030224,7.130796,0.0,0.0,0.0,0.0
2.9,0.0362712,6.7229735999999995,0.9759696,7.2076056,0.0,0.0,0.0,0.0
2.92,-0.08961120000000002,6.7229735999999995,0.9759696,7.130796,0.0,0.0,0.0,0.0
2.94,-0.023469600000000004,6.777228,0.9217152000000001,7.2076056,0.0,0.0,0.0,0.0
2.96,0.045110399999999995,6.885736800000001,0.9217152000000001,7.2076056,0.0,0.0,0.0,0.0
2.98,-0.0493776,6.7229735999999995,1.0844784,7.2076056,0.0,0.0,0.0,0.0
3.0,0.07345679999999999,6.7229735999999995,0.9759696,7.2841104,0.0,0.0,0.0,0.0
3.02,-0.012192000000000012,6.7229735999999995,0.9759696,7.2841104,0.0,0.0,0.0,0.0
3.04,0.11673839999999999,6.885736800000001,1.030224,7.2841104,0.0,0.0,0.0,0.0
3.06,0.06736080000000001,6.777228,0.9217152000000001,7.2076056,0.0,0.0,0.0,0.0
3.08,0.09418320000000001,6.777228,1.030224,7.2076056,0.0,0.0,0.0,0.0
3.1,0.028955999999999992,6.668719200000001,1.030224,7.2076056,0.0,0.0,0.0,0.0
3.12,-0.022860000000000005,6.7229735999999995,0.9759696,7.130796,0.0,0.0,0.0,0.0
3.1399999999999997,-0.11247120000000001,6.668719200000001,1.030224,7.2076056,0.0,0.0,0.0,0.0
3.16,-0.16398240000000003,6.668719200000001,1.030224,7.130796,0.0,0.0,0.0,0.0
3.1799999999999997,-0.08625840000000001,6.614769600000001,0.9759696,7.2076056,0.0,0.0,0.0,0.0
3.2,-0.10393680000000001,6.777228,0.9217152000000001,7.0542912,0.0,0.0,0.0,0.0
3.2199999999999998,0.033527999999999995,6.7229735999999995,1.0844784,7.130796,0.0,0.0,0.0,0.0
3.2399999999999998,0.059436,6.777228,0.9217152000000001,7.2076056,0.0,0.0,0.0,0.0
3.26,-0.019812000000000003,6.614769600000001,0.8674608,7.130796,0.0,0.0,0.0,0.0
3.28,0.06461760000000001,6.777228,1.030224,7.2076056,0.0,0.0,0.0,0.0
3.3,-0.06705600000000002,6.8314824000000005,0.9759696,7.2076056,0.0,0.0,0.0,0.0
3.32,-0.08930640000000002,6.7229735999999995,0.9759696,7.0542912,0.0,0.0,0.0,0.0
3.34,-0.006400800000000006,6.8314824000000005,1.0844784,7.2076056,0.0,0.0,0.0,0.0
3.36,-0.05638800000000001,6.7229735999999995,0.9759696,7.2076056,0.0,0.0,0.0,0.0
3.38,-0.16002000000000002,6.8314824000000005,0.9759696,7.2076056,0.0,0.0,0.0,0.0
3.4,-0.009448800000000009,6.7229735999999995,1.0844784,7.130796,0.0,0.0,0.0,0.0
3.42,-0.08808720000000002,6.7229735999999995,1.0844784,7.2076056,0.0,0.0,0.0,0.0
3.44,-0.0338328,6.777228,1.030224,7.130796,0.0,0.0,0.0,0.0
3.46,0.026517599999999992,6.777228,1.030224,7.2076056,0.0,0.0,0.0,0.0
3.48,0.00731519999999999,6.8314824000000005,0.9759696,7.2076056,0.0,0.0,0.0,0.0
3.5,0.1395984,6.668719200000001,1.030224,7.2076056,0.0,0.0,0.0,0.0
3.52,-0.005791200000000005,6.7229735999999995,0.9759696,7.2841104,0.0,0.0,0.0,0.0
3.54,-0.0911352,6.7229735999999995,0.9759696,7.2076056,0.0,0.0,0.0,0.0
3.56,-0.23957280000000003,6.7229735999999995,0.9759696,7.2841104,0.0,0.0,0.0,0.0
3.58,-0.15605760000000002,6.8314824000000005,0.9759696,7.130796,0.0,0.0,0.0,0.0
3.6,-0.08564880000000001,6.7229735999999995,0.9759696,7.2076056,0.0,0.0,0.0,0.0
3.62,-0.04511040000000001,6.8314824000000005,0.9759696,7.2076056,0.0,0.0,0.0,0.0
3.6399999999999997,-0.029870400000000002,6.7229735999999995,0.8674608,7.0542912,0.0,0.0,0.0,0.0
3.66,-0.1167384,6.777228,1.030224,7.2076056,0.0,0.0,0.0,0.0
3.6799999999999997,-0.16885920000000001,6.7229735999999995,0.9759696,7.130796,0.0,0.0,0.0,0.0
3.6999999999999997,-0.224028,6.7229735999999995,0.9759696,7.2076056,0.0,0.0,0.0,0.0
3.7199999999999998,-0.2816352,6.8314824000000005,0.9759696,7.130796,0.0,0.0,0.0,0.0
3.7399999999999998,-0.2721864,6.8314824000000005,0.9759696,7.130796,0.0,0.0,0.0,0.0
3.76,-0.21183600000000002,6.777228,1.030224,7.2076056,0.0,0.0,0.0,0.0
3.78,-0.2596896,6.777228,1.030224,7.2841104,0.0,0.0,0.0,0.0
3.8,-0.1789176,6.8314824000000005,0.9759696,7.2076056,0.0,0.0,0.0,0.0
3.82,-0.030784800000000005,6.668719200000001,1.030224,7.2076056,0.0,0.0,0.0,0.0
3.84,0.102108,6.7229735999999995,0.9759696,7.130796,0.0,0.0,0.0,0.0
3.86,0.07010400000000001,6.668719200000001,0.9217152000000001,7.2841104,0.0,0.0,0.0,0.0
3.88,-0.092964,6.668719200000001,1.030224,7.2841104,0.0,0.0,0.0,0.0
3.9,-0.010058400000000009,6.7229735999999995,0.9759696,7.2076056,0.0,0.0,0.0,0.0
3.92,-0.11033760000000001,6.777228,1.030224,7.130796,0.0,0.0,0.0,0.0
3.94,0.0874776,6.777228,0.9217152000000001,7.2076056,0.0,0.0,0.0,0.0
3.96,0.009448799999999992,6.397752,0.0,7.36092,0.0,0.0,0.0,0.0
3.98,-0.10241280000000001,11.76528,0.37947600000000004,11.1181896,0.0,0.0,0.0,0.0
4.0,1.1225784,26.7836904,2.6023824,25.763220000000004,0.0,0.0,0.0,0.0
4.02,4.8554640000000004,63.218568000000005,10.193121600000001,108.6502272,0.0,0.0,0.0,0.0
4.04,6.0393072,146.4978528,4.3376088,97.9922856,0.0,0.0,0.0,0.0
4.06,3.9264336,82.4660784,-23.4766104,32.9708256,0.0,0.0,0.0,0.0
4.08,1.8809208000000002,96.40001040000001,-36.326368800000004,44.7022728,0.0,0.0,0.0,0.0
4.1,-0.0768096,100.79187360000002,-33.018984,46.235721600000005,0.0,0.0,0.0,0.0
4.12,-1.7010888,101.93030159999999,-23.6390688,55.3602144,0.0,0.0,0.0,0.0
4.14,-2.8855416000000003,99.5449368,-28.735629600000003,47.9227896,0.0,0.0,0.0,0.0
4.16,-3.6429696000000003,95.6410584,-24.832056,42.248632799999996,0.0,0.0,0.0,0.0
4.18,-4.256532,93.5809152,-30.9042816,41.71188,0.0,0.0,0.0,0.0
4.2,-4.332427200000001,104.80395600000001,-34.8624144,46.0059024,0.0,0.0,0.0,0.0
4.22,-4.1489376,99.2736648,-23.368101600000003,50.6062488,0.0,0.0,0.0,0.0
4.24,-4.0011096,101.225604,-30.199584,47.1559128,0.0,0.0,0.0,0.0
4.26,-3.7938456,100.19538000000001,-29.494886400000002,46.849284000000004,0.0,0.0,0.0,0.0
4.28,-3.5698176,98.67717120000002,-30.796077600000004,46.0059024,0.0,0.0,0.0,0.0
4.3,-3.1671768,100.30388880000001,-29.820108,45.62246400000001,0.0,0.0,0.0,0.0
4.32,-2.6865072000000003,101.17134960000001,-29.061156,44.855587199999995,0.0,0.0,0.0,0.0
4.34,-2.2640544,99.5449368,-29.061156,45.4691496,0.0,0.0,0.0,0.0
4.36,-2.0692872,100.19538000000001,-28.193390400000002,45.0089016,0.0,0.0,0.0,0.0
4.38,-1.7013936,99.05695200000001,-28.030932000000004,43.32213840000001,0.0,0.0,0.0,0.0
4.4,-1.488948,101.225604,-27.054962400000004,43.7055768,0.0,0.0,0.0,0.0
4.42,-0.99822,99.92441280000001,-25.3200408,42.5552616,0.0,0.0,0.0,0.0
4.4399999999999995,-0.8540496000000001,100.84612800000001,-23.856086400000002,43.7055768,0.0,0.0,0.0,0.0
4.46,-0.4660392,101.8760472,-23.9103408,43.2453288,0.0,0.0,0.0,0.0
4.48,-0.318516,103.93649520000001,-24.8863104,45.085711200000006,0.0,0.0,0.0,0.0
4.5,-0.1335024,103.8279864,-26.0789928,46.1592168,0.0,0.0,0.0,0.0
4.52,0.031089599999999995,105.40044960000002,-25.6995168,46.4658456,0.0,0.0,0.0,0.0
4.54,0.24444960000000002,102.8520168,-27.8139144,44.5489584,0.0,0.0,0.0,0.0
4.56,0.5623560000000001,103.3400016,-30.036820800000005,45.545654400000004,0.0,0.0,0.0,0.0
4.58,0.9439656000000001,103.12328880000001,-31.772047200000003,44.0122056,0.0,0.0,0.0,0.0
4.6,1.0613136,103.6112736,-31.934505600000005,43.01550960000001,0.0,0.0,0.0,0.0
4.62,1.4471904000000002,101.71358880000001,-30.9042816,40.8684984,0.0,0.0,0.0,0.0
4.64,1.8967704,102.4182864,-28.789884,40.1016216,0.0,0.0,0.0,0.0
4.66,2.3289768,101.27985840000001,-29.061156,38.721487200000006,0.0,0.0,0.0,0.0
4.68,2.7255216,103.0690344,-30.091075200000002,39.028116,0.0,0.0,0.0,0.0
4.7,3.2089344000000004,103.12328880000001,-29.494886400000002,39.8718024,0.0,0.0,0.0,0.0
4.72,3.9050976,99.32791920000001,-30.2538384,40.1784312,0.0,0.0,0.0,0.0
4.74,4.384548000000001,103.44851040000002,-25.157277600000004,41.4052512,0.0,0.0,0.0,0.0
4.76,4.819192800000001,103.7194776,-22.0669104,42.938700000000004,0.0,0.0,0.0,0.0
4.78,5.1697128,104.85821040000002,-26.6754864,43.398643199999995,0.0,0.0,0.0,0.0
4.8,5.467807199999999,101.17134960000001,-24.723547200000002,39.488364000000004,0.0,0.0,0.0,0.0
4.82,5.6933592,103.93649520000001,-27.380184,37.3413528,0.0,0.0,0.0,0.0
4.84,6.262116,106.0508928,-28.3018992,35.5009704,0.0,0.0,0.0,0.0
4.859999999999999,6.8537327999999995,103.66552800000001,-33.181747200000004,34.0443312,0.0,0.0,0.0,0.0
4.88,7.6251816,104.7497016,-34.3744296,34.6575888,0.0,0.0,0.0,0.0
4.9,8.2841592,101.3880624,-33.181747200000004,33.5840832,0.0,0.0,0.0,0.0
4.92,9.0303096,103.17754320000002,-32.368235999999996,32.4340728,0.0,0.0,0.0,0.0
4.9399999999999995,9.9069144,105.183432,-31.772047200000003,30.440376000000004,0.0,0.0,0.0,0.0
4.96,10.744809600000002,105.183432,-29.061156,35.9612184,0.0,0.0,0.0,0.0
4.98,11.448288000000002,105.2376864,-26.837944800000002,39.1814304,0.0,0.0,0.0,0.0
5.0,12.105132000000001,100.14112560000001,-25.211532000000002,38.4148584,0.0,0.0,0.0,0.0
5.02,12.8713992,99.11090159999999,-27.976677600000002,40.8684984,0.0,0.0,0.0,0.0
5.04,13.474293600000001,104.7497016,-27.976677600000002,38.4148584,0.0,0.0,0.0,0.0
5.06,14.2429992,103.12328880000001,-36.326368800000004,35.2711512,0.0,0.0,0.0,0.0
5.08,15.011704800000002,101.3880624,-31.8802512,31.590691200000002,0.0,0.0,0.0,0.0
5.1,15.693237600000002,100.35814320000001,-34.1031576,28.216860000000004,0.0,0.0,0.0,0.0
5.12,16.7009064,97.1592672,-34.916668800000004,28.370174400000003,0.0,0.0,0.0,0.0
5.14,17.615611200000004,98.67717120000002,-32.205777600000005,36.6512856,0.0,0.0,0.0,0.0
5.16,18.5187336,96.3460608,-28.247644800000003,37.3413528,0.0,0.0,0.0,0.0
5.18,19.374612000000003,93.68911920000001,-34.157412,37.417857600000005,0.0,0.0,0.0,0.0
5.2,20.092416,88.86383040000001,-29.3321232,38.874801600000005,0.0,0.0,0.0,0.0
5.22,20.8486248,89.51427360000001,-30.850332,38.261544,0.0,0.0,0.0,0.0
5.24,21.6197688,95.85807600000001,-34.157412,28.2936696,0.0,0.0,0.0,0.0
5.26,22.336963200000003,95.31583680000001,-27.759660000000004,24.766524,0.0,0.0,0.0,0.0
5.28,23.211129600000003,98.40620400000002,-29.115105600000003,28.2936696,0.0,0.0,0.0,0.0
5.3,24.09444,93.47240640000001,-22.2293688,32.6641968,0.0,0.0,0.0,0.0
5.32,24.982322400000005,86.2071936,-26.349960000000003,39.028116,0.0,0.0,0.0,0.0
5.34,25.822351200000004,84.0382368,-33.615477600000006,32.510577600000005,0.0,0.0,0.0,0.0
5.359999999999999,26.706576000000002,90.1650216,-29.006901600000003,26.299972800000003,0.0,0.0,0.0,0.0
5.38,27.674316,87.5083848,-25.9162296,26.453287200000002,0.0,0.0,0.0,0.0
5.4,28.624377600000003,91.7374848,-21.1451952,29.44368,0.0,0.0,0.0,0.0
5.42,29.5399968,85.990176,-19.0847472,33.2009496,0.0,0.0,0.0,0.0
5.4399999999999995,30.5269392,81.8695848,-26.566977600000005,30.7473096,0.0,0.0,0.0,0.0
5.46,31.467247200000003,81.5986176,-26.2960104,28.2936696,0.0,0.0,0.0,0.0
5.48,32.5687944,65.92945920000001,-26.6754864,20.625816,0.0,0.0,0.0,0.0
5.5,33.545373600000005,55.953355200000004,-19.193256,15.642031200000002,0.0,0.0,0.0,0.0
5.52,34.5530424,41.693896800000005,-15.343632000000001,15.1817832,0.0,0.0,0.0,0.0
5.54,35.6155752,30.796077600000004,-10.952073600000002,11.3480088,0.0,0.0,0.0,0.0
5.56,36.5705136,16.8075864,-6.397752,5.6741568000000004,0.0,0.0,0.0,0.0
5.58,37.5065544,8.5121496,2.3314152,4.984089600000001,0.0,0.0,0.0,0.0
5.6,38.2932432,-0.0542544,0.9217152000000001,-0.30662880000000003,0.0,0.0,0.0,0.0
5.62,38.7672072,-0.1085088,-1.1926824,-2.7602688,0.0,0.0,0.0,0.0
5.64,39.2225784,-3.198876,-1.030224,-2.7602688,0.0,0.0,0.0,0.0
5.66,39.569136,-3.7953696000000003,-3.1446216000000002,-6.0572904,0.0,0.0,0.0,0.0
5.68,39.7587216,-11.1690912,-1.8434304000000001,-9.814560000000002,0.0,0.0,0.0,0.0
5.7,39.452397600000005,-15.560649600000001,-0.16276320000000002,-0.23012400000000002,0.0,0.0,0.0,0.0
5.72,38.7693408,-8.0784192,-5.9097672,-5.4440328000000004,0.0,0.0,0.0,0.0
5.74,37.9701552,-22.337877600000002,-10.843564800000001,-8.2043016,0.0,0.0,0.0,0.0
5.76,37.029542400000004,-18.81378,-6.018276,-10.3513128,0.0,0.0,0.0,0.0
5.78,35.7597456,15.9401256,-34.049208,-26.5300968,0.0,0.0,0.0,0.0
5.8,34.572854400000004,0.4879848,7.210958400000001,-21.776131200000002,0.0,0.0,0.0,0.0
5.82,33.4298544,-35.024872800000004,0.5422392,-35.7310944,0.0,0.0,0.0,0.0
5.84,34.300058400000005,-1.5724632,-26.621232000000003,-28.8304224,0.0,0.0,0.0,0.0
5.859999999999999,38.357860800000005,-14.693188800000001,-3.5240976,-11.3480088,0.0,0.0,0.0,0.0
5.88,38.3709672,-13.8799824,-6.0725304,-16.8688512,0.0,0.0,0.0,0.0
5.9,42.4558968,-14.0424408,-5.0423064,-14.185087200000002,0.0,0.0,0.0,0.0
5.92,46.3073496,-15.235428,-3.957828,-14.951964,0.0,0.0,0.0,0.0
5.9399999999999995,49.98079920000001,-16.1571432,-3.578352,-14.338401600000001,0.0,0.0,0.0,0.0
5.96,53.4890472,-13.5005064,-4.0663368,-13.264896000000002,0.0,0.0,0.0,0.0
5.98,56.835751200000004,-12.6327408,-4.5000672,-14.185087200000002,0.0,0.0,0.0,0.0
6.0,59.8346784,-13.3919976,-4.8252888,-15.4119072,0.0,0.0,0.0,0.0
6.02,62.677852800000004,-14.0424408,-5.476036800000001,-14.645030400000001,0.0,0.0,0.0,0.0
6.04,65.2585944,-11.7110256,-4.988052,-14.185087200000002,0.0,0.0,0.0,0.0
6.0600000000000005,67.5735504,-13.3377432,-4.8795432000000005,-15.1817832,0.0,0.0,0.0,0.0
6.08,69.82693680000001,-13.988186400000002,-4.445812800000001,-13.1883912,0.0,0.0,0.0,0.0
6.1,71.99284560000001,-13.662964800000001,-4.2291,-13.1883912,0.0,0.0,0.0,0.0
6.12,73.8975408,-13.662964800000001,-4.2291,-12.5748288,0.0,0.0,0.0,0.0
6.140000000000001,75.56235840000001,-14.1509496,-3.3073848000000003,-13.571829600000001,0.0,0.0,0.0,0.0
6.16,77.0570976,-14.421916800000002,-3.7953696000000003,-12.421514400000001,0.0,0.0,0.0,0.0
6.18,78.5984712,-12.686995200000002,-4.554321600000001,-11.9615712,0.0,0.0,0.0,0.0
6.199999999999999,80.09991600000001,-12.686995200000002,-4.2291,-13.725144,0.0,0.0,0.0,0.0
6.22,81.4520088,-12.2532648,-4.988052,-13.725144,0.0,0.0,0.0,0.0
6.24,82.88395919999999,-13.988186400000002,-4.012082400000001,-13.8016488,0.0,0.0,0.0,0.0
6.26,84.1638144,-13.554456,-3.2531304000000003,-13.1883912,0.0,0.0,0.0,0.0
6.279999999999999,85.40496,-12.036552,-3.7953696000000003,-13.264896000000002,0.0,0.0,0.0,0.0
6.3,86.60831040000001,-13.012521600000001,-4.6628304,-12.1913904,0.0,0.0,0.0,0.0
6.32,87.9189504,-11.2230408,-4.933797600000001,-11.8082568,0.0,0.0,0.0,0.0
6.34,89.22105600000002,-11.873788800000002,-3.5240976,-13.0350768,0.0,0.0,0.0,0.0
6.359999999999999,90.5944848,-12.416028,-3.8496240000000004,-12.2682,0.0,0.0,0.0,0.0
6.38,92.0233872,-13.229234400000001,-4.3376088,-12.345009600000001,0.0,0.0,0.0,0.0
6.4,93.39681600000002,-11.6028216,-3.0361128,-12.498324000000002,0.0,0.0,0.0,0.0
6.42,94.8360816,-11.4943128,-4.3376088,-12.1913904,0.0,0.0,0.0,0.0
6.4399999999999995,96.22932240000002,-10.247376,-3.957828,-13.0350768,0.0,0.0,0.0,0.0
6.46,97.8136728,-11.385804,-4.2291,-11.3480088,0.0,0.0,0.0,0.0
6.48,99.34895039999999,-11.385804,-5.421782400000001,-11.7314472,0.0,0.0,0.0,0.0
6.5,100.952808,-11.440058400000002,-4.2833544,-10.9645704,0.0,0.0,0.0,0.0
6.52,102.6996168,-10.626852000000001,-3.3616392,-10.5814368,0.0,0.0,0.0,0.0
6.54,104.4979368,-10.3013256,-3.4698432,-10.274503200000002,0.0,0.0,0.0,0.0
6.5600000000000005,106.19475840000001,-10.247376,-3.5240976,-10.734751200000002,0.0,0.0,0.0,0.0
6.58,107.9123064,-11.2230408,-2.7651456,-12.114885600000001,0.0,0.0,0.0,0.0
6.6,109.59876480000001,-9.813645600000001,-3.6326064,-11.04138,0.0,0.0,0.0,0.0
6.62,111.4019616,-10.4640888,-3.7411152,-11.04138,0.0,0.0,0.0,0.0
6.640000000000001,113.2551456,-10.355580000000002,-3.957828,-10.5046272,0.0,0.0,0.0,0.0
6.66,115.11381600000001,-11.5485672,-3.198876,-11.1181896,0.0,0.0,0.0,0.0
6.68,116.9261568,-9.976104,-2.6023824,-10.3513128,0.0,0.0,0.0,0.0
6.699999999999999,118.8524928,-10.952073600000002,-3.3616392,-10.9645704,0.0,0.0,0.0,0.0
6.72,120.74194800000001,-9.596628,-2.8736544000000004,-9.891369599999999,0.0,0.0,0.0,0.0
6.74,122.58568320000002,-9.488119200000002,-3.6326064,-10.1979984,0.0,0.0,0.0,0.0
6.76,124.43520960000001,-9.813645600000001,-3.6326064,-10.811256,0.0,0.0,0.0,0.0
6.779999999999999,126.3002808,-9.596628,-2.6566368,-9.814560000000002,0.0,0.0,0.0,0.0
6.8,128.1647424,-10.247376,-1.789176,-10.1979984,0.0,0.0,0.0,0.0
6.82,130.0142688,-9.6508824,-3.1446216000000002,-9.3546168,0.0,0.0,0.0,0.0
6.84,131.813808,-10.193121600000001,-2.8194000000000004,-9.584436,0.0,0.0,0.0,0.0
6.859999999999999,133.74898320000003,-9.9218496,-2.548128,-10.734751200000002,0.0,0.0,0.0,0.0
6.88,135.5832696,-9.3256608,-3.3616392,-9.5079312,0.0,0.0,0.0,0.0
6.9,137.37732240000003,-9.4338648,-3.2531304000000003,-9.6612456,0.0,0.0,0.0,0.0
6.92,139.22014320000002,-8.566404,-2.6023824,-8.6645496,0.0,0.0,0.0,0.0
6.9399999999999995,141.0794232,-8.7834216,-2.7108912000000003,-9.4311216,0.0,0.0,0.0,0.0
6.96,142.9889952,-8.94588,-3.957828,-9.1244928,0.0,0.0,0.0,0.0
6.98,144.97537680000002,-9.813645600000001,-2.8736544000000004,-8.971178400000001,0.0,0.0,0.0,0.0
7.0,146.7389496,-9.976104,-2.6023824,-9.2778072,0.0,0.0,0.0,0.0
7.02,148.5866472,-9.4338648,-2.1686520000000002,-8.8943688,0.0,0.0,0.0,0.0
7.04,150.4105704,-9.217152,-3.4698432,-8.6645496,0.0,0.0,0.0,0.0
7.0600000000000005,152.2494288,-8.7834216,-2.4941784,-8.741054400000001,0.0,0.0,0.0,0.0
7.08,154.05354,-8.024164800000001,-3.3616392,-9.891369599999999,0.0,0.0,0.0,0.0
7.1,155.9841432,-8.8919304,-2.4941784,-8.817864,0.0,0.0,0.0,0.0
7.12,157.83031680000002,-9.976104,-2.8194000000000004,-9.584436,0.0,0.0,0.0,0.0
7.140000000000001,159.6639936,-8.024164800000001,-1.6264128000000002,-8.4344256,0.0,0.0,0.0,0.0
7.16,161.5586304,-8.186928,-2.9818584,-8.971178400000001,0.0,0.0,0.0,0.0
7.18,163.36182720000002,-8.5121496,-2.6566368,-9.2778072,0.0,0.0,0.0,0.0
7.199999999999999,165.09918720000002,-7.8617064,-3.6326064,-9.1244928,0.0,0.0,0.0,0.0
7.22,166.9487136,-8.566404,-2.1686520000000002,-8.050987200000002,0.0,0.0,0.0,0.0
7.24,168.73880400000002,-7.5904344,-3.2531304000000003,-7.744358400000001,0.0,0.0,0.0,0.0
7.26,170.57461440000003,-9.0543888,-3.6326064,-8.8943688,0.0,0.0,0.0,0.0
7.279999999999999,172.4025,-7.915960800000001,-2.3856696,-7.437729600000001,0.0,0.0,0.0,0.0
7.3,174.28372560000003,-8.566404,-2.0601432,-8.817864,0.0,0.0,0.0,0.0
7.32,176.1015528,-8.6749128,-2.0601432,-7.744358400000001,0.0,0.0,0.0,0.0
7.34,177.84287520000004,-8.024164800000001,-1.6264128000000002,-8.4344256,0.0,0.0,0.0,0.0
7.359999999999999,179.68722,-7.210958400000001,-1.8976848000000002,-7.8208632,0.0,0.0,0.0,0.0
7.38,181.5714936,-7.210958400000001,-2.4399240000000004,-7.437729600000001,0.0,0.0,0.0,0.0
7.4,183.46674,-6.668719200000001,-2.3314152,-8.4344256,0.0,0.0,0.0,0.0
7.42,185.37052080000004,-6.9399912,-1.0844784,-7.8976728000000005,0.0,0.0,0.0,0.0
7.4399999999999995,187.173108,-7.048500000000001,-2.3856696,-8.5109304,0.0,0.0,0.0,0.0
7.46,189.0214152,-6.343497600000001,-2.3314152,-7.591044000000001,0.0,0.0,0.0,0.0
7.48,190.9572,-6.614769600000001,-2.6023824,-7.8208632,0.0,0.0,0.0,0.0
7.5,192.83507280000003,-7.753197600000001,-1.6806672000000002,-7.5142344,0.0,0.0,0.0,0.0
7.52,194.651376,-7.753197600000001,-2.0061936,-7.9744824,0.0,0.0,0.0,0.0
7.54,196.47529920000002,-7.8617064,-1.6806672000000002,-7.5142344,0.0,0.0,0.0,0.0
7.5600000000000005,198.22058400000003,-7.5364848,-1.8976848000000002,-7.744358400000001,0.0,0.0,0.0,0.0
7.58,200.0091504,-6.9942456,-1.789176,-6.9009768,0.0,0.0,0.0,0.0
7.6,201.8102136,-7.5364848,-2.0061936,-7.8976728000000005,0.0,0.0,0.0,0.0
7.62,203.5036824,-7.048500000000001,-1.6264128000000002,-6.9774816,0.0,0.0,0.0,0.0
7.640000000000001,205.262988,-6.9399912,-2.1686520000000002,-6.4407288000000005,0.0,0.0,0.0,0.0
7.66,206.9945568,-6.1807343999999995,-1.6264128000000002,-7.744358400000001,0.0,0.0,0.0,0.0
7.68,208.75264320000002,-5.8555128,-1.6264128000000002,-6.9009768,0.0,0.0,0.0,0.0
7.699999999999999,210.59394,-6.0725304,-1.8434304000000001,-6.0572904,0.0,0.0,0.0,0.0
7.72,212.4465144,-5.8555128,-1.3011912,-7.0542912,0.0,0.0,0.0,0.0
7.74,214.27257120000002,-7.5364848,-1.5724632,-6.747662400000001,0.0,0.0,0.0,0.0
7.76,216.0154176,-6.4520064,-1.8976848000000002,-7.5142344,0.0,0.0,0.0,0.0
7.779999999999999,217.83233040000002,-6.1267848,-1.5724632,-6.594043200000001,0.0,0.0,0.0,0.0
7.8,219.76019040000003,-6.885736800000001,-0.8132064000000001,-6.747662400000001,0.0,0.0,0.0,0.0
7.82,221.38721280000001,-6.7229735999999995,-0.9759696,-7.2076056,0.0,0.0,0.0,0.0
7.84,222.9730872,-6.2892432000000005,-0.650748,-6.4407288000000005,0.0,0.0,0.0,0.0
7.859999999999999,224.62236000000001,-5.6930544,-1.4639544,-6.364224,0.0,0.0,0.0,0.0
7.88,226.48529760000002,-6.1807343999999995,-1.6264128000000002,-6.2109096,0.0,0.0,0.0,0.0
7.9,228.30068640000002,-5.096560800000001,-2.4941784,-7.130796,0.0,0.0,0.0,0.0
7.92,230.14868880000003,-5.476036800000001,-2.9818584,-6.9009768,0.0,0.0,0.0,0.0
7.9399999999999995,231.84276720000003,-5.6930544,-2.9818584,-6.5175384,0.0,0.0,0.0,0.0
7.96,233.80385040000002,-6.5605152,-2.548128,-5.597347200000001,0.0,0.0,0.0,0.0
7.9799999999999995,235.7149464,-6.2349888,-1.789176,-5.5205376,0.0,0.0,0.0,0.0
8.0,237.6065352,-6.7229735999999995,-0.7589520000000001,-5.750661600000001,0.0,0.0,0.0,0.0
8.02,239.455452,-6.018276,-0.0542544,-6.0572904,0.0,0.0,0.0,0.0
8.04,241.32814320000003,-5.964021600000001,-0.650748,-5.9807856,0.0,0.0,0.0,0.0
8.059999999999999,243.1956528,-5.801258400000001,-1.6806672000000002,-5.827471200000001,0.0,0.0,0.0,0.0
8.08,245.00860319999998,-5.801258400000001,-1.4639544,-5.9807856,0.0,0.0,0.0,0.0
8.1,246.84807120000002,-5.1508152,-2.1143976,-6.2109096,0.0,0.0,0.0,0.0
8.120000000000001,248.6381616,-4.445812800000001,-1.9519392,-6.4407288000000005,0.0,0.0,0.0,0.0
8.14,250.44684480000004,-4.1748456,-1.5724632,-6.6708528000000005,0.0,0.0,0.0,0.0
8.16,252.23327760000004,-5.205069600000001,-2.3856696,-5.750661600000001,0.0,0.0,0.0,0.0
8.18,254.0029464,-5.5302912,-2.1686520000000002,-5.6741568000000004,0.0,0.0,0.0,0.0
8.2,255.80583840000003,-5.367528,-1.2469368,-5.137404,0.0,0.0,0.0,0.0
8.219999999999999,257.6617656,-5.964021600000001,-0.3252216,-6.0572904,0.0,0.0,0.0,0.0
8.24,259.4186328,-5.638800000000001,-0.1085088,-5.137404,0.0,0.0,0.0,0.0
8.26,261.13892400000003,-6.1267848,-0.2709672,-5.2907184,0.0,0.0,0.0,0.0
8.280000000000001,262.9366344,-5.476036800000001,-0.8132064000000001,-5.2139088000000005,0.0,0.0,0.0,0.0
8.3,264.64503840000003,-4.445812800000001,-1.9519392,-5.2907184,0.0,0.0,0.0,0.0
8.32,266.45920800000005,-4.8795432000000005,-2.1686520000000002,-5.2907184,0.0,0.0,0.0,0.0
8.34,268.1712696,-5.0423064,-1.8976848000000002,-6.0572904,0.0,0.0,0.0,0.0
8.36,270.00159360000004,-4.6628304,-2.1686520000000002,-5.9807856,0.0,0.0,0.0,0.0
8.379999999999999,271.7755296,-4.2833544,-1.789176,-5.2139088000000005,0.0,0.0,0.0,0.0
8.4,273.62322720000003,-4.3376088,-1.6264128000000002,-5.367223200000001,0.0,0.0,0.0,0.0
8.42,275.4267288,-3.9035736000000005,-1.3011912,-5.597347200000001,0.0,0.0,0.0,0.0
8.44,277.2616248,-4.608576,-1.5724632,-4.907280000000001,0.0,0.0,0.0,0.0
8.46,279.100788,-5.259324,-1.3554456000000001,-5.2907184,0.0,0.0,0.0,0.0
8.48,280.9061184,-5.096560800000001,-0.7589520000000001,-4.677156,0.0,0.0,0.0,0.0
8.5,282.6834072,-5.1508152,-0.4879848,-4.6006512,0.0,0.0,0.0,0.0
8.52,284.4853848,-5.5302912,-0.4337304,-4.6006512,0.0,0.0,0.0,0.0
8.54,286.3434456,-5.3132736,-0.9759696,-4.6006512,0.0,0.0,0.0,0.0
8.559999999999999,288.10458,-5.421782400000001,-1.4097000000000002,-4.907280000000001,0.0,0.0,0.0,0.0
8.58,289.8672384,-4.7170848,-1.4639544,-5.2139088000000005,0.0,0.0,0.0,0.0
8.6,291.5604024,-4.8252888,-1.1387328,-4.984089600000001,0.0,0.0,0.0,0.0
8.620000000000001,293.3392152,-4.7713392,-0.8674608,-4.677156,0.0,0.0,0.0,0.0
8.64,295.0835856,-4.1748456,-1.2469368,-4.907280000000001,0.0,0.0,0.0,0.0
8.66,296.811192,-4.445812800000001,-1.1926824,-4.907280000000001,0.0,0.0,0.0,0.0
8.68,298.560744,-4.5000672,-1.4639544,-5.137404,0.0,0.0,0.0,0.0
8.7,300.33041280000003,-4.1748456,-1.1387328,-4.7539656,0.0,0.0,0.0,0.0
8.719999999999999,302.02113840000004,-3.8496240000000004,-1.2469368,-4.6006512,0.0,0.0,0.0,0.0
8.74,303.8252496,-4.3376088,-1.0844784,-4.2172128,0.0,0.0,0.0,0.0
8.76,305.5348728,-3.957828,-1.1387328,-4.2172128,0.0,0.0,0.0,0.0
8.780000000000001,307.1615904,-4.3915584,-1.030224,-4.1404032,0.0,0.0,0.0,0.0
8.8,308.8291512,-4.2833544,-1.030224,-3.9870888,0.0,0.0,0.0,0.0
8.82,310.4244744,-4.2833544,-1.1387328,-4.1404032,0.0,0.0,0.0,0.0
8.84,312.1286112,-4.1748456,-0.9217152000000001,-4.4473368,0.0,0.0,0.0,0.0
8.86,313.86688560000005,-4.1748456,-1.030224,-4.0638984,0.0,0.0,0.0,0.0
8.879999999999999,315.562488,-4.012082400000001,-0.650748,-4.2172128,0.0,0.0,0.0,0.0
8.9,317.3178312,-4.012082400000001,-0.8674608,-4.370527200000001,0.0,0.0,0.0,0.0
8.92,319.1246856,-3.6868608000000003,-0.8674608,-4.2172128,0.0,0.0,0.0,0.0
8.94,320.90319360000007,-3.957828,-1.030224,-4.4473368,0.0,0.0,0.0,0.0
8.96,322.65670800000004,-3.7411152,-0.8132064000000001,-4.2937176,0.0,0.0,0.0,0.0
8.98,324.4486272,-3.6326064,-0.9217152000000001,-3.910584,0.0,0.0,0.0,0.0
9.0,326.2134192,-3.7953696000000003,-0.9759696,-3.8337744,0.0,0.0,0.0,0.0
9.02,327.9651048,-3.7953696000000003,-0.8674608,-3.910584,0.0,0.0,0.0,0.0
9.04,329.7551952,-3.7411152,-1.1387328,-3.6036504000000003,0.0,0.0,0.0,0.0
9.059999999999999,331.4443968,-3.8496240000000004,-0.9217152000000001,-3.68046,0.0,0.0,0.0,0.0
9.08,333.19303440000004,-3.8496240000000004,-0.8132064000000001,-3.8337744,0.0,0.0,0.0,0.0
9.1,334.91911680000004,-3.7411152,-0.8132064000000001,-3.6036504000000003,0.0,0.0,0.0,0.0
9.120000000000001,336.6753744,-3.6868608000000003,-0.7589520000000001,-3.6036504000000003,0.0,0.0,0.0,0.0
9.14,338.4197448,-3.7411152,-0.9217152000000001,-3.7572696000000003,0.0,0.0,0.0,0.0
9.16,340.07054160000007,-3.957828,-0.5964936000000001,-3.5271456,0.0,0.0,0.0,0.0
9.18,341.798148,-3.7411152,-0.8132064000000001,-3.7572696000000003,0.0,0.0,0.0,0.0
9.2,343.55623440000005,-3.4158936000000004,-0.8132064000000001,-4.0638984,0.0,0.0,0.0,0.0
9.219999999999999,345.29267999999996,-3.4698432,-0.7589520000000001,-3.8337744,0.0,0.0,0.0,0.0
9.24,347.0327832,-3.4158936000000004,-0.4879848,-3.8337744,0.0,0.0,0.0,0.0
9.26,348.7177176,-3.198876,-0.5964936000000001,-3.7572696000000003,0.0,0.0,0.0,0.0
9.280000000000001,350.500188,-3.4158936000000004,-0.7046976,-3.910584,0.0,0.0,0.0,0.0
9.3,352.14854640000004,-3.6868608000000003,-1.0844784,-3.7572696000000003,0.0,0.0,0.0,0.0
9.32,353.8374432,-3.3616392,-0.9759696,-3.450336,0.0,0.0,0.0,0.0
9.34,355.44252000000006,-3.578352,-0.9759696,-3.5271456,0.0,0.0,0.0,0.0
9.36,357.1609824,-3.5240976,-1.030224,-3.2205168000000004,0.0,0.0,0.0,0.0
9.379999999999999,358.888284,-3.4698432,-0.9759696,-3.3738312000000006,0.0,0.0,0.0,0.0
9.4,360.51622080000004,-3.3616392,-0.8674608,-3.3738312000000006,0.0,0.0,0.0,0.0
9.42,362.1325752,-3.4698432,-0.8674608,-3.5271456,0.0,0.0,0.0,0.0
9.44,363.7644744,-3.3073848000000003,-0.8132064000000001,-3.6036504000000003,0.0,0.0,0.0,0.0
9.46,365.4707448,-2.9818584,-0.4879848,-3.2205168000000004,0.0,0.0,0.0,0.0
9.48,367.10843520000003,-2.9279088,-0.3252216,-3.450336,0.0,0.0,0.0,0.0
9.5,368.8089144,-2.8736544000000004,-0.2709672,-3.450336,0.0,0.0,0.0,0.0
9.52,370.5877272,-2.9279088,-0.1085088,-3.2970216000000003,0.0,0.0,0.0,0.0
9.54,372.3000936,-2.9818584,-0.37947600000000004,-3.1437072,0.0,0.0,0.0,0.0
9.559999999999999,373.9170576,-3.0361128,-0.3252216,-3.1437072,0.0,0.0,0.0,0.0
9.58,375.4782432,-2.9279088,-0.4337304,-3.0672024,0.0,0.0,0.0,0.0
9.6,377.1028272,-3.0361128,-0.4337304,-3.0672024,0.0,0.0,0.0,0.0
9.620000000000001,378.8429304,-2.9279088,-0.650748,-2.8370784000000002,0.0,0.0,0.0,0.0
9.64,380.5363992,-3.0361128,-0.7589520000000001,-3.2205168000000004,0.0,0.0,0.0,0.0
9.66,382.1161776,-3.0361128,-0.5422392,-3.2205168000000004,0.0,0.0,0.0,0.0
9.68,383.5746456,-2.9279088,-0.7589520000000001,-3.1437072,0.0,0.0,0.0,0.0
9.7,385.2736008,-2.9818584,-0.4879848,-2.9903928,0.0,0.0,0.0,0.0
9.719999999999999,386.8481976,-2.7651456,-0.7046976,-3.1437072,0.0,0.0,0.0,0.0
9.74,388.4541888,-2.9279088,-0.4337304,-2.9135831999999997,0.0,0.0,0.0,0.0
9.76,390.1476576,-2.8736544000000004,-0.37947600000000004,-2.8370784000000002,0.0,0.0,0.0,0.0
9.780000000000001,391.780776,-2.8736544000000004,-0.37947600000000004,-3.2205168000000004,0.0,0.0,0.0,0.0
9.8,393.4718064,-2.7651456,-0.2709672,-2.9135831999999997,0.0,0.0,0.0,0.0
9.82,395.0659104,-2.7651456,-0.2709672,-2.9135831999999997,0.0,0.0,0.0,0.0
9.84,396.6036264,-2.8736544000000004,-0.37947600000000004,-2.9135831999999997,0.0,0.0,0.0,0.0
9.86,398.19102480000004,-2.9279088,-0.3252216,-3.0672024,0.0,0.0,0.0,0.0
9.879999999999999,399.78360480000003,-2.7108912000000003,-0.2170176,-2.683764,0.0,0.0,0.0,0.0
9.9,401.3222352,-2.6023824,-0.2170176,-2.6069544000000002,0.0,0.0,0.0,0.0
9.92,402.8751912,-2.7651456,-0.2709672,-2.7602688,0.0,0.0,0.0,0.0
9.94,404.344632,-2.6566368,-0.4879848,-2.6069544000000002,0.0,0.0,0.0,0.0
9.96,405.9149616,-2.548128,-0.37947600000000004,-2.4536400000000005,0.0,0.0,0.0,0.0
9.98,407.4267696,-2.2771608000000003,-0.4337304,-2.683764,0.0,0.0,0.0,0.0
10.0,408.87456960000003,-2.3314152,-0.2709672,-2.4536400000000005,0.0,0.0,0.0,0.0
10.02,410.4302688,-2.4399240000000004,-0.16276320000000002,-2.8370784000000002,0.0,0.0,0.0,0.0
10.04,412.1042304,-2.3314152,-0.0542544,-2.7602688,0.0,0.0,0.0,0.0
10.059999999999999,413.63249759999997,-2.3314152,-0.0542544,-2.683764,0.0,0.0,0.0,0.0
10.08,415.1348568,-2.4941784,0.0,-2.683764,0.0,0.0,0.0,0.0
10.1,416.7009192,-2.6023824,-0.1085088,-2.6069544000000002,0.0,0.0,0.0,0.0
10.120000000000001,418.4206008,-2.548128,-0.16276320000000002,-2.223516,0.0,0.0,0.0,0.0
10.14,419.96624160000005,-2.4399240000000004,-0.16276320000000002,-2.4536400000000005,0.0,0.0,0.0,0.0
10.16,421.60454160000006,-2.3856696,-0.2170176,-2.4536400000000005,0.0,0.0,0.0,0.0
10.18,423.15201120000006,-2.548128,-0.16276320000000002,-2.223516,0.0,0.0,0.0,0.0
10.2,424.782996,-2.3314152,-0.2709672,-2.223516,0.0,0.0,0.0,0.0
10.219999999999999,426.2981568,-2.3856696,-0.2170176,-2.0702016,0.0,0.0,0.0,0.0
10.24,427.83861600000006,-2.4399240000000004,-0.0542544,-2.223516,0.0,0.0,0.0,0.0
10.26,429.3882192,-2.4399240000000004,-0.2709672,-2.683764,0.0,0.0,0.0,0.0
10.280000000000001,430.8847872,-2.2771608000000003,-0.1085088,-2.3003256,0.0,0.0,0.0,0.0
10.3,432.39933840000003,-2.1143976,-0.16276320000000002,-2.1470112,0.0,0.0,0.0,0.0
10.32,433.91510880000004,-2.0601432,-0.2170176,-2.3003256,0.0,0.0,0.0,0.0
10.34,435.3607752,-2.1143976,-0.0542544,-2.1470112,0.0,0.0,0.0,0.0
10.36,436.929276,-2.1686520000000002,0.1085088,-2.4536400000000005,0.0,0.0,0.0,0.0
10.379999999999999,438.396888,-2.0601432,-0.1085088,-2.4536400000000005,0.0,0.0,0.0,0.0
10.4,439.8270096,-2.0601432,-0.1085088,-2.1470112,0.0,0.0,0.0,0.0
10.42,441.3848424,-2.1143976,0.0542544,-2.223516,0.0,0.0,0.0,0.0
10.44,442.9576104,-1.8976848000000002,0.0542544,-2.1470112,0.0,0.0,0.0,0.0
10.46,444.4169928,-2.1686520000000002,-0.1085088,-2.223516,0.0,0.0,0.0,0.0
10.48,445.9141704,-2.1686520000000002,0.1085088,-1.9936968000000002,0.0,0.0,0.0,0.0
10.5,447.32569920000003,-2.1686520000000002,0.1085088,-2.0702016,0.0,0.0,0.0,0.0
10.52,448.83415440000005,-1.9519392,0.0,-1.9936968000000002,0.0,0.0,0.0,0.0
10.54,450.28987920000003,-2.2229064000000003,-0.0542544,-2.0702016,0.0,0.0,0.0,0.0
10.559999999999999,451.7148192,-1.9519392,-0.1085088,-1.8400776,0.0,0.0,0.0,0.0
10.58,453.15164640000006,-2.0061936,0.16276320000000002,-2.0702016,0.0,0.0,0.0,0.0
10.6,454.5982272,-2.0601432,0.1085088,-1.9168872,0.0,0.0,0.0,0.0
10.620000000000001,455.9698272,-1.9519392,-0.1085088,-1.7635728,0.0,0.0,0.0,0.0
10.64,457.43652480000003,-1.8976848000000002,-0.0542544,-1.8400776,0.0,0.0,0.0,0.0
10.66,458.8020288000001,-1.789176,0.0542544,-1.8400776,0.0,0.0,0.0,0.0
10.68,460.4010096,-1.6806672000000002,-0.0542544,-1.9168872,0.0,0.0,0.0,0.0
10.7,461.768952,-1.789176,0.0542544,-1.8400776,0.0,0.0,0.0,0.0
10.719999999999999,463.16310720000007,-1.7349216,0.0,-1.7635728,0.0,0.0,0.0,0.0
10.74,464.6139552,-1.789176,0.0542544,-1.6102584000000002,0.0,0.0,0.0,0.0
10.76,466.08248160000005,-1.6806672000000002,0.0542544,-1.6867632000000001,0.0,0.0,0.0,0.0
10.780000000000001,467.44859520000006,-1.6806672000000002,-0.0542544,-1.6867632000000001,0.0,0.0,0.0,0.0
10.8,468.79550639999997,-1.7349216,-0.1085088,-1.6867632000000001,0.0,0.0,0.0,0.0
10.82,470.1110232,-1.789176,0.0542544,-1.7635728,0.0,0.0,0.0,0.0
10.84,471.41648160000005,-1.6806672000000002,-0.0542544,-1.6867632000000001,0.0,0.0,0.0,0.0
10.86,472.8334968,-1.789176,0.0542544,-1.6102584000000002,0.0,0.0,0.0,0.0
10.879999999999999,474.2282616,-1.789176,0.16276320000000002,-1.6102584000000002,0.0,0.0,0.0,0.0
10.9,475.5766968,-1.789176,0.0542544,-1.6102584000000002,0.0,0.0,0.0,0.0
10.92,476.8986144,-1.6264128000000002,0.0,-1.6102584000000002,0.0,0.0,0.0,0.0
10.94,478.18913760000004,-1.6806672000000002,0.0542544,-1.6102584000000002,0.0,0.0,0.0,0.0
10.96,479.39096400000005,-1.7349216,0.1085088,-1.6102584000000002,0.0,0.0,0.0,0.0
10.98,480.77688960000006,-1.6806672000000002,0.0542544,-1.6102584000000002,0.0,0.0,0.0,0.0
11.0,482.1375168,-1.6806672000000002,0.0542544,-1.6102584000000002,0.0,0.0,0.0,0.0
11.02,483.48808560000003,-1.7349216,0.1085088,-1.6867632000000001,0.0,0.0,0.0,0.0
11.04,484.781352,-1.6806672000000002,0.0542544,-1.6867632000000001,0.0,0.0,0.0,0.0
11.059999999999999,486.01487760000003,-1.6806672000000002,0.0542544,-1.4569440000000002,0.0,0.0,0.0,0.0
11.08,487.44499920000004,-1.7349216,0.1085088,-1.3801344,0.0,0.0,0.0,0.0
11.1,488.80776000000003,-1.6806672000000002,0.16276320000000002,-1.3801344,0.0,0.0,0.0,0.0
11.120000000000001,490.089444,-1.6806672000000002,0.0542544,-1.4569440000000002,0.0,0.0,0.0,0.0
11.14,491.38880639999996,-1.5724632,-0.0542544,-1.3801344,0.0,0.0,0.0,0.0
11.16,492.7509576,-1.6264128000000002,0.0,-1.3036296,0.0,0.0,0.0,0.0
11.18,494.04513840000004,-1.6264128000000002,0.0,-1.3036296,0.0,0.0,0.0,0.0
11.2,495.3332232,-1.6264128000000002,0.1085088,-1.4569440000000002,0.0,0.0,0.0,0.0
11.219999999999999,496.51615200000003,-1.5724632,-0.0542544,-1.4569440000000002,0.0,0.0,0.0,0.0
11.24,497.69481360000003,-1.6264128000000002,0.0,-1.4569440000000002,0.0,0.0,0.0,0.0
11.26,498.8987736,-1.5182088,0.0,-1.3801344,0.0,0.0,0.0,0.0
11.280000000000001,500.1390048,-1.5724632,-0.0542544,-1.3801344,0.0,0.0,0.0,0.0
11.3,501.347232,-1.4639544,-0.0542544,-1.3036296,0.0,0.0,0.0,0.0
11.32,502.542048,-1.5724632,-0.0542544,-1.4569440000000002,0.0,0.0,0.0,0.0
11.34,503.9468712,-1.5724632,-0.0542544,-1.2268200000000002,0.0,0.0,0.0,0.0
11.36,505.1871024000001,-1.5182088,0.0,-1.3801344,0.0,0.0,0.0,0.0
11.379999999999999,506.4614712,-1.4097000000000002,0.0,-1.2268200000000002,0.0,0.0,0.0,0.0
11.4,507.7867416,-1.4639544,0.0542544,-1.3036296,0.0,0.0,0.0,0.0
11.42,509.05958640000006,-1.4639544,-0.0542544,-1.2268200000000002,0.0,0.0,0.0,0.0
11.44,510.297684,-1.5182088,0.0,-1.2268200000000002,0.0,0.0,0.0,0.0
11.46,511.69366800000006,-1.4097000000000002,-0.1085088,-1.1500104,0.0,0.0,0.0,0.0
11.48,513.0353976,-1.4097000000000002,0.1085088,-1.2268200000000002,0.0,0.0,0.0,0.0
11.5,514.2850776,-1.4097000000000002,0.0,-1.1500104,0.0,0.0,0.0,0.0
11.52,515.5131168,-1.4639544,0.0542544,-1.1500104,0.0,0.0,0.0,0.0
11.54,516.7621872,-1.3554456000000001,0.0542544,-1.1500104,0.0,0.0,0.0,0.0
11.559999999999999,518.0414328,-1.3011912,0.0,-1.1500104,0.0,0.0,0.0,0.0
11.58,519.2975136,-1.3011912,0.0,-1.2268200000000002,0.0,0.0,0.0,0.0
11.6,520.5956568,-1.4097000000000002,0.0,-1.0735056,0.0,0.0,0.0,0.0
11.620000000000001,521.816076,-1.2469368,-0.0542544,-1.0735056,0.0,0.0,0.0,0.0
11.64,523.0227792000001,-1.3554456000000001,-0.0542544,-1.0735056,0.0,0.0,0.0,0.0
11.66,524.1444432000001,-1.2469368,0.0542544,-0.996696,0.0,0.0,0.0,0.0
11.68,525.280128,-1.1926824,0.0,-1.0735056,0.0,0.0,0.0,0.0
11.7,526.4792112,-1.1926824,0.1085088,-0.996696,0.0,0.0,0.0,0.0
11.719999999999999,527.671284,-1.1926824,0.0,-1.0735056,0.0,0.0,0.0,0.0
11.74,528.7963008,-1.1926824,0.1085088,-0.9201912000000001,0.0,0.0,0.0,0.0
11.76,529.9143072,-1.1926824,0.1085088,-1.0735056,0.0,0.0,0.0,0.0
11.780000000000001,531.0774240000001,-1.2469368,0.0542544,-0.996696,0.0,0.0,0.0,0.0
11.8,532.243284,-1.1926824,0.1085088,-0.996696,0.0,0.0,0.0,0.0
11.82,533.4118872,-1.2469368,0.0542544,-0.9201912000000001,0.0,0.0,0.0,0.0
11.84,534.608532,-1.2469368,0.0542544,-0.9201912000000001,0.0,0.0,0.0,0.0
11.86,535.789632,-1.2469368,-0.0542544,-0.9201912000000001,0.0,0.0,0.0,0.0
11.879999999999999,536.9372040000001,-1.2469368,0.16276320000000002,-0.9201912000000001,0.0,0.0,0.0,0.0
11.9,538.1179992,-1.1926824,0.2170176,-0.8433816000000001,0.0,0.0,0.0,0.0
11.92,539.2134504,-1.1387328,0.0542544,-0.8433816000000001,0.0,0.0,0.0,0.0
11.94,540.2653152,-1.3011912,0.1085088,-0.9201912000000001,0.0,0.0,0.0,0.0
11.959999999999999,541.315656,-1.1387328,0.16276320000000002,-0.8433816000000001,0.0,0.0,0.0,0.0
11.98,542.4415872000001,-1.0844784,0.1085088,-0.9201912000000001,0.0,0.0,0.0,0.0
12.0,543.6065328000001,-1.0844784,0.1085088,-0.8433816000000001,0.0,0.0,0.0,0.0
12.02,544.720272,-1.030224,0.0542544,-0.8433816000000001,0.0,0.0,0.0,0.0
12.04,545.9269752,-1.1926824,0.1085088,-0.9201912000000001,0.0,0.0,0.0,0.0
12.06,547.0891776000001,-1.1387328,0.2709672,-0.8433816000000001,0.0,0.0,0.0,0.0
12.08,548.2135848,-1.1387328,0.16276320000000002,-0.8433816000000001,0.0,0.0,0.0,0.0
12.1,549.3547560000001,-1.1387328,0.16276320000000002,-0.8433816000000001,0.0,0.0,0.0,0.0
12.12,550.5727368,-1.030224,0.0542544,-0.8433816000000001,0.0,0.0,0.0,0.0
12.14,551.6459376,-1.0844784,0.1085088,-0.8433816000000001,0.0,0.0,0.0,0.0
12.16,552.7176144,-0.9759696,0.0,-0.8433816000000001,0.0,0.0,0.0,0.0
12.18,553.839888,-1.1387328,0.16276320000000002,-0.8433816000000001,0.0,0.0,0.0,0.0
12.2,554.9307672,-1.0844784,0.2170176,-0.9201912000000001,0.0,0.0,0.0,0.0
12.22,555.9198432000001,-1.1387328,0.2709672,-0.8433816000000001,0.0,0.0,0.0,0.0
12.24,556.9607352,-0.9217152000000001,0.2709672,-0.8433816000000001,0.0,0.0,0.0,0.0
12.26,558.0360696,-0.9759696,0.2170176,-0.8433816000000001,0.0,0.0,0.0,0.0
12.28,559.2513072,-0.9759696,0.3252216,-0.8433816000000001,0.0,0.0,0.0,0.0
12.3,560.2504416,-0.9217152000000001,0.16276320000000002,-0.8433816000000001,0.0,0.0,0.0,0.0
12.32,561.3870408,-0.9759696,0.2170176,-0.8433816000000001,0.0,0.0,0.0,0.0
12.34,562.4251896000001,-1.030224,0.16276320000000002,-0.8433816000000001,0.0,0.0,0.0,0.0
12.36,563.6318928000001,-0.8132064000000001,0.16276320000000002,-0.8433816000000001,0.0,0.0,0.0,0.0
12.38,564.7279536,-0.8674608,0.3252216,-0.8433816000000001,0.0,0.0,0.0,0.0
12.4,565.7612256,-0.8674608,0.2170176,-0.8433816000000001,0.0,0.0,0.0,0.0
12.42,566.7173832,-0.8132064000000001,0.16276320000000002,-0.8433816000000001,0.0,0.0,0.0,0.0
12.44,567.7607136,-0.9217152000000001,0.16276320000000002,-0.8433816000000001,0.0,0.0,0.0,0.0
12.459999999999999,568.7421696,-0.7046976,0.2709672,-0.8433816000000001,0.0,0.0,0.0,0.0
12.48,569.7580680000001,-0.8132064000000001,0.2709672,-0.8433816000000001,0.0,0.0,0.0,0.0
12.5,570.7794528000001,-0.8674608,0.2170176,-0.8433816000000001,0.0,0.0,0.0,0.0
12.52,571.8148584,-0.8674608,0.1085088,-0.8433816000000001,0.0,0.0,0.0,0.0
12.54,572.9054328000001,-0.8674608,0.3252216,-0.8433816000000001,0.0,0.0,0.0,0.0
12.56,573.9191976,-0.8132064000000001,0.16276320000000002,-0.8433816000000001,0.0,0.0,0.0,0.0
12.58,574.9296096,-0.7589520000000001,0.2170176,-0.7668768,0.0,0.0,0.0,0.0
12.6,575.9961048,-0.8674608,0.2170176,-0.8433816000000001,0.0,0.0,0.0,0.0
12.62,577.0144416,-0.8132064000000001,0.2709672,-0.8433816000000001,0.0,0.0,0.0,0.0
12.64,578.0266824,-0.9217152000000001,0.2709672,-0.8433816000000001,0.0,0.0,0.0,0.0
12.66,578.9633328000001,-0.8674608,0.2170176,-0.7668768,0.0,0.0,0.0,0.0
12.68,579.9213192,-0.7589520000000001,0.2170176,-0.8433816000000001,0.0,0.0,0.0,0.0
12.7,580.9838520000001,-0.7589520000000001,0.2170176,-0.8433816000000001,0.0,0.0,0.0,0.0
12.72,581.9506776000001,-0.7046976,0.2709672,-0.8433816000000001,0.0,0.0,0.0,0.0
12.74,582.9610896,-0.7589520000000001,0.2170176,-0.8433816000000001,0.0,0.0,0.0,0.0
12.76,583.946508,-0.650748,0.1085088,-0.7668768,0.0,0.0,0.0,0.0
12.78,584.8618224,-0.650748,0.2170176,-0.8433816000000001,0.0,0.0,0.0,0.0
12.8,585.8176752,-0.8132064000000001,0.2709672,-0.8433816000000001,0.0,0.0,0.0,0.0
12.82,586.6964136,-0.7046976,0.16276320000000002,-0.7668768,0.0,0.0,0.0,0.0
12.84,587.6233104,-0.7589520000000001,0.2170176,-0.7668768,0.0,0.0,0.0,0.0
12.86,588.5556936,-0.7589520000000001,0.2170176,-0.7668768,0.0,0.0,0.0,0.0
12.88,589.4423568,-0.7046976,0.2709672,-0.7668768,0.0,0.0,0.0,0.0
12.9,590.3561472,-0.650748,0.2170176,-0.7668768,0.0,0.0,0.0,0.0
12.92,591.2275704,-0.7046976,0.16276320000000002,-0.7668768,0.0,0.0,0.0,0.0
12.94,591.9764640000001,-0.650748,0.2170176,-0.6900672,0.0,0.0,0.0,0.0
12.959999999999999,592.799424,-0.650748,0.2170176,-0.7668768,0.0,0.0,0.0,0.0
12.98,593.7226632,-0.5964936000000001,0.2709672,-0.7668768,0.0,0.0,0.0,0.0
13.0,594.5373936000001,-0.5964936000000001,0.2709672,-0.7668768,0.0,0.0,0.0,0.0
13.02,595.3743744000001,-6.2349888,1.789176,-1.5334488,0.0,0.0,0.0,0.0
13.04,596.2025160000001,90.49024320000001,58.8267048,79.5899856,0.0,0.0,0.0,0.0
13.06,597.0215136,103.50276480000001,111.31021679999999,28.8304224,0.0,0.0,0.0,0.0
13.08,597.831672,48.7423968,20.1149712,-157.03296000000003,0.0,0.0,0.0,0.0
13.1,598.6329912,221.9696856,0.0,156.9561504,0.0,0.0,0.0,0.0
13.12,599.4254712000001,-57.7425312,-62.94729600000001,48.91948560000001,0.0,0.0,0.0,0.0
13.14,600.209112,-30.579060000000002,-129.7984704,-54.363518400000004,0.0,0.0,0.0,0.0
13.16,619.3212912,-32.9104752,-15.235428,-15.0284688,0.0,0.0,0.0,0.0
13.18,635.1861312,12.795504,-9.867595200000002,33.9675216,0.0,0.0,0.0,0.0
13.2,648.580872,-23.5308648,53.242464000000005,51.756564000000004,0.0,0.0,0.0,0.0
13.22,659.6304815999999,60.670135200000004,-95.26158240000001,19.398996,0.0,0.0,0.0,0.0
13.24,668.9088983999999,221.9696856,0.0,-157.03296000000003,0.0,0.0,0.0,0.0
13.26,675.9753816,-0.9217152000000001,93.0929304,-53.82676560000001,0.0,0.0,0.0,0.0
13.28,682.0271855999999,-120.9068448,101.17134960000001,-157.03296000000003,0.0,0.0,0.0,0.0
13.3,687.168552,-0.9217152000000001,19.789749600000004,-65.6347176,0.0,0.0,0.0,0.0
13.32,689.8261032,83.11652160000001,138.85316400000002,142.6945584,0.0,0.0,0.0,0.0
13.34,690.7222152,115.5932664,51.182016,156.9561504,0.0,0.0,0.0,0.0
13.36,690.3031152,-18.054828,-26.837944800000002,20.5493112,0.0,0.0,0.0,0.0
13.38,689.1582864,24.344071200000002,66.20042640000001,38.4913632,0.0,0.0,0.0,0.0
13.4,687.5532096000001,7.2652128,-6.8314824000000005,-15.795345600000001,0.0,0.0,0.0,0.0
13.42,685.6488192,8.186928,-1.1387328,-5.5205376,0.0,0.0,0.0,0.0
13.44,683.6636568,-4.7713392,-9.867595200000002,-2.1470112,0.0,0.0,0.0,0.0
13.459999999999999,681.4273392,-0.9217152000000001,-1.5724632,-6.2874144,0.0,0.0,0.0,0.0
13.48,679.2029087999999,12.361773600000001,-26.0247384,3.5271456,0.0,0.0,0.0,0.0
13.5,676.9586664,-57.471259200000006,-21.1451952,-99.602544,0.0,0.0,0.0,0.0
13.52,675.0929856,16.8075864,26.133247200000003,-13.341705600000001,0.0,0.0,0.0,0.0
13.54,673.2669288,3.9035736000000005,8.024164800000001,22.08276,0.0,0.0,0.0,0.0
13.56,671.6792255999999,-11.385804,24.5065296,-15.4119072,0.0,0.0,0.0,0.0
13.58,670.1744279999999,-17.5668432,29.603090400000003,-17.7122328,0.0,0.0,0.0,0.0
13.6,669.0107016000001,-15.9401256,-13.771473600000002,-14.338401600000001,0.0,0.0,0.0,0.0
13.62,668.1219047999999,-12.8497584,5.5845456,-14.185087200000002,0.0,0.0,0.0,0.0
13.64,667.3775832,-31.717792800000005,-1.6806672000000002,-56.74034880000001,0.0,0.0,0.0,0.0
13.66,666.926784,5.801258400000001,17.40408,-43.32213840000001,0.0,0.0,0.0,0.0
13.68,666.5915039999999,-10.626852000000001,3.0361128,-19.859244,0.0,0.0,0.0,0.0
13.7,666.42234,20.3319888,-3.5240976,-7.8208632,0.0,0.0,0.0,0.0
13.72,666.5186568,29.9825664,-29.440632,33.2774544,0.0,0.0,0.0,0.0
13.74,666.7317119999999,-4.1748456,3.7411152,1.4569440000000002,0.0,0.0,0.0,0.0
13.76,667.0605912,2.2229064000000003,-8.837676,-2.1470112,0.0,0.0,0.0,0.0
13.78,667.4745096,-6.4520064,15.1269192,-5.137404,0.0,0.0,0.0,0.0
13.8,668.005776,-2.1143976,0.4879848,-1.1500104,0.0,0.0,0.0,0.0
13.82,668.6452464,-0.5964936000000001,-0.8132064000000001,-1.0735056,0.0,0.0,0.0,0.0
13.84,669.3145872,1.2469368,-1.8976848000000002,-1.0735056,0.0,0.0,0.0,0.0
13.86,669.9632016,0.5964936000000001,-0.0542544,0.15331440000000002,0.0,0.0,0.0,0.0
13.88,670.538664,-1.8976848000000002,0.2709672,-2.8370784000000002,0.0,0.0,0.0,0.0
13.9,671.160456,-4.554321600000001,-2.3856696,-1.7635728,0.0,0.0,0.0,0.0
13.92,671.7148871999999,-2.7651456,-4.608576,1.6102584000000002,0.0,0.0,0.0,0.0
13.94,672.3220488000001,-1.8434304000000001,-0.650748,2.223516,0.0,0.0,0.0,0.0
13.959999999999999,672.8319792,-0.650748,-4.7713392,0.5367528,0.0,0.0,0.0,0.0
13.98,673.4836415999999,-0.7046976,-5.5845456,2.9135831999999997,0.0,0.0,0.0,0.0
14.0,673.9835136,-6.343497600000001,-5.6930544,-0.9201912000000001,0.0,0.0,0.0,0.0
14.02,674.7772127999999,-11.440058400000002,0.2709672,-4.0638984,0.0,0.0,0.0,0.0
14.04,675.6205944,-3.4158936000000004,-2.4399240000000004,-6.9774816,0.0,0.0,0.0,0.0
14.06,676.1637479999999,-0.7589520000000001,-3.2531304000000003,-7.2841104,0.0,0.0,0.0,0.0
14.08,676.4365439999999,-1.789176,-0.0542544,-3.68046,0.0,0.0,0.0,0.0
14.1,676.5733991999999,-2.7651456,-0.37947600000000004,-4.677156,0.0,0.0,0.0,0.0
14.12,676.8553392,-3.3616392,0.7589520000000001,-0.15331440000000002,0.0,0.0,0.0,0.0
14.14,676.9190424,-2.1143976,0.7046976,-4.370527200000001,0.0,0.0,0.0,0.0
14.16,676.8678359999999,0.4879848,-0.16276320000000002,4.370527200000001,0.0,0.0,0.0,0.0
14.18,676.8657023999999,-1.1387328,-0.8132064000000001,0.6900672,0.0,0.0,0.0,0.0
14.2,676.9857936,-0.2709672,-2.2229064000000003,2.223516,0.0,0.0,0.0,0.0
14.22,676.8300408,-4.8252888,-0.4879848,2.6069544000000002,0.0,0.0,0.0,0.0
14.24,676.7891976,-1.5724632,1.4639544,4.907280000000001,0.0,0.0,0.0,0.0
14.26,676.6505136000001,0.37947600000000004,4.2833544,7.6675488,0.0,0.0,0.0,0.0
14.28,676.6185096,-0.7589520000000001,4.988052,5.6741568000000004,0.0,0.0,0.0,0.0
14.3,676.3792415999999,-1.5182088,3.4698432,4.2172128,0.0,0.0,0.0,0.0
14.32,676.2783528,-2.4941784,1.9519392,-1.5334488,0.0,0.0,0.0,0.0
14.34,676.1152847999999,-2.9818584,1.4639544,-0.5367528,0.0,0.0,0.0,0.0
14.36,676.0390848,-3.8496240000000004,1.030224,-0.9201912000000001,0.0,0.0,0.0,0.0
14.38,675.9513023999999,-2.548128,-10.5725976,-11.5781328,0.0,0.0,0.0,0.0
14.4,675.8936952,-1.8976848000000002,0.7046976,-0.5367528,0.0,0.0,0.0,0.0
14.42,675.8034744,-2.1143976,1.030224,-0.8433816000000001,0.0,0.0,0.0,0.0
14.44,675.69588,-2.3314152,-0.2709672,1.6102584000000002,0.0,0.0,0.0,0.0
14.459999999999999,675.8430983999999,-2.1686520000000002,0.5422392,-1.3036296,0.0,0.0,0.0,0.0
14.48,675.9430727999999,0.1085088,0.8674608,-2.4536400000000005,0.0,0.0,0.0,0.0
14.5,676.0009848,-0.4337304,0.9759696,-1.9936968000000002,0.0,0.0,0.0,0.0
14.52,675.9735528,-1.0844784,0.650748,-1.8400776,0.0,0.0,0.0,0.0
14.54,676.0159199999999,-0.9217152000000001,0.0542544,-1.2268200000000002,0.0,0.0,0.0,0.0
14.56,676.1372304,-0.7046976,0.4879848,-1.6102584000000002,0.0,0.0,0.0,0.0
14.58,676.1680152,-0.5422392,-1.0844784,-1.7635728,0.0,0.0,0.0,0.0
14.6,676.1792928,-1.5182088,-0.650748,-0.8433816000000001,0.0,0.0,0.0,0.0
14.62,676.1521656,-2.4399240000000004,-1.8976848000000002,-2.0702016,0.0,0.0,0.0,0.0
14.64,676.1274768,-2.7108912000000003,-2.4941784,-2.9135831999999997,0.0,0.0,0.0,0.0
14.66,676.22928,-4.608576,-2.0061936,-2.4536400000000005,0.0,0.0,0.0,0.0
14.68,676.1820359999999,-4.5000672,-1.789176,-1.9936968000000002,0.0,0.0,0.0,0.0
14.7,676.1799024,0.9217152000000001,8.94588,1.5334488,0.0,0.0,0.0,0.0
14.72,676.203372,2.8194000000000004,-1.1926824,-3.1437072,0.0,0.0,0.0,0.0
14.74,676.2240983999999,3.5240976,0.7046976,-1.4569440000000002,0.0,0.0,0.0,0.0
14.76,676.3051751999999,1.6806672000000002,3.4158936000000004,-0.8433816000000001,0.0,0.0,0.0,0.0
14.78,676.33596,0.9217152000000001,-1.030224,-3.5271456,0.0,0.0,0.0,0.0
14.8,676.3996632,-1.1926824,0.650748,-2.8370784000000002,0.0,0.0,0.0,0.0
14.82,676.4889696,-1.2469368,-2.1143976,-4.2172128,0.0,0.0,0.0,0.0
14.84,676.413684,-3.5240976,0.16276320000000002,0.996696,0.0,0.0,0.0,0.0
14.86,676.2859728,-3.3073848000000003,-1.3554456000000001,-1.6867632000000001,0.0,0.0,0.0,0.0
14.88,676.2393384,-0.7589520000000001,-4.554321600000001,-2.6069544000000002,0.0,0.0,0.0,0.0
14.9,676.207944,-0.650748,-3.0361128,-2.9903928,0.0,0.0,0.0,0.0
14.92,676.1966664,-0.3252216,-2.8194000000000004,-2.1470112,0.0,0.0,0.0,0.0
14.94,676.1908751999999,0.4337304,-1.9519392,0.0768096,0.0,0.0,0.0,0.0
14.959999999999999,676.0211016,0.16276320000000002,-1.789176,-2.6069544000000002,0.0,0.0,0.0,0.0
14.98,675.9546551999999,-2.548128,-0.7046976,-0.23012400000000002,0.0,0.0,0.0,0.0
15.0,675.7025856,-3.957828,-1.789176,-2.9135831999999997,0.0,0.0,0.0,0.0
