time,baro_altitude,accl_x,accl_y,accl_z,gps_altitude,gyro_roll,gyro_pitch,gyro_yaw
0.0,0.0,7.4822304,-3.578352,-3.5271456,0.0,0.0,0.0,0.0
0.020000000000000462,0.153924,7.4822304,-3.6868608000000003,-3.6036504000000003,0.0,0.0,0.0,0.0
0.040000000000000036,0.29565600000000003,7.3194672,-3.6326064,-3.450336,0.0,0.0,0.0,0.0
0.05999999999999961,0.124968,7.427976000000001,-3.6326064,-3.450336,0.0,0.0,0.0,0.0
0.08000000000000007,-0.0277368,7.3194672,-3.6326064,-3.450336,0.0,0.0,0.0,0.0
0.09999999999999964,-0.1392936,7.3737216000000005,-3.6868608000000003,-3.6036504000000003,0.0,0.0,0.0,0.0
0.1200000000000001,-0.043891200000000005,7.3737216000000005,-3.6868608000000003,-3.5271456,0.0,0.0,0.0,0.0
0.13999999999999968,0.070104,7.3737216000000005,-3.6868608000000003,-3.6036504000000003,0.0,0.0,0.0,0.0
0.16000000000000014,0.10759439999999999,7.3737216000000005,-3.6868608000000003,-3.450336,0.0,0.0,0.0,0.0
0.17999999999999972,0.15849600000000003,7.427976000000001,-3.6326064,-3.3738312000000006,0.0,0.0,0.0,0.0
0.20000000000000018,0.1069848,7.427976000000001,-3.7411152,-3.5271456,0.0,0.0,0.0,0.0
0.21999999999999975,0.14081760000000001,7.427976000000001,-3.6326064,-3.450336,0.0,0.0,0.0,0.0
0.2400000000000002,0.135636,7.427976000000001,-3.5240976,-3.450336,0.0,0.0,0.0,0.0
0.2599999999999998,-0.0079248,7.4822304,-3.4698432,-3.450336,0.0,0.0,0.0,0.0
0.28000000000000025,-0.0432816,7.5364848,-3.6326064,-3.5271456,0.0,0.0,0.0,0.0
0.2999999999999998,-0.0978408,7.3737216000000005,-3.578352,-3.450336,0.0,0.0,0.0,0.0
0.3200000000000003,-0.15331440000000002,7.3737216000000005,-3.6868608000000003,-3.5271456,0.0,0.0,0.0,0.0
0.33999999999999986,-0.043586400000000004,7.3737216000000005,-3.6868608000000003,-3.2970216000000003,0.0,0.0,0.0,0.0
0.3600000000000003,0.025908,7.3737216000000005,-3.6868608000000003,-3.450336,0.0,0.0,0.0,0.0
0.3799999999999999,-0.06217920000000001,7.3194672,-3.6326064,-3.5271456,0.0,0.0,0.0,0.0
0.40000000000000036,-0.0539496,7.3737216000000005,-3.6868608000000003,-3.5271456,0.0,0.0,0.0,0.0
0.41999999999999993,-0.0902208,7.427976000000001,-3.5240976,-3.5271456,0.0,0.0,0.0,0.0
0.4400000000000004,-0.12039600000000002,7.4822304,-3.6868608000000003,-3.450336,0.0,0.0,0.0,0.0
0.45999999999999996,-0.12435840000000002,7.427976000000001,-3.6326064,-3.450336,0.0,0.0,0.0,0.0
0.4800000000000004,-0.005486400000000005,7.427976000000001,-3.7411152,-3.5271456,0.0,0.0,0.0,0.0
0.5,0.0646176,7.3194672,-3.6326064,-3.6036504000000003,0.0,0.0,0.0,0.0
0.5200000000000005,0.0438912,7.5364848,-3.6326064,-3.5271456,0.0,0.0,0.0,0.0
0.54,0.06858,7.4822304,-3.578352,-3.5271456,0.0,0.0,0.0,0.0
0.56,-0.007619999999999998,7.4822304,-3.6868608000000003,-3.450336,0.0,0.0,0.0,0.0
0.5800000000000001,-0.12679680000000002,7.3737216000000005,-3.578352,-3.5271456,0.0,0.0,0.0,0.0
0.6000000000000001,-0.04815840000000001,7.427976000000001,-3.5240976,-3.5271456,0.0,0.0,0.0,0.0
0.6200000000000001,-0.10180320000000001,7.427976000000001,-3.6326064,-3.5271456,0.0,0.0,0.0,0.0
0.6400000000000001,-0.257556,7.3737216000000005,-3.578352,-3.5271456,0.0,0.0,0.0,0.0
0.6600000000000001,-0.1606296,7.3737216000000005,-3.6868608000000003,-3.5271456,0.0,0.0,0.0,0.0
0.6800000000000002,0.1030224,7.3194672,-3.6326064,-3.6036504000000003,0.0,0.0,0.0,0.0
0.7000000000000002,0.1109472,7.427976000000001,-3.7411152,-3.3738312000000006,0.0,0.0,0.0,0.0
0.7200000000000002,-0.006096000000000006,7.4822304,-3.6868608000000003,-3.450336,0.0,0.0,0.0,0.0
0.7400000000000002,0.070104,7.4822304,-3.6868608000000003,-3.5271456,0.0,0.0,0.0,0.0
0.7600000000000002,0.043281599999999996,7.5364848,-3.6326064,-3.450336,0.0,0.0,0.0,0.0
0.7800000000000002,0.018897599999999997,7.427976000000001,-3.5240976,-3.5271456,0.0,0.0,0.0,0.0
0.7999999999999998,0.1359408,7.4822304,-3.6868608000000003,-3.450336,0.0,0.0,0.0,0.0
0.8199999999999998,0.1261872,7.3737216000000005,-3.578352,-3.450336,0.0,0.0,0.0,0.0
0.8399999999999999,0.1258824,7.3737216000000005,-3.578352,-3.450336,0.0,0.0,0.0,0.0
0.8599999999999999,0.24749759999999998,7.3194672,-3.6326064,-3.6036504000000003,0.0,0.0,0.0,0.0
0.8799999999999999,0.2465832,7.427976000000001,-3.6326064,-3.5271456,0.0,0.0,0.0,0.0
0.8999999999999999,0.214884,7.427976000000001,-3.6326064,-3.450336,0.0,0.0,0.0,0.0
0.9199999999999999,0.1825752,7.427976000000001,-3.6326064,-3.450336,0.0,0.0,0.0,0.0
0.94,0.073152,7.3737216000000005,-3.6868608000000003,-3.6036504000000003,0.0,0.0,0.0,0.0
0.96,0.256032,7.4822304,-3.6868608000000003,-3.450336,0.0,0.0,0.0,0.0
0.98,0.0515112,7.427976000000001,-3.6326064,-3.5271456,0.0,0.0,0.0,0.0
1.0,0.0978408,7.427976000000001,-3.7411152,-3.450336,0.0,0.0,0.0,0.0
1.02,0.049682399999999995,7.427976000000001,-3.6326064,-3.3738312000000006,0.0,0.0,0.0,0.0
1.04,-0.0012192000000000012,7.4822304,-3.7953696000000003,-3.450336,0.0,0.0,0.0,0.0
1.06,-0.07589520000000001,7.427976000000001,-3.6326064,-3.5271456,0.0,0.0,0.0,0.0
1.08,-0.08016240000000001,7.3737216000000005,-3.6868608000000003,-3.5271456,0.0,0.0,0.0,0.0
1.1,-0.0271272,7.427976000000001,-3.6326064,-3.5271456,0.0,0.0,0.0,0.0
1.12,-0.015544800000000006,7.4822304,-3.578352,-3.6036504000000003,0.0,0.0,0.0,0.0
1.1400000000000001,0.001219199999999997,7.427976000000001,-3.6326064,-3.5271456,0.0,0.0,0.0,0.0
1.1600000000000001,0.23530560000000003,7.5364848,-3.6326064,-3.450336,0.0,0.0,0.0,0.0
1.1800000000000002,0.29718,7.4822304,-3.578352,-3.6036504000000003,0.0,0.0,0.0,0.0
1.2000000000000002,0.12192000000000001,7.427976000000001,-3.6326064,-3.5271456,0.0,0.0,0.0,0.0
1.2200000000000002,-0.08199120000000001,7.4822304,-3.578352,-3.6036504000000003,0.0,0.0,0.0,0.0
1.2400000000000002,-0.023774400000000005,7.427976000000001,-3.6326064,-3.5271456,0.0,0.0,0.0,0.0
1.2600000000000002,-0.049072800000000014,7.4822304,-3.578352,-3.5271456,0.0,0.0,0.0,0.0
1.2800000000000002,0.006095999999999997,7.3737216000000005,-3.6868608000000003,-3.6036504000000003,0.0,0.0,0.0,0.0
1.2999999999999998,0.08442960000000001,7.4822304,-3.578352,-3.450336,0.0,0.0,0.0,0.0
1.3199999999999998,0.1975104,7.3194672,-3.6326064,-3.450336,0.0,0.0,0.0,0.0
1.3399999999999999,0.22768560000000002,7.427976000000001,-3.5240976,-3.450336,0.0,0.0,0.0,0.0
1.3599999999999999,0.16245839999999998,7.3737216000000005,-3.6868608000000003,-3.5271456,0.0,0.0,0.0,0.0
1.38,0.1475232,7.3737216000000005,-3.578352,-3.450336,0.0,0.0,0.0,0.0
1.4,0.2078736,7.4822304,-3.578352,-3.450336,0.0,0.0,0.0,0.0
1.42,0.1959864,7.427976000000001,-3.6326064,-3.5271456,0.0,0.0,0.0,0.0
1.44,0.3560064,7.427976000000001,-3.6326064,-3.450336,0.0,0.0,0.0,0.0
1.46,0.45780960000000004,7.3737216000000005,-3.578352,-3.5271456,0.0,0.0,0.0,0.0
1.48,0.3968496,7.427976000000001,-3.6326064,-3.5271456,0.0,0.0,0.0,0.0
1.5,0.1716024,7.427976000000001,-3.6326064,-3.450336,0.0,0.0,0.0,0.0
1.52,0.2795016,7.427976000000001,-3.6326064,-3.5271456,0.0,0.0,0.0,0.0
1.54,0.24566880000000002,7.3194672,-3.6326064,-3.450336,0.0,0.0,0.0,0.0
1.56,0.23439120000000002,7.3737216000000005,-3.7953696000000003,-3.6036504000000003,0.0,0.0,0.0,0.0
1.58,0.0085344,7.3737216000000005,-3.578352,-3.450336,0.0,0.0,0.0,0.0
1.6,0.028956000000000003,7.427976000000001,-3.6326064,-3.6036504000000003,0.0,0.0,0.0,0.0
1.62,-0.09631680000000001,7.427976000000001,-3.7411152,-3.450336,0.0,0.0,0.0,0.0
1.6400000000000001,-0.1871472,7.3737216000000005,-3.6868608000000003,-3.3738312000000006,0.0,0.0,0.0,0.0
1.6600000000000001,-0.052425599999999996,7.427976000000001,-3.6326064,-3.450336,0.0,0.0,0.0,0.0
1.6800000000000002,0.0935736,7.427976000000001,-3.5240976,-3.450336,0.0,0.0,0.0,0.0
1.7000000000000002,-0.041148000000000004,7.4822304,-3.578352,-3.450336,0.0,0.0,0.0,0.0
1.7200000000000002,0.023774399999999998,7.427976000000001,-3.6326064,-3.5271456,0.0,0.0,0.0,0.0
1.7400000000000002,0.029260800000000003,7.427976000000001,-3.6326064,-3.450336,0.0,0.0,0.0,0.0
1.7600000000000002,0.1453896,7.4822304,-3.578352,-3.450336,0.0,0.0,0.0,0.0
1.7800000000000002,0.17617440000000004,7.4822304,-3.4698432,-3.6036504000000003,0.0,0.0,0.0,0.0
1.7999999999999998,0.08229600000000001,7.5364848,-3.6326064,-3.5271456,0.0,0.0,0.0,0.0
1.8199999999999998,0.038709600000000004,7.427976000000001,-3.7411152,-3.5271456,0.0,0.0,0.0,0.0
1.8399999999999999,0.2243328,7.3737216000000005,-3.578352,-3.5271456,0.0,0.0,0.0,0.0
1.8599999999999999,0.08869679999999999,7.4822304,-3.6868608000000003,-3.5271456,0.0,0.0,0.0,0.0
1.88,0.15758160000000002,7.5364848,-3.6326064,-3.450336,0.0,0.0,0.0,0.0
1.9,0.2615184,7.3737216000000005,-3.578352,-3.450336,0.0,0.0,0.0,0.0
1.92,0.2688336,7.427976000000001,-3.5240976,-3.5271456,0.0,0.0,0.0,0.0
1.94,0.1255776,7.4822304,-3.6868608000000003,-3.5271456,0.0,0.0,0.0,0.0
1.96,0.20970239999999998,7.4822304,-3.6868608000000003,-3.5271456,0.0,0.0,0.0,0.0
1.98,0.39258240000000005,7.3737216000000005,-3.578352,-3.6036504000000003,0.0,0.0,0.0,0.0
2.0,0.1972056,7.4822304,-3.6868608000000003,-3.450336,0.0,0.0,0.0,0.0
2.02,-0.0972312,7.427976000000001,-3.6326064,-3.5271456,0.0,0.0,0.0,0.0
2.04,-0.0880872,7.427976000000001,-3.7411152,-3.5271456,0.0,0.0,0.0,0.0
2.06,0.0762,7.3737216000000005,-3.578352,-3.450336,0.0,0.0,0.0,0.0
2.08,0.1673352,7.427976000000001,-3.6326064,-3.5271456,0.0,0.0,0.0,0.0
2.1,0.0755904,7.427976000000001,-3.6326064,-3.450336,0.0,0.0,0.0,0.0
2.12,0.038709600000000004,7.427976000000001,-3.6326064,-3.5271456,0.0,0.0,0.0,0.0
2.14,0.07924800000000001,7.3194672,-3.6326064,-3.450336,0.0,0.0,0.0,0.0
2.16,0.07589520000000001,7.427976000000001,-3.6326064,-3.5271456,0.0,0.0,0.0,0.0
2.18,0.15483840000000001,7.4822304,-3.6868608000000003,-3.5271456,0.0,0.0,0.0,0.0
2.2,0.1414272,7.5364848,-3.6326064,-3.6036504000000003,0.0,0.0,0.0,0.0
2.22,0.208788,7.4822304,-3.6868608000000003,-3.3738312000000006,0.0,0.0,0.0,0.0
2.24,0.2139696,7.4822304,-3.6868608000000003,-3.450336,0.0,0.0,0.0,0.0
2.2600000000000002,0.16459200000000002,7.427976000000001,-3.6326064,-3.5271456,0.0,0.0,0.0,0.0
2.2800000000000002,0.2100072,7.5364848,-3.6326064,-3.5271456,0.0,0.0,0.0,0.0
2.3,0.20452080000000003,7.3194672,-3.6326064,-3.5271456,0.0,0.0,0.0,0.0
2.32,0.201168,7.3737216000000005,-3.578352,-3.450336,0.0,0.0,0.0,0.0
2.34,0.2310384,7.3194672,-3.5240976,-3.3738312000000006,0.0,0.0,0.0,0.0
2.36,0.1411224,7.427976000000001,-3.6326064,-3.3738312000000006,0.0,0.0,0.0,0.0
2.38,0.201168,7.3737216000000005,-3.578352,-3.450336,0.0,0.0,0.0,0.0
2.4,0.06156960000000001,7.4822304,-3.578352,-3.450336,0.0,0.0,0.0,0.0
2.42,-0.0707136,7.3737216000000005,-3.578352,-3.5271456,0.0,0.0,0.0,0.0
2.44,-0.06187440000000001,7.3737216000000005,-3.6868608000000003,-3.450336,0.0,0.0,0.0,0.0
2.46,-0.08473440000000002,7.3737216000000005,-3.578352,-3.5271456,0.0,0.0,0.0,0.0
2.48,-0.1298448,7.3737216000000005,-3.6868608000000003,-3.6036504000000003,0.0,0.0,0.0,0.0
2.5,0.0725424,7.4822304,-3.6868608000000003,-3.450336,0.0,0.0,0.0,0.0
2.52,0.0804672,7.5364848,-3.6326064,-3.5271456,0.0,0.0,0.0,0.0
2.54,0.1901952,7.4822304,-3.6868608000000003,-3.450336,0.0,0.0,0.0,0.0
2.56,0.14081760000000001,7.3737216000000005,-3.6868608000000003,-3.5271456,0.0,0.0,0.0,0.0
2.58,0.0173736,7.427976000000001,-3.5240976,-3.450336,0.0,0.0,0.0,0.0
2.6,0.12039600000000002,7.427976000000001,-3.7411152,-3.3738312000000006,0.0,0.0,0.0,0.0
2.62,0.16794479999999998,7.3737216000000005,-3.6868608000000003,-3.450336,0.0,0.0,0.0,0.0
2.64,0.254508,7.427976000000001,-3.7411152,-3.5271456,0.0,0.0,0.0,0.0
2.66,0.1030224,7.4822304,-3.4698432,-3.5271456,0.0,0.0,0.0,0.0
2.6799999999999997,0.0832104,7.3737216000000005,-3.6868608000000003,-3.5271456,0.0,0.0,0.0,0.0
2.7,0.2679192,7.427976000000001,-3.6326064,-3.5271456,0.0,0.0,0.0,0.0
2.7199999999999998,0.37978080000000003,7.4822304,-3.578352,-3.5271456,0.0,0.0,0.0,0.0
2.74,0.2721864,7.3737216000000005,-3.578352,-3.450336,0.0,0.0,0.0,0.0
2.76,0.3910584,7.4822304,-3.578352,-3.5271456,0.0,0.0,0.0,0.0
2.7800000000000002,0.5062728000000001,7.3737216000000005,-3.578352,-3.450336,0.0,0.0,0.0,0.0
2.8,0.5123688000000001,7.427976000000001,-3.6326064,-3.5271456,0.0,0.0,0.0,0.0
2.8200000000000003,0.422148,7.427976000000001,-3.7411152,-3.450336,0.0,0.0,0.0,0.0
2.84,0.28072080000000005,7.4822304,-3.6868608000000003,-3.5271456,0.0,0.0,0.0,0.0
2.8600000000000003,0.2843784,7.3737216000000005,-3.6868608000000003,-3.6036504000000003,0.0,0.0,0.0,0.0
2.88,0.301752,7.3737216000000005,-3.6868608000000003,-3.6036504000000003,0.0,0.0,0.0,0.0
2.9000000000000004,0.22890480000000002,7.3737216000000005,-3.6868608000000003,-3.5271456,0.0,0.0,0.0,0.0
2.92,0.19385280000000002,7.4822304,-3.578352,-3.450336,0.0,0.0,0.0,0.0
2.94,0.1972056,7.3737216000000005,-3.6868608000000003,-3.5271456,0.0,0.0,0.0,0.0
2.96,0.333756,7.3194672,-3.6326064,-3.450336,0.0,0.0,0.0,0.0
2.98,0.2478024,7.427976000000001,-3.7411152,-3.6036504000000003,0.0,0.0,0.0,0.0
3.0,0.2633472,7.4822304,-3.578352,-3.6036504000000003,0.0,0.0,0.0,0.0
3.02,0.29565600000000003,7.3737216000000005,-3.6868608000000003,-3.450336,0.0,0.0,0.0,0.0
3.04,0.2706624,7.427976000000001,-3.6326064,-3.5271456,0.0,0.0,0.0,0.0
3.06,0.1149096,7.3194672,-3.6326064,-3.450336,0.0,0.0,0.0,0.0
3.08,0.192024,7.427976000000001,-3.7411152,-3.450336,0.0,0.0,0.0,0.0
3.1,0.172212,7.4822304,-3.6868608000000003,-3.3738312000000006,0.0,0.0,0.0,0.0
3.12,0.0789432,7.427976000000001,-3.6326064,-3.5271456,0.0,0.0,0.0,0.0
3.14,0.0966216,7.3737216000000005,-3.578352,-3.450336,0.0,0.0,0.0,0.0
3.16,0.077724,7.3737216000000005,-3.6868608000000003,-3.5271456,0.0,0.0,0.0,0.0
3.1799999999999997,0.0673608,7.427976000000001,-3.6326064,-3.450336,0.0,0.0,0.0,0.0
3.2,0.030784799999999998,7.4822304,-3.6868608000000003,-3.450336,0.0,0.0,0.0,0.0
3.2199999999999998,0.0374904,7.3737216000000005,-3.6868608000000003,-3.5271456,0.0,0.0,0.0,0.0
3.24,0.2660904,7.427976000000001,-3.6326064,-3.450336,0.0,0.0,0.0,0.0
3.26,0.344424,7.427976000000001,-3.6326064,-3.450336,0.0,0.0,0.0,0.0
3.2800000000000002,0.45476160000000004,7.3737216000000005,-3.6868608000000003,-3.6036504000000003,0.0,0.0,0.0,0.0
3.3,0.37581840000000005,7.427976000000001,-3.5240976,-3.450336,0.0,0.0,0.0,0.0
3.3200000000000003,0.3971544,7.5364848,-3.6326064,-3.5271456,0.0,0.0,0.0,0.0
3.34,0.44897040000000005,7.4822304,-3.6868608000000003,-3.5271456,0.0,0.0,0.0,0.0
3.3600000000000003,0.41605200000000003,7.3737216000000005,-3.6868608000000003,-3.5271456,0.0,0.0,0.0,0.0
3.38,0.47061120000000006,7.427976000000001,-3.6326064,-3.5271456,0.0,0.0,0.0,0.0
3.4000000000000004,0.31455360000000004,7.427976000000001,-3.5240976,-3.5271456,0.0,0.0,0.0,0.0
3.42,0.16916399999999998,7.427976000000001,-3.6326064,-3.450336,0.0,0.0,0.0,0.0
3.44,-0.005791200000000005,7.427976000000001,-3.6326064,-3.6036504000000003,0.0,0.0,0.0,0.0
3.46,-0.0728472,7.3737216000000005,-3.578352,-3.5271456,0.0,0.0,0.0,0.0
3.48,-0.1871472,7.3737216000000005,-3.578352,-3.450336,0.0,0.0,0.0,0.0
3.5,-0.1149096,7.5364848,-3.6326064,-3.450336,0.0,0.0,0.0,0.0
3.52,-0.04602480000000001,7.3737216000000005,-3.578352,-3.5271456,0.0,0.0,0.0,0.0
3.54,-0.0015240000000000015,7.427976000000001,-3.6326064,-3.5271456,0.0,0.0,0.0,0.0
3.56,-0.0505968,7.4822304,-3.7953696000000003,-3.6036504000000003,0.0,0.0,0.0,0.0
3.58,-0.0816864,7.4822304,-3.578352,-3.5271456,0.0,0.0,0.0,0.0
3.6,0.015239999999999997,7.427976000000001,-3.6326064,-3.5271456,0.0,0.0,0.0,0.0
3.62,-0.0079248,7.4822304,-3.578352,-3.450336,0.0,0.0,0.0,0.0
3.64,-0.03291840000000001,7.3737216000000005,-3.6868608000000003,-3.450336,0.0,0.0,0.0,0.0
3.66,-0.16154400000000002,7.3737216000000005,-3.6868608000000003,-3.450336,0.0,0.0,0.0,0.0
3.68,-0.1365504,7.427976000000001,-3.6326064,-3.450336,0.0,0.0,0.0,0.0
3.7,-0.0094488,7.427976000000001,-3.6326064,-3.5271456,0.0,0.0,0.0,0.0
3.72,0.051816,7.3737216000000005,-3.6868608000000003,-3.6036504000000003,0.0,0.0,0.0,0.0
3.74,0.0,7.3737216000000005,-3.6868608000000003,-3.450336,0.0,0.0,0.0,0.0
3.76,0.126492,7.3737216000000005,-3.6868608000000003,-3.6036504000000003,0.0,0.0,0.0,0.0
3.7800000000000002,0.17861280000000004,7.4822304,-3.578352,-3.6036504000000003,0.0,0.0,0.0,0.0
3.8,0.17251680000000003,7.3194672,-3.6326064,-3.5271456,0.0,0.0,0.0,0.0
3.8200000000000003,0.2243328,7.3737216000000005,-3.578352,-3.5271456,0.0,0.0,0.0,0.0
3.84,0.20360640000000002,7.4822304,-3.6868608000000003,-3.5271456,0.0,0.0,0.0,0.0
3.86,0.19903440000000003,7.427976000000001,-3.6326064,-3.5271456,0.0,0.0,0.0,0.0
3.88,0.3422904,7.427976000000001,-3.6326064,-3.450336,0.0,0.0,0.0,0.0
3.9,0.3041904,7.3737216000000005,-3.578352,-3.450336,0.0,0.0,0.0,0.0
3.92,0.3477768,7.3737216000000005,-3.578352,-3.5271456,0.0,0.0,0.0,0.0
3.94,0.22494240000000001,7.3737216000000005,-3.578352,-3.5271456,0.0,0.0,0.0,0.0
3.96,0.3328416,7.3737216000000005,-3.578352,-3.3738312000000006,0.0,0.0,0.0,0.0
3.98,0.28956,7.4822304,-3.578352,-3.5271456,0.0,0.0,0.0,0.0
4.0,0.1850136,7.427976000000001,-3.6326064,-3.450336,0.0,0.0,0.0,0.0
4.02,0.2709672,7.4822304,-3.6868608000000003,-3.5271456,0.0,0.0,0.0,0.0
4.04,0.2490216,7.3737216000000005,-3.578352,-3.3738312000000006,0.0,0.0,0.0,0.0
4.0600000000000005,0.13898880000000002,7.3737216000000005,-3.578352,-3.6036504000000003,0.0,0.0,0.0,0.0
4.08,0.2990088,7.427976000000001,-3.6326064,-3.450336,0.0,0.0,0.0,0.0
4.1,0.0423672,7.427976000000001,-3.7411152,-3.5271456,0.0,0.0,0.0,0.0
4.12,0.055168800000000004,7.427976000000001,-3.6326064,-3.450336,0.0,0.0,0.0,0.0
4.14,0.0384048,7.3737216000000005,-3.578352,-3.450336,0.0,0.0,0.0,0.0
4.16,0.011582399999999998,7.427976000000001,-3.6326064,-3.5271456,0.0,0.0,0.0,0.0
4.18,0.112776,7.427976000000001,-3.6326064,-3.6036504000000003,0.0,0.0,0.0,0.0
4.2,0.33040320000000006,7.427976000000001,-3.6326064,-3.6036504000000003,0.0,0.0,0.0,0.0
4.22,0.2862072,7.3737216000000005,-3.578352,-3.3738312000000006,0.0,0.0,0.0,0.0
4.24,0.2667,7.5364848,-3.7411152,-3.450336,0.0,0.0,0.0,0.0
4.26,0.11795760000000001,7.427976000000001,-3.7411152,-3.5271456,0.0,0.0,0.0,0.0
4.28,0.1441704,7.5904344,-3.6868608000000003,-3.5271456,0.0,0.0,0.0,0.0
4.3,0.16824960000000003,7.4822304,-3.6868608000000003,-3.5271456,0.0,0.0,0.0,0.0
4.32,0.1877568,7.5364848,-3.7411152,-3.450336,0.0,0.0,0.0,0.0
4.34,0.135636,7.5364848,-3.6326064,-3.450336,0.0,0.0,0.0,0.0
4.36,0.0201168,7.3737216000000005,-3.6868608000000003,-3.3738312000000006,0.0,0.0,0.0,0.0
4.38,-0.0286512,7.4822304,-3.6868608000000003,-3.5271456,0.0,0.0,0.0,0.0
4.4,0.140208,7.3194672,-3.6326064,-3.6036504000000003,0.0,0.0,0.0,0.0
4.42,0.0673608,7.6989432,-3.7953696000000003,-4.0638984,0.0,0.0,0.0,0.0
4.44,0.1304544,7.427976000000001,-3.8496240000000004,-3.5271456,0.0,0.0,0.0,0.0
4.46,0.06979919999999999,7.427976000000001,-3.6326064,-3.450336,0.0,0.0,0.0,0.0
4.48,0.1054608,7.3194672,-3.6326064,-3.2970216000000003,0.0,0.0,0.0,0.0
4.5,0.1664208,7.5904344,-3.578352,-3.5271456,0.0,0.0,0.0,0.0
4.5200000000000005,0.1831848,7.3737216000000005,-3.4698432,-3.5271456,0.0,0.0,0.0,0.0
4.54,0.057607200000000004,7.4822304,-3.6868608000000003,-3.450336,0.0,0.0,0.0,0.0
4.56,-0.05852160000000001,7.6446888,-4.0663368,-3.450336,0.0,0.0,0.0,0.0
4.58,-0.031089600000000005,7.6446888,-3.6326064,-3.450336,0.0,0.0,0.0,0.0
4.6,-0.06858,7.3737216000000005,-3.7953696000000003,-3.2970216000000003,0.0,0.0,0.0,0.0
4.62,-0.10119360000000001,32.368235999999996,-17.1870624,-12.651638400000001,0.0,0.0,0.0,0.0
4.64,-0.1362456,69.94154160000001,-29.386377600000003,-33.4307688,0.0,0.0,0.0,0.0
4.66,-0.173736,141.07607040000002,-21.0366864,-88.0244112,0.0,0.0,0.0,0.0
4.68,-0.2139696,-100.62911040000002,95.42434560000001,-157.03296000000003,0.0,0.0,0.0,0.0
4.7,-0.2566416,-107.29813440000001,105.77992560000001,-41.328441600000005,0.0,0.0,0.0,0.0
4.72,-0.30205680000000007,-89.24330640000001,75.363324,-91.78137600000001,0.0,0.0,0.0,0.0
4.74,0.050291999999999996,-110.3342472,84.851748,-86.874096,0.0,0.0,0.0,0.0
4.76,0.2892552,-107.8943232,82.8455544,-95.0018928,0.0,0.0,0.0,0.0
4.78,0.6733031999999999,-94.2313584,79.8094416,-88.94460240000001,0.0,0.0,0.0,0.0
4.8,1.1868912,-98.026728,75.9055632,-97.83897120000002,0.0,0.0,0.0,0.0
4.82,1.7727168,-93.47240640000001,82.3033152,-82.8105024,0.0,0.0,0.0,0.0
4.84,2.3457408,-99.5988864,80.29742639999999,-85.03401840000001,0.0,0.0,0.0,0.0
4.86,3.1101792,-96.40001040000001,76.8815328,-81.50687280000001,0.0,0.0,0.0,0.0
4.88,3.9837360000000004,-96.7797912,77.5862304,-84.19063680000001,0.0,0.0,0.0,0.0
4.9,4.8283368,-96.45426480000002,77.044296,-82.27374960000002,0.0,0.0,0.0,0.0
4.92,5.5964328000000005,-94.2313584,76.12258080000001,-81.8135016,0.0,0.0,0.0,0.0
4.94,6.3709296,-93.14688000000001,75.0381024,-81.4300632,0.0,0.0,0.0,0.0
4.96,7.2972168,-91.95419760000001,74.2791504,-80.04992879999999,0.0,0.0,0.0,0.0
4.98,8.4143088,-90.05651280000001,74.224896,-80.1267384,0.0,0.0,0.0,0.0
5.0,9.717024,-90.0022584,73.5198936,-79.4366712,0.0,0.0,0.0,0.0
5.02,10.917936000000001,-89.8940544,74.17064160000001,-76.90622160000001,0.0,0.0,0.0,0.0
5.04,11.946636,-89.189052,73.0319088,-79.513176,0.0,0.0,0.0,0.0
5.0600000000000005,13.275564000000001,-90.05651280000001,71.94773520000001,-76.90622160000001,0.0,0.0,0.0,0.0
5.08,14.558772000000001,-89.7855456,71.5682592,-77.519784,0.0,0.0,0.0,0.0
5.1,16.049244,-90.38203920000001,71.7307176,-77.44297440000001,0.0,0.0,0.0,0.0
5.12,17.713756800000002,-91.08673680000001,71.02602,-77.82641280000001,0.0,0.0,0.0,0.0
5.14,19.797064799999998,-90.97822800000002,69.7248288,-77.6730984,0.0,0.0,0.0,0.0
5.16,21.988576800000004,-91.52046720000001,72.0019896,-77.82641280000001,0.0,0.0,0.0,0.0
5.18,24.128577600000003,-90.7615152,71.784972,-77.9029176,0.0,0.0,0.0,0.0
5.2,26.11374,-91.0324824,69.4535568,-77.82641280000001,0.0,0.0,0.0,0.0
5.22,27.8788368,-91.1952456,71.784972,-77.9029176,0.0,0.0,0.0,0.0
5.24,29.550969600000002,-91.4119584,72.32721120000001,-79.2065472,0.0,0.0,0.0,0.0
5.26,31.2791856,-90.8697192,72.5442288,-79.0532328,0.0,0.0,0.0,0.0
5.28,32.6047608,-91.5747216,73.0319088,-80.04992879999999,0.0,0.0,0.0,0.0
5.3,33.913572,-94.33986720000001,74.4958632,-82.427064,0.0,0.0,0.0,0.0
5.32,35.1269808,-93.5266608,74.224896,-79.4366712,0.0,0.0,0.0,0.0
5.34,36.2952792,-93.03867600000001,73.6284024,-80.739996,0.0,0.0,0.0,0.0
5.36,37.5736104,-93.03867600000001,72.8694504,-81.4300632,0.0,0.0,0.0,0.0
5.38,38.990320800000006,-96.7255368,74.9295936,-82.04362560000001,0.0,0.0,0.0,0.0
5.4,40.495423200000005,-95.207328,75.6888504,-82.88700720000001,0.0,0.0,0.0,0.0
5.42,41.96516880000001,-96.3460608,75.634596,-84.65058,0.0,0.0,0.0,0.0
5.44,43.578170400000005,-96.94224960000001,76.8815328,-83.3469504,0.0,0.0,0.0,0.0
5.46,45.2570088,-96.94224960000001,76.8815328,-84.65058,0.0,0.0,0.0,0.0
5.48,47.00016,-97.97247360000001,77.044296,-84.2671416,0.0,0.0,0.0,0.0
5.5,48.9469176,-97.80971040000001,78.0742152,-83.80719840000002,0.0,0.0,0.0,0.0
5.52,50.8945896,-96.617028,77.3152632,-83.8837032,0.0,0.0,0.0,0.0
5.54,52.9370544,-82.1408568,64.248792,-71.84562720000001,0.0,0.0,0.0,0.0
5.5600000000000005,55.02402000000001,-62.730583200000005,50.6940312,-55.3602144,0.0,0.0,0.0,0.0
5.58,57.3837816,-50.9653032,41.3144208,-46.0059024,0.0,0.0,0.0,0.0
5.6,59.7030048,-45.435012,37.085320800000005,-42.248632799999996,0.0,0.0,0.0,0.0
5.62,62.00180640000001,-40.7179272,33.3442056,-38.3380488,0.0,0.0,0.0,0.0
5.640000000000001,64.2798816,-29.7658536,24.669292800000004,-29.827118400000003,0.0,0.0,0.0,0.0
5.66,66.5390592,-16.1571432,14.313712800000001,-19.0158624,0.0,0.0,0.0,0.0
5.68,68.7010056,-5.5845456,6.1267848,-11.271504,0.0,0.0,0.0,0.0
5.7,70.6215504,9.867595200000002,-11.7110256,-2.683764,0.0,0.0,0.0,0.0
5.72,72.5183208,0.5964936000000001,0.0542544,5.5205376,0.0,0.0,0.0,0.0
5.74,74.2959144,-3.3616392,0.8674608,8.1277968,0.0,0.0,0.0,0.0
5.76,76.404216,0.5422392,-2.1686520000000002,4.4473368,0.0,0.0,0.0,0.0
5.78,78.73898400000002,2.1686520000000002,-1.6264128000000002,1.3036296,0.0,0.0,0.0,0.0
5.8,81.25449840000002,-2.7651456,-2.0061936,7.2076056,0.0,0.0,0.0,0.0
5.82,83.79134880000001,-4.2833544,-3.8496240000000004,4.370527200000001,0.0,0.0,0.0,0.0
5.84,86.3358192,-4.445812800000001,-2.8194000000000004,6.1341,0.0,0.0,0.0,0.0
5.86,88.89126240000002,-2.2771608000000003,-2.4941784,4.2937176,0.0,0.0,0.0,0.0
5.88,91.60002000000001,-2.6023824,-0.8674608,1.6867632000000001,0.0,0.0,0.0,0.0
5.9,94.20301200000002,-4.7170848,-2.548128,3.68046,0.0,0.0,0.0,0.0
5.92,96.7401672,-4.8795432000000005,-2.1686520000000002,3.8337744,0.0,0.0,0.0,0.0
5.9399999999999995,99.192588,-4.8252888,-2.1143976,3.68046,0.0,0.0,0.0,0.0
5.96,101.52491760000002,-4.8252888,-1.789176,2.1470112,0.0,0.0,0.0,0.0
5.98,103.70759040000002,-4.5000672,-1.030224,2.223516,0.0,0.0,0.0,0.0
6.0,105.84515280000001,-3.957828,-0.8132064000000001,1.8400776,0.0,0.0,0.0,0.0
6.02,107.92907040000001,-3.3073848000000003,-2.0061936,2.683764,0.0,0.0,0.0,0.0
6.04,110.02853280000002,-3.8496240000000004,-1.030224,2.5304496,0.0,0.0,0.0,0.0
6.0600000000000005,112.1487216,-4.012082400000001,-1.1926824,1.9168872,0.0,0.0,0.0,0.0
6.08,114.431064,-3.578352,-0.8674608,2.9135831999999997,0.0,0.0,0.0,0.0
6.1,116.62592880000001,-3.1446216000000002,-1.4097000000000002,2.7602688,0.0,0.0,0.0,0.0
6.12,118.9158912,-3.9035736000000005,-0.8674608,2.223516,0.0,0.0,0.0,0.0
6.140000000000001,121.15434240000002,-3.4698432,-0.8674608,2.5304496,0.0,0.0,0.0,0.0
6.16,123.39218400000001,-3.4158936000000004,-1.030224,2.5304496,0.0,0.0,0.0,0.0
6.18,125.52426000000003,-3.6326064,-1.4639544,2.7602688,0.0,0.0,0.0,0.0
6.2,127.65298320000001,-3.957828,-0.7046976,1.9936968000000002,0.0,0.0,0.0,0.0
6.22,129.6899616,-3.8496240000000004,-1.2469368,2.6069544000000002,0.0,0.0,0.0,0.0
6.24,131.71992960000003,-3.4158936000000004,-1.2469368,2.6069544000000002,0.0,0.0,0.0,0.0
6.26,133.7541648,-3.9035736000000005,-0.650748,1.3801344,0.0,0.0,0.0,0.0
6.28,135.94842000000003,-3.7411152,-1.3554456000000001,2.3768304000000002,0.0,0.0,0.0,0.0
6.3,138.14328480000003,-4.0663368,-0.9217152000000001,2.223516,0.0,0.0,0.0,0.0
6.32,140.35156080000002,-3.7411152,-0.9217152000000001,2.7602688,0.0,0.0,0.0,0.0
6.34,142.47296880000002,-3.957828,-1.3554456000000001,2.3003256,0.0,0.0,0.0,0.0
6.36,144.6803304,-4.012082400000001,-1.0844784,2.683764,0.0,0.0,0.0,0.0
6.38,146.79503280000003,-3.957828,-1.030224,2.7602688,0.0,0.0,0.0,0.0
6.4,149.114256,-3.6868608000000003,-1.0844784,2.6069544000000002,0.0,0.0,0.0,0.0
6.42,151.40818080000003,-3.7411152,-1.3554456000000001,2.6069544000000002,0.0,0.0,0.0,0.0
6.4399999999999995,153.69021840000002,-4.1748456,-0.8132064000000001,2.9135831999999997,0.0,0.0,0.0,0.0
6.46,155.9606736,-3.8496240000000004,-1.3554456000000001,2.4536400000000005,0.0,0.0,0.0,0.0
6.48,158.13054480000002,-3.9035736000000005,-1.1926824,2.3768304000000002,0.0,0.0,0.0,0.0
6.5,160.4156304,-3.957828,-1.030224,2.5304496,0.0,0.0,0.0,0.0
6.52,162.69340080000003,-3.6326064,-1.030224,2.7602688,0.0,0.0,0.0,0.0
6.54,164.88887520000003,-3.6326064,-1.3554456000000001,2.5304496,0.0,0.0,0.0,0.0
6.5600000000000005,167.03680080000004,-3.6326064,-1.030224,2.683764,0.0,0.0,0.0,0.0
6.58,169.3029888,-3.8496240000000004,-1.3554456000000001,2.223516,0.0,0.0,0.0,0.0
6.6,171.57649200000003,-3.6326064,-1.4639544,2.5304496,0.0,0.0,0.0,0.0
6.62,173.78873040000002,-3.7411152,-0.7046976,2.9903928,0.0,0.0,0.0,0.0
6.640000000000001,175.91562480000002,-3.6326064,-0.9217152000000001,2.6069544000000002,0.0,0.0,0.0,0.0
6.66,178.0531872,-3.5240976,-0.9217152000000001,2.3003256,0.0,0.0,0.0,0.0
6.68,180.22824000000003,-3.957828,-0.7046976,2.5304496,0.0,0.0,0.0,0.0
6.7,182.27314320000002,-3.9035736000000005,-0.650748,2.7602688,0.0,0.0,0.0,0.0
6.720000000000001,184.2327024,-3.6326064,-0.37947600000000004,2.6069544000000002,0.0,0.0,0.0,0.0
6.74,186.29741760000002,-3.7411152,-1.030224,1.9168872,0.0,0.0,0.0,0.0
6.76,188.20851360000003,-3.8496240000000004,-0.9217152000000001,2.4536400000000005,0.0,0.0,0.0,0.0
6.78,190.25890320000002,-3.6326064,-0.7046976,2.3003256,0.0,0.0,0.0,0.0
6.8,192.53636880000002,-3.5240976,-0.7046976,2.1470112,0.0,0.0,0.0,0.0
6.82,194.67850320000002,-3.7411152,-1.3554456000000001,2.3003256,0.0,0.0,0.0,0.0
6.84,196.81515120000003,-3.6326064,-0.8132064000000001,2.3768304000000002,0.0,0.0,0.0,0.0
6.859999999999999,198.99843360000003,-3.7411152,-0.5964936000000001,1.9936968000000002,0.0,0.0,0.0,0.0
6.88,201.1536744,-3.4158936000000004,-1.1387328,2.4536400000000005,0.0,0.0,0.0,0.0
6.9,203.19065280000004,-3.3616392,-1.3011912,2.7602688,0.0,0.0,0.0,0.0
6.92,205.4028912,-3.5240976,-0.8132064000000001,2.683764,0.0,0.0,0.0,0.0
6.9399999999999995,207.5508168,-3.4158936000000004,-0.8132064000000001,2.223516,0.0,0.0,0.0,0.0
6.96,209.79688800000002,-3.578352,-0.9759696,2.3003256,0.0,0.0,0.0,0.0
6.98,211.97742720000002,-3.3073848000000003,-1.1387328,2.6069544000000002,0.0,0.0,0.0,0.0
7.0,214.164672,-3.2531304000000003,-1.4097000000000002,2.223516,0.0,0.0,0.0,0.0
7.02,216.45036720000002,-3.3616392,-0.8674608,2.7602688,0.0,0.0,0.0,0.0
7.04,218.49923280000002,-3.4698432,-0.3252216,2.3003256,0.0,0.0,0.0,0.0
7.0600000000000005,220.52981040000003,-3.957828,-0.4879848,1.8400776,0.0,0.0,0.0,0.0
7.08,222.51253440000002,-3.4158936000000004,-1.4639544,2.9135831999999997,0.0,0.0,0.0,0.0
7.1,224.3315808,-3.7953696000000003,-0.5422392,1.8400776,0.0,0.0,0.0,0.0
7.12,226.18567920000004,-3.4698432,-0.650748,2.223516,0.0,0.0,0.0,0.0
7.140000000000001,228.10957680000004,-3.6326064,-0.5964936000000001,2.4536400000000005,0.0,0.0,0.0,0.0
7.16,230.0593824,-3.4698432,-0.8674608,2.0702016,0.0,0.0,0.0,0.0
7.18,232.08691200000004,-3.4698432,-0.5422392,2.5304496,0.0,0.0,0.0,0.0
7.2,234.0275736,-3.7411152,-0.5964936000000001,1.8400776,0.0,0.0,0.0,0.0
7.220000000000001,235.997496,-3.4158936000000004,-0.9217152000000001,2.0702016,0.0,0.0,0.0,0.0
7.24,238.02106320000001,-3.3073848000000003,-0.8132064000000001,1.8400776,0.0,0.0,0.0,0.0
7.26,240.11107680000003,-3.3073848000000003,-0.5964936000000001,2.3003256,0.0,0.0,0.0,0.0
7.28,242.20749120000002,-3.198876,-0.7046976,1.8400776,0.0,0.0,0.0,0.0
7.3,244.31457360000002,-3.0361128,-0.650748,2.1470112,0.0,0.0,0.0,0.0
7.32,246.55607280000004,-3.2531304000000003,-1.1926824,1.8400776,0.0,0.0,0.0,0.0
7.34,248.6290176,-3.1446216000000002,-0.9759696,1.9168872,0.0,0.0,0.0,0.0
7.359999999999999,250.62210480000002,-3.2531304000000003,-0.8674608,2.1470112,0.0,0.0,0.0,0.0
7.38,252.49449120000003,-3.3616392,-0.7589520000000001,2.0702016,0.0,0.0,0.0,0.0
7.4,254.37114480000002,-3.1446216000000002,-0.8674608,2.1470112,0.0,0.0,0.0,0.0
7.42,256.2054312,-3.3073848000000003,-0.8132064000000001,1.8400776,0.0,0.0,0.0,0.0
7.4399999999999995,258.04307040000003,-3.4698432,-0.8674608,1.8400776,0.0,0.0,0.0,0.0
7.46,259.96696800000007,-3.198876,-1.030224,2.223516,0.0,0.0,0.0,0.0
7.48,261.859776,-3.4158936000000004,-0.8132064000000001,2.1470112,0.0,0.0,0.0,0.0
7.5,263.73216240000005,-3.198876,-0.37947600000000004,2.1470112,0.0,0.0,0.0,0.0
7.52,265.69537920000005,-2.9818584,-0.7046976,1.9936968000000002,0.0,0.0,0.0,0.0
7.54,267.5698992,-3.578352,-0.4337304,2.1470112,0.0,0.0,0.0,0.0
7.5600000000000005,269.4572208,-3.0361128,-0.8674608,1.8400776,0.0,0.0,0.0,0.0
7.58,271.24426320000003,-2.8194000000000004,-0.8674608,2.0702016,0.0,0.0,0.0,0.0
7.6,273.117564,-3.1446216000000002,-0.3252216,2.0702016,0.0,0.0,0.0,0.0
7.62,275.0021424,-3.198876,-0.4879848,1.9168872,0.0,0.0,0.0,0.0
7.640000000000001,276.84069600000004,-2.9279088,-0.4337304,1.8400776,0.0,0.0,0.0,0.0
7.66,278.774652,-3.1446216000000002,-0.8674608,1.8400776,0.0,0.0,0.0,0.0
7.68,280.65679200000005,-3.3616392,0.1085088,1.8400776,0.0,0.0,0.0,0.0
7.7,282.57672720000005,-3.198876,-0.2709672,1.8400776,0.0,0.0,0.0,0.0
7.720000000000001,284.4097944,-3.0361128,-1.0844784,1.7635728,0.0,0.0,0.0,0.0
7.74,286.22518320000006,-2.7108912000000003,-0.7589520000000001,1.7635728,0.0,0.0,0.0,0.0
7.76,288.1420704,-3.0903671999999998,-0.8132064000000001,1.9936968000000002,0.0,0.0,0.0,0.0
7.78,290.038536,-2.8736544000000004,-0.8132064000000001,2.0702016,0.0,0.0,0.0,0.0
7.8,291.80302320000004,-2.7651456,-1.3554456000000001,1.8400776,0.0,0.0,0.0,0.0
7.82,293.6964408,-3.1446216000000002,-0.650748,1.8400776,0.0,0.0,0.0,0.0
7.84,295.62399600000003,-3.1446216000000002,-0.7589520000000001,1.8400776,0.0,0.0,0.0,0.0
7.859999999999999,297.5207664,-2.8194000000000004,-0.2170176,1.7635728,0.0,0.0,0.0,0.0
7.88,299.42058480000003,-3.0361128,-0.5422392,1.8400776,0.0,0.0,0.0,0.0
7.9,301.1963496,-3.0361128,-0.4337304,1.8400776,0.0,0.0,0.0,0.0
7.92,303.0373416,-3.198876,-0.4879848,1.8400776,0.0,0.0,0.0,0.0
7.9399999999999995,304.92862560000003,-3.1446216000000002,-0.7589520000000001,1.6867632000000001,0.0,0.0,0.0,0.0
7.96,306.8616672,-2.9279088,-0.7589520000000001,2.0702016,0.0,0.0,0.0,0.0
7.98,308.7803832,-2.6023824,0.0,1.8400776,0.0,0.0,0.0,0.0
8.0,310.7554872,-3.198876,-0.8132064000000001,1.8400776,0.0,0.0,0.0,0.0
8.02,312.6991968,-2.9818584,-0.37947600000000004,1.8400776,0.0,0.0,0.0,0.0
8.04,314.5953576,-2.8194000000000004,-0.2170176,1.6867632000000001,0.0,0.0,0.0,0.0
8.06,316.37874239999996,-2.9279088,-0.650748,1.7635728,0.0,0.0,0.0,0.0
8.08,318.179196,-2.7651456,-0.4879848,1.8400776,0.0,0.0,0.0,0.0
8.1,319.9004016,-3.0361128,-0.650748,1.6102584000000002,0.0,0.0,0.0,0.0
8.120000000000001,321.70725600000003,-2.9279088,-0.4337304,1.8400776,0.0,0.0,0.0,0.0
8.14,323.3860944,-3.0361128,-0.3252216,1.8400776,0.0,0.0,0.0,0.0
8.16,325.1542392,-2.8736544000000004,-0.5964936000000001,1.8400776,0.0,0.0,0.0,0.0
8.18,326.846184,-3.0903671999999998,-0.2709672,1.8400776,0.0,0.0,0.0,0.0
8.2,328.63749359999997,-3.0361128,-0.5422392,1.7635728,0.0,0.0,0.0,0.0
8.22,330.3632712,-2.8194000000000004,-0.3252216,1.8400776,0.0,0.0,0.0,0.0
8.24,332.073504,-2.7651456,-0.4879848,1.8400776,0.0,0.0,0.0,0.0
8.26,333.8178744,-2.9279088,-0.5422392,1.8400776,0.0,0.0,0.0,0.0
8.280000000000001,335.5790088,-2.8194000000000004,-0.2170176,1.8400776,0.0,0.0,0.0,0.0
8.3,337.332828,-2.3856696,0.0,1.8400776,0.0,0.0,0.0,0.0
8.32,339.114384,-2.6023824,-0.3252216,1.8400776,0.0,0.0,0.0,0.0
8.34,340.8871008,-2.548128,-0.37947600000000004,2.0702016,0.0,0.0,0.0,0.0
8.36,342.5122944,-2.9818584,-0.4879848,1.8400776,0.0,0.0,0.0,0.0
8.379999999999999,344.2051536,-2.6566368,-0.37947600000000004,1.8400776,0.0,0.0,0.0,0.0
8.4,345.8416248,-2.6023824,-0.5422392,1.8400776,0.0,0.0,0.0,0.0
8.42,347.4665136,-2.8194000000000004,0.1085088,1.8400776,0.0,0.0,0.0,0.0
8.44,348.9429648,-3.198876,-1.030224,1.4569440000000002,0.0,0.0,0.0,0.0
8.46,350.58614159999996,-2.4941784,-0.650748,1.3801344,0.0,0.0,0.0,0.0
8.48,352.3201488,-2.8194000000000004,-0.650748,1.8400776,0.0,0.0,0.0,0.0
8.5,354.09408479999996,-2.8194000000000004,0.2170176,1.5334488,0.0,0.0,0.0,0.0
8.52,355.8454656,-2.8736544000000004,-0.0542544,1.6102584000000002,0.0,0.0,0.0,0.0
8.54,357.6520152,-2.8194000000000004,-0.2170176,1.7635728,0.0,0.0,0.0,0.0
8.559999999999999,359.4503352,-2.9279088,-0.3252216,1.2268200000000002,0.0,0.0,0.0,0.0
8.58,361.2827928,-2.3856696,-0.5422392,1.8400776,0.0,0.0,0.0,0.0
8.6,362.9186544,-2.548128,-0.37947600000000004,1.4569440000000002,0.0,0.0,0.0,0.0
8.620000000000001,364.6313256,-2.7108912000000003,-0.1085088,1.3801344,0.0,0.0,0.0,0.0
8.64,366.2879136,-2.4399240000000004,-0.2709672,1.8400776,0.0,0.0,0.0,0.0
8.66,367.9243848,-2.4399240000000004,-0.5964936000000001,1.5334488,0.0,0.0,0.0,0.0
8.68,369.5968224,-2.3314152,-0.37947600000000004,1.3801344,0.0,0.0,0.0,0.0
8.7,371.36832,-2.548128,-0.16276320000000002,1.6867632000000001,0.0,0.0,0.0,0.0
8.719999999999999,373.0121064,-2.3314152,-0.37947600000000004,1.5334488,0.0,0.0,0.0,0.0
8.74,374.6882016,-2.4941784,-0.650748,1.5334488,0.0,0.0,0.0,0.0
8.76,376.3219296,-2.3314152,-0.2709672,1.6867632000000001,0.0,0.0,0.0,0.0
8.780000000000001,377.9071944,-2.2771608000000003,-0.4337304,1.6867632000000001,0.0,0.0,0.0,0.0
8.8,379.48422959999994,-2.3314152,-0.16276320000000002,1.6867632000000001,0.0,0.0,0.0,0.0
8.82,381.1301496,-2.4399240000000004,-0.37947600000000004,1.6867632000000001,0.0,0.0,0.0,0.0
8.84,382.7254728,-2.3856696,-0.1085088,1.8400776,0.0,0.0,0.0,0.0
8.86,384.2116776,-2.6023824,-0.4337304,1.5334488,0.0,0.0,0.0,0.0
8.879999999999999,385.78535999999997,-2.4941784,0.0,1.6867632000000001,0.0,0.0,0.0,0.0
8.9,387.2109096,-2.3314152,-0.16276320000000002,1.6867632000000001,0.0,0.0,0.0,0.0
8.92,388.7181456,-2.3314152,-0.2709672,1.3801344,0.0,0.0,0.0,0.0
8.940000000000001,390.1647264,-2.4941784,0.0,1.6867632000000001,0.0,0.0,0.0,0.0
8.96,391.72286399999996,-2.548128,-0.2709672,1.5334488,0.0,0.0,0.0,0.0
8.98,393.315444,-2.2771608000000003,-0.1085088,1.6102584000000002,0.0,0.0,0.0,0.0
9.0,394.7848848,-2.3314152,0.0542544,1.7635728,0.0,0.0,0.0,0.0
9.02,396.26926080000004,-2.4941784,0.2170176,1.5334488,0.0,0.0,0.0,0.0
9.04,397.6996872,-2.3856696,0.0,1.5334488,0.0,0.0,0.0,0.0
9.059999999999999,399.1922928,-2.7108912000000003,0.4337304,1.6867632000000001,0.0,0.0,0.0,0.0
9.08,400.7425056,-2.4941784,0.0,1.3801344,0.0,0.0,0.0,0.0
9.1,402.40305600000005,-2.4399240000000004,-0.0542544,1.3801344,0.0,0.0,0.0,0.0
9.120000000000001,404.0361744,-2.3314152,-0.16276320000000002,1.4569440000000002,0.0,0.0,0.0,0.0
9.14,405.7759728,-2.1686520000000002,-0.3252216,1.4569440000000002,0.0,0.0,0.0,0.0
9.16,407.50022640000003,-2.1686520000000002,-0.3252216,1.6102584000000002,0.0,0.0,0.0,0.0
9.18,409.1964384,-2.9279088,0.3252216,0.9201912000000001,0.0,0.0,0.0,0.0
9.2,410.86979039999994,-2.0061936,0.37947600000000004,1.7635728,0.0,0.0,0.0,0.0
9.219999999999999,412.51967279999997,-2.548128,-0.4879848,1.0735056,0.0,0.0,0.0,0.0
9.24,414.12353040000005,-2.0061936,-0.0542544,1.5334488,0.0,0.0,0.0,0.0
9.26,415.63869120000004,-2.1686520000000002,-0.1085088,1.5334488,0.0,0.0,0.0,0.0
9.280000000000001,417.1684824,-2.2229064000000003,-0.0542544,1.1500104,0.0,0.0,0.0,0.0
9.3,418.6601736,-2.0601432,0.0,1.6102584000000002,0.0,0.0,0.0,0.0
9.32,420.1939272,-2.1143976,-0.2709672,1.2268200000000002,0.0,0.0,0.0,0.0
9.34,421.6545288,-2.2229064000000003,-0.2709672,1.2268200000000002,0.0,0.0,0.0,0.0
9.36,423.13494239999994,-2.1143976,-0.16276320000000002,1.4569440000000002,0.0,0.0,0.0,0.0
9.379999999999999,424.6735728,-2.4399240000000004,0.16276320000000002,1.3801344,0.0,0.0,0.0,0.0
9.4,426.0811392,-2.1143976,0.0542544,1.3801344,0.0,0.0,0.0,0.0
9.42,427.4509104,-2.1686520000000002,-0.1085088,1.3036296,0.0,0.0,0.0,0.0
9.440000000000001,428.7749616,-2.3856696,0.0,1.1500104,0.0,0.0,0.0,0.0
9.46,430.17765119999996,-2.0061936,-0.2709672,1.3801344,0.0,0.0,0.0,0.0
9.48,431.668428,-2.3314152,0.2709672,1.3036296,0.0,0.0,0.0,0.0
9.5,433.0595352,-2.548128,0.0542544,1.2268200000000002,0.0,0.0,0.0,0.0
9.52,434.4692352,-2.2771608000000003,0.4337304,1.5334488,0.0,0.0,0.0,0.0
9.54,435.8828976,-2.4399240000000004,0.16276320000000002,1.2268200000000002,0.0,0.0,0.0,0.0
9.559999999999999,437.28253920000003,-1.8976848000000002,-0.0542544,1.7635728,0.0,0.0,0.0,0.0
9.58,438.822084,-2.1143976,0.0542544,1.2268200000000002,0.0,0.0,0.0,0.0
9.6,440.2305648,-2.0061936,0.0542544,1.6102584000000002,0.0,0.0,0.0,0.0
9.620000000000001,441.6238056,-2.0601432,0.1085088,1.5334488,0.0,0.0,0.0,0.0
9.64,443.04356399999995,-2.2229064000000003,-0.0542544,1.1500104,0.0,0.0,0.0,0.0
9.66,444.43589039999995,-2.3314152,0.16276320000000002,0.996696,0.0,0.0,0.0,0.0
9.68,445.9047216,-1.9519392,-0.1085088,0.996696,0.0,0.0,0.0,0.0
9.7,447.3555696,-2.3314152,0.37947600000000004,1.6102584000000002,0.0,0.0,0.0,0.0
9.719999999999999,448.92346080000004,-2.1686520000000002,0.1085088,0.7668768,0.0,0.0,0.0,0.0
9.74,450.4102752,-2.2771608000000003,0.1085088,1.2268200000000002,0.0,0.0,0.0,0.0
9.76,451.79559120000005,-2.0061936,-0.0542544,1.1500104,0.0,0.0,0.0,0.0
9.780000000000001,453.24796319999996,-1.9519392,0.2170176,1.3801344,0.0,0.0,0.0,0.0
9.8,454.6424232,-2.548128,0.0542544,0.5367528,0.0,0.0,0.0,0.0
9.82,456.16215600000004,-1.8976848000000002,0.16276320000000002,1.3801344,0.0,0.0,0.0,0.0
9.84,457.6370832,-2.0601432,0.4337304,1.3801344,0.0,0.0,0.0,0.0
9.86,459.1373088,-2.3314152,0.37947600000000004,0.9201912000000001,0.0,0.0,0.0,0.0
9.879999999999999,460.52049120000004,-1.7349216,0.0,1.2268200000000002,0.0,0.0,0.0,0.0
9.9,461.87746080000005,-1.8434304000000001,0.0,1.1500104,0.0,0.0,0.0,0.0
9.92,463.27740719999997,-2.1686520000000002,0.1085088,0.8433816000000001,0.0,0.0,0.0,0.0
9.940000000000001,464.7188064,-2.0601432,0.5422392,1.3801344,0.0,0.0,0.0,0.0
9.96,465.9562944,-1.5724632,-0.0542544,1.2268200000000002,0.0,0.0,0.0,0.0
9.98,467.21816640000003,-1.7349216,-0.1085088,1.2268200000000002,0.0,0.0,0.0,0.0
10.0,468.41907840000005,-1.8434304000000001,-0.1085088,1.1500104,0.0,0.0,0.0,0.0
10.02,469.753188,-1.8976848000000002,0.2709672,1.0735056,0.0,0.0,0.0,0.0
10.04,471.0613896,-1.9519392,0.2170176,1.3036296,0.0,0.0,0.0,0.0
10.059999999999999,472.29034320000005,-1.8976848000000002,0.2709672,0.996696,0.0,0.0,0.0,0.0
10.08,473.6784024,-1.9519392,0.1085088,0.996696,0.0,0.0,0.0,0.0
10.1,474.9783744,-1.8976848000000002,0.2709672,1.0735056,0.0,0.0,0.0,0.0
10.120000000000001,476.2871856,-2.4399240000000004,0.16276320000000002,0.996696,0.0,0.0,0.0,0.0
10.14,477.5886816,-1.4639544,0.16276320000000002,1.4569440000000002,0.0,0.0,0.0,0.0
10.16,478.9029792,-2.0061936,0.2709672,0.5367528,0.0,0.0,0.0,0.0
10.18,480.2587296,-1.9519392,0.2170176,1.3801344,0.0,0.0,0.0,0.0
10.2,481.5056664,-1.7349216,0.4337304,1.1500104,0.0,0.0,0.0,0.0
10.219999999999999,482.85257759999996,-1.8434304000000001,-0.1085088,0.9201912000000001,0.0,0.0,0.0,0.0
10.24,484.1540736,-1.6806672000000002,0.2709672,1.2268200000000002,0.0,0.0,0.0,0.0
10.26,485.38119839999996,-2.0601432,0.1085088,0.9201912000000001,0.0,0.0,0.0,0.0
10.280000000000001,486.6296592,-2.0061936,0.2709672,0.6900672,0.0,0.0,0.0,0.0
10.3,487.8973224,-1.7349216,0.3252216,1.3036296,0.0,0.0,0.0,0.0
10.32,489.2762376,-1.9519392,-0.1085088,0.9201912000000001,0.0,0.0,0.0,0.0
10.34,490.584744,-1.5724632,0.2709672,0.9201912000000001,0.0,0.0,0.0,0.0
10.36,491.9660976,-1.8434304000000001,0.3252216,1.2268200000000002,0.0,0.0,0.0,0.0
10.379999999999999,493.32184800000005,-2.0061936,0.37947600000000004,0.8433816000000001,0.0,0.0,0.0,0.0
10.4,494.5453152,-1.8434304000000001,0.3252216,1.1500104,0.0,0.0,0.0,0.0
10.42,495.8269992,-1.6806672000000002,0.16276320000000002,0.7668768,0.0,0.0,0.0,0.0
10.440000000000001,497.1537936,-1.6264128000000002,0.3252216,0.996696,0.0,0.0,0.0,0.0
10.46,498.430296,-1.8976848000000002,0.37947600000000004,0.996696,0.0,0.0,0.0,0.0
10.48,499.64583839999995,-1.8976848000000002,0.37947600000000004,1.1500104,0.0,0.0,0.0,0.0
10.5,500.87387759999996,-1.8434304000000001,0.3252216,0.7668768,0.0,0.0,0.0,0.0
10.52,502.1973192,-1.5724632,0.16276320000000002,0.996696,0.0,0.0,0.0,0.0
10.54,503.4576672,-1.9519392,0.3252216,0.9201912000000001,0.0,0.0,0.0,0.0
10.559999999999999,504.7939104,-1.789176,0.37947600000000004,1.0735056,0.0,0.0,0.0,0.0
10.58,506.057916,-1.8976848000000002,0.16276320000000002,0.8433816000000001,0.0,0.0,0.0,0.0
10.6,507.28625999999997,-1.8976848000000002,0.2709672,0.6900672,0.0,0.0,0.0,0.0
10.620000000000001,508.5990336,-1.5724632,0.2709672,1.2268200000000002,0.0,0.0,0.0,0.0
10.64,509.7789144,-2.0061936,0.16276320000000002,0.6135624,0.0,0.0,0.0,0.0
10.66,511.0572456,-1.8976848000000002,0.2709672,0.996696,0.0,0.0,0.0,0.0
10.68,512.2090848,-1.6806672000000002,0.4879848,0.9201912000000001,0.0,0.0,0.0,0.0
10.7,513.36702,-1.9519392,0.2170176,0.7668768,0.0,0.0,0.0,0.0
10.719999999999999,514.5645792,-1.5724632,0.2709672,0.8433816000000001,0.0,0.0,0.0,0.0
10.74,515.7639672,-1.789176,0.16276320000000002,0.7668768,0.0,0.0,0.0,0.0
10.76,516.9724992,-1.6264128000000002,0.3252216,0.7668768,0.0,0.0,0.0,0.0
10.780000000000001,518.1182424,-1.6806672000000002,0.37947600000000004,0.996696,0.0,0.0,0.0,0.0
10.8,519.2661192,-1.6264128000000002,0.3252216,0.7668768,0.0,0.0,0.0,0.0
10.82,520.3173744000001,-1.5182088,0.2170176,1.0735056,0.0,0.0,0.0,0.0
10.84,521.4393432,-1.5724632,0.2709672,0.8433816000000001,0.0,0.0,0.0,0.0
10.86,522.5713704,-1.5724632,0.2709672,0.7668768,0.0,0.0,0.0,0.0
10.879999999999999,523.7232096,-1.5724632,0.37947600000000004,0.7668768,0.0,0.0,0.0,0.0
10.9,524.8829736,-1.8976848000000002,0.37947600000000004,0.6900672,0.0,0.0,0.0,0.0
10.92,525.9595272,-1.5724632,0.2709672,0.8433816000000001,0.0,0.0,0.0,0.0
10.940000000000001,527.0473584,-1.5182088,0.2170176,0.7668768,0.0,0.0,0.0,0.0
10.96,528.2720448,-1.5182088,0.4337304,0.8433816000000001,0.0,0.0,0.0,0.0
10.98,529.4327232,-1.6806672000000002,0.2709672,0.7668768,0.0,0.0,0.0,0.0
11.0,530.6427792000001,-1.789176,0.4879848,0.6900672,0.0,0.0,0.0,0.0
11.02,531.7912656,-1.6806672000000002,0.4879848,0.996696,0.0,0.0,0.0,0.0
11.04,532.9022616,-1.6264128000000002,0.4337304,0.5367528,0.0,0.0,0.0,0.0
11.059999999999999,534.0544056,-1.5182088,0.4337304,0.9201912000000001,0.0,0.0,0.0,0.0
11.08,535.2376392,-1.6264128000000002,0.2170176,0.6135624,0.0,0.0,0.0,0.0
11.1,536.3967936,-1.789176,0.4879848,0.7668768,0.0,0.0,0.0,0.0
11.120000000000001,537.5190672,-1.5724632,0.37947600000000004,1.0735056,0.0,0.0,0.0,0.0
11.14,538.6285392,-1.6264128000000002,0.5422392,0.6135624,0.0,0.0,0.0,0.0
11.16,539.6791848,-1.4639544,0.37947600000000004,1.1500104,0.0,0.0,0.0,0.0
11.18,540.7843895999999,-1.5724632,0.2709672,0.6900672,0.0,0.0,0.0,0.0
11.2,541.8112608,-1.5724632,0.37947600000000004,0.9201912000000001,0.0,0.0,0.0,0.0
11.219999999999999,542.97072,-1.4097000000000002,0.3252216,0.8433816000000001,0.0,0.0,0.0,0.0
11.24,544.0750104,-1.6806672000000002,0.5964936000000001,0.7668768,0.0,0.0,0.0,0.0
11.26,545.2344696,-1.7349216,0.5422392,0.6900672,0.0,0.0,0.0,0.0
11.280000000000001,546.273228,-1.8434304000000001,0.5422392,0.5367528,0.0,0.0,0.0,0.0
11.3,547.3772136,-1.6264128000000002,0.5422392,0.8433816000000001,0.0,0.0,0.0,0.0
11.32,548.4699216,-1.4639544,0.37947600000000004,0.7668768,0.0,0.0,0.0,0.0
11.34,549.5693352000001,-1.4097000000000002,0.3252216,0.9201912000000001,0.0,0.0,0.0,0.0
11.36,550.6193712,-1.7349216,0.650748,0.9201912000000001,0.0,0.0,0.0,0.0
11.379999999999999,551.6770272,-1.6806672000000002,0.4879848,0.6900672,0.0,0.0,0.0,0.0
11.4,552.8227704,-1.4097000000000002,0.2170176,1.0735056,0.0,0.0,0.0,0.0
11.42,554.0239872000001,-1.2469368,0.16276320000000002,0.5367528,0.0,0.0,0.0,0.0
11.440000000000001,555.0901776,-1.5724632,0.4879848,0.6900672,0.0,0.0,0.0,0.0
11.46,556.2529896,-1.4639544,0.37947600000000004,0.6900672,0.0,0.0,0.0,0.0
11.48,557.3149128,-1.6264128000000002,0.5422392,0.4599432,0.0,0.0,0.0,0.0
11.5,558.3079511999999,-1.6264128000000002,0.5422392,0.9201912000000001,0.0,0.0,0.0,0.0
11.52,559.259232,-1.3554456000000001,-0.16276320000000002,0.30662880000000003,0.0,0.0,0.0,0.0
11.54,560.2793976,-1.4097000000000002,0.3252216,0.5367528,0.0,0.0,0.0,0.0
11.559999999999999,561.240432,-1.5724632,0.4879848,1.3036296,0.0,0.0,0.0,0.0
11.58,562.209696,-1.4097000000000002,0.3252216,0.0,0.0,0.0,0.0,0.0
11.6,563.2560744,-1.5724632,0.2709672,0.6900672,0.0,0.0,0.0,0.0
11.620000000000001,564.2299104,-1.3554456000000001,0.2709672,0.4599432,0.0,0.0,0.0,0.0
11.64,565.16778,-1.5724632,0.4879848,0.6900672,0.0,0.0,0.0,0.0
11.66,566.2022712,-1.2469368,0.16276320000000002,0.5367528,0.0,0.0,0.0,0.0
11.68,567.2376768,-1.4639544,0.37947600000000004,0.6900672,0.0,0.0,0.0,0.0
11.7,568.1651832,-1.4639544,0.37947600000000004,0.7668768,0.0,0.0,0.0,0.0
11.719999999999999,569.1908352,-1.4097000000000002,0.4337304,0.6135624,0.0,0.0,0.0,0.0
11.74,570.2387376,-1.4639544,0.37947600000000004,0.3834384,0.0,0.0,0.0,0.0
11.76,571.1436888,-1.5182088,0.4337304,0.5367528,0.0,0.0,0.0,0.0
11.780000000000001,572.1662928,-1.5724632,0.4879848,0.7668768,0.0,0.0,0.0,0.0
11.8,573.1550639999999,-1.3011912,0.2170176,0.7668768,0.0,0.0,0.0,0.0
11.82,574.0691592,-1.3554456000000001,0.2709672,0.7668768,0.0,0.0,0.0,0.0
11.84,574.9283904,-1.4097000000000002,0.2170176,0.30662880000000003,0.0,0.0,0.0,0.0
11.86,575.9354496,-1.2469368,0.16276320000000002,0.9201912000000001,0.0,0.0,0.0,0.0
11.879999999999999,576.9815232,-1.6264128000000002,0.5422392,0.6135624,0.0,0.0,0.0,0.0
11.9,577.9776096,-1.6264128000000002,0.5422392,0.6135624,0.0,0.0,0.0,0.0
11.92,579.0175872,-1.3011912,0.3252216,0.9201912000000001,0.0,0.0,0.0,0.0
11.940000000000001,579.8810856,-1.4639544,0.37947600000000004,0.30662880000000003,0.0,0.0,0.0,0.0
11.96,580.9064328,-1.4639544,0.37947600000000004,0.6135624,0.0,0.0,0.0,0.0
11.98,581.8808784,-1.5724632,0.2709672,0.15331440000000002,0.0,0.0,0.0,0.0
12.0,582.6690912,-1.3011912,0.3252216,0.6900672,0.0,0.0,0.0,0.0
12.02,583.582272,-1.5182088,0.4337304,0.3834384,0.0,0.0,0.0,0.0
12.04,584.559156,-1.5182088,0.4337304,0.5367528,0.0,0.0,0.0,0.0
12.059999999999999,585.5927328,-1.6264128000000002,0.5422392,0.5367528,0.0,0.0,0.0,0.0
12.08,586.4961599999999,-1.4097000000000002,0.4337304,0.6900672,0.0,0.0,0.0,0.0
12.1,587.405988,-1.4097000000000002,0.3252216,0.3834384,0.0,0.0,0.0,0.0
12.120000000000001,588.2725344,-1.4097000000000002,0.3252216,0.5367528,0.0,0.0,0.0,0.0
12.14,589.1939448,-1.4097000000000002,0.3252216,0.4599432,0.0,0.0,0.0,0.0
12.16,590.1235848,-1.4097000000000002,0.3252216,0.5367528,0.0,0.0,0.0,0.0
12.18,591.0876671999999,-1.4097000000000002,0.4337304,0.30662880000000003,0.0,0.0,0.0,0.0
12.2,591.9636624,-1.3554456000000001,0.2709672,0.6135624,0.0,0.0,0.0,0.0
12.219999999999999,592.7588856,-1.3554456000000001,0.2709672,0.30662880000000003,0.0,0.0,0.0,0.0
12.24,593.58276,-1.4097000000000002,0.3252216,0.3834384,0.0,0.0,0.0,0.0
12.26,594.5111808,-1.7349216,0.7589520000000001,0.6900672,0.0,0.0,0.0,0.0
12.280000000000001,595.4780064,-1.5182088,0.650748,0.7668768,0.0,0.0,0.0,0.0
12.3,596.4436128,-1.3011912,0.3252216,0.6135624,0.0,0.0,0.0,0.0
12.32,597.3366768,-1.4097000000000002,0.3252216,0.15331440000000002,0.0,0.0,0.0,0.0
12.34,598.2458952000001,-1.5724632,0.4879848,0.3834384,0.0,0.0,0.0,0.0
12.36,599.1825456,-1.4097000000000002,0.5422392,0.23012400000000002,0.0,0.0,0.0,0.0
12.379999999999999,600.1978344,-1.6806672000000002,0.5964936000000001,0.6900672,0.0,0.0,0.0,0.0
12.4,601.2207432,-1.3554456000000001,0.37947600000000004,0.6135624,0.0,0.0,0.0,0.0
12.42,602.2046376,-1.3554456000000001,0.2709672,0.23012400000000002,0.0,0.0,0.0,0.0
12.440000000000001,603.1589664,-1.3554456000000001,0.37947600000000004,0.30662880000000003,0.0,0.0,0.0,0.0
12.46,604.208088,-1.1387328,0.16276320000000002,0.4599432,0.0,0.0,0.0,0.0
12.48,605.052384,-1.3011912,0.5422392,0.4599432,0.0,0.0,0.0,0.0
12.5,605.8939368,-1.3554456000000001,0.4879848,0.7668768,0.0,0.0,0.0,0.0
12.52,606.7007424,-1.3554456000000001,0.9217152000000001,0.6900672,0.0,0.0,0.0,0.0
12.54,607.4825544,-1.2469368,0.37947600000000004,0.7668768,0.0,0.0,0.0,0.0
12.559999999999999,608.2439448,-1.1387328,0.16276320000000002,0.23012400000000002,0.0,0.0,0.0,0.0
12.579999999999998,609.0028968,-1.5182088,0.4337304,0.4599432,0.0,0.0,0.0,0.0
12.600000000000001,609.8706624,-1.1387328,0.5964936000000001,0.6135624,0.0,0.0,0.0,0.0
12.620000000000001,610.7067288,-1.3554456000000001,0.2709672,0.0768096,0.0,0.0,0.0,0.0
12.64,611.4147792,-1.1387328,0.2709672,0.6135624,0.0,0.0,0.0,0.0
12.66,612.1895808,-1.1926824,0.4337304,0.4599432,0.0,0.0,0.0,0.0
12.68,612.8973264,-1.2469368,0.37947600000000004,0.5367528,0.0,0.0,0.0,0.0
12.7,613.667556,-1.1926824,0.3252216,0.5367528,0.0,0.0,0.0,0.0
12.719999999999999,614.4999648,-1.2469368,0.2709672,0.23012400000000002,0.0,0.0,0.0,0.0
12.739999999999998,615.327192,-1.3554456000000001,0.37947600000000004,0.4599432,0.0,0.0,0.0,0.0
12.760000000000002,616.1071752,-1.3011912,0.3252216,0.4599432,0.0,0.0,0.0,0.0
12.780000000000001,616.6619112,-1.1926824,0.4337304,0.30662880000000003,0.0,0.0,0.0,0.0
12.8,617.3029056,-1.3011912,0.4337304,0.5367528,0.0,0.0,0.0,0.0
12.82,618.0094320000001,-1.3011912,0.5422392,0.30662880000000003,0.0,0.0,0.0,0.0
12.84,618.7315032,-1.4639544,0.4879848,0.4599432,0.0,0.0,0.0,0.0
12.86,619.4889312,-1.1387328,0.4879848,0.6135624,0.0,0.0,0.0,0.0
12.879999999999999,620.2811064,-1.3011912,0.4337304,0.30662880000000003,0.0,0.0,0.0,0.0
12.899999999999999,621.095532,-1.1926824,0.2170176,0.4599432,0.0,0.0,0.0,0.0
12.920000000000002,621.73104,-1.3011912,0.3252216,0.15331440000000002,0.0,0.0,0.0,0.0
12.940000000000001,622.3540512,-1.1926824,0.4337304,0.5367528,0.0,0.0,0.0,0.0
12.96,622.9965696,-1.5182088,0.5422392,0.0,0.0,0.0,0.0,0.0
12.98,623.6683488,-1.4097000000000002,0.650748,0.6900672,0.0,0.0,0.0,0.0
13.0,624.46662,-1.3011912,0.3252216,0.23012400000000002,0.0,0.0,0.0,0.0
13.02,625.3477968000001,-1.0844784,0.3252216,0.4599432,0.0,0.0,0.0,0.0
13.04,626.1859968000001,-1.3011912,0.3252216,0.30662880000000003,0.0,0.0,0.0,0.0
13.059999999999999,627.0107856000001,-1.2469368,0.4879848,0.6135624,0.0,0.0,0.0,0.0
13.079999999999998,627.8587392000001,-1.2469368,0.4879848,0.23012400000000002,0.0,0.0,0.0,0.0
13.100000000000001,628.69572,-1.1387328,0.4879848,0.6135624,0.0,0.0,0.0,0.0
13.120000000000001,629.489724,-1.4097000000000002,0.4337304,0.15331440000000002,0.0,0.0,0.0,0.0
13.14,630.2785464000001,-1.2469368,0.37947600000000004,0.4599432,0.0,0.0,0.0,0.0
13.16,631.0567008,-1.3554456000000001,0.4879848,0.15331440000000002,0.0,0.0,0.0,0.0
13.18,631.7656656000001,-1.1387328,0.4879848,0.3834384,0.0,0.0,0.0,0.0
13.2,632.3383848000001,-1.1926824,0.4337304,0.30662880000000003,0.0,0.0,0.0,0.0
13.219999999999999,632.9257344000001,-1.2469368,0.4879848,0.3834384,0.0,0.0,0.0,0.0
13.239999999999998,633.6846864,-1.3554456000000001,0.37947600000000004,0.23012400000000002,0.0,0.0,0.0,0.0
13.260000000000002,634.4241312,-1.3554456000000001,0.37947600000000004,0.23012400000000002,0.0,0.0,0.0,0.0
13.280000000000001,635.1166368000002,-1.3011912,0.4337304,0.3834384,0.0,0.0,0.0,0.0
13.3,635.7740904000001,-1.2469368,0.4879848,0.23012400000000002,0.0,0.0,0.0,0.0
13.32,636.5245080000001,-1.1926824,0.3252216,0.3834384,0.0,0.0,0.0,0.0
13.34,637.1999448,-1.2469368,0.4879848,0.30662880000000003,0.0,0.0,0.0,0.0
13.36,637.7854656000001,-1.2469368,0.4879848,0.15331440000000002,0.0,0.0,0.0,0.0
13.379999999999999,638.4907728000001,-1.3554456000000001,0.4879848,0.23012400000000002,0.0,0.0,0.0,0.0
13.399999999999999,639.1479216,-1.1926824,0.5422392,0.3834384,0.0,0.0,0.0,0.0
13.420000000000002,639.7785528,-1.1926824,0.4337304,0.23012400000000002,0.0,0.0,0.0,0.0
13.440000000000001,640.4436264000001,-1.2469368,0.37947600000000004,0.30662880000000003,0.0,0.0,0.0,0.0
13.46,641.0788296000001,-1.3011912,0.4337304,0.30662880000000003,0.0,0.0,0.0,0.0
13.48,641.674104,-1.2469368,0.4879848,0.30662880000000003,0.0,0.0,0.0,0.0
13.5,642.2773032000001,-1.1387328,0.4879848,0.30662880000000003,0.0,0.0,0.0,0.0
13.52,642.8658720000001,-1.3554456000000001,0.5964936000000001,0.3834384,0.0,0.0,0.0,0.0
13.54,643.5257640000001,-1.3011912,0.5422392,0.23012400000000002,0.0,0.0,0.0,0.0
13.559999999999999,644.1868752,-1.1926824,0.4337304,0.30662880000000003,0.0,0.0,0.0,0.0
13.579999999999998,644.7693480000002,-1.1387328,0.4879848,0.30662880000000003,0.0,0.0,0.0,0.0
13.600000000000001,645.3618792000001,-1.2469368,0.4879848,0.15331440000000002,0.0,0.0,0.0,0.0
13.620000000000001,646.0763304000001,-1.2469368,0.4879848,0.15331440000000002,0.0,0.0,0.0,0.0
13.64,646.6880640000002,-1.1387328,0.37947600000000004,0.30662880000000003,0.0,0.0,0.0,0.0
13.66,647.2842528,-1.1926824,0.3252216,0.0768096,0.0,0.0,0.0,0.0
13.68,647.8624584000002,-1.2469368,0.4879848,0.15331440000000002,0.0,0.0,0.0,0.0
13.7,648.5025384000002,-1.3011912,0.4337304,0.0,0.0,0.0,0.0,0.0
13.719999999999999,649.2233904000001,-1.0844784,0.4337304,0.3834384,0.0,0.0,0.0,0.0
13.739999999999998,649.9256496,-1.0844784,0.4337304,0.23012400000000002,0.0,0.0,0.0,0.0
13.760000000000002,650.7007560000001,-1.2469368,0.5964936000000001,0.23012400000000002,0.0,0.0,0.0,0.0
13.780000000000001,651.4261800000002,-1.2469368,0.5964936000000001,0.23012400000000002,0.0,0.0,0.0,0.0
13.8,652.1092368000002,-1.2469368,0.5964936000000001,0.23012400000000002,0.0,0.0,0.0,0.0
13.82,652.709388,-1.1926824,0.650748,0.23012400000000002,0.0,0.0,0.0,0.0
13.84,653.3516016,-1.0844784,0.650748,0.30662880000000003,0.0,0.0,0.0,0.0
13.86,653.8472064000001,-1.0844784,0.5422392,0.23012400000000002,0.0,0.0,0.0,0.0
13.879999999999999,654.4918584000002,-1.1387328,0.5964936000000001,0.23012400000000002,0.0,0.0,0.0,0.0
13.899999999999999,655.1230992000001,-1.3554456000000001,0.4879848,0.30662880000000003,0.0,0.0,0.0,0.0
13.920000000000002,655.6080360000001,-1.2469368,0.4879848,0.30662880000000003,0.0,0.0,0.0,0.0
13.940000000000001,656.1048600000001,-1.0844784,0.4337304,0.30662880000000003,0.0,0.0,0.0,0.0
13.96,656.635212,-1.1926824,0.5422392,0.0768096,0.0,0.0,0.0,0.0
13.98,657.1689168000001,-1.2469368,0.4879848,0.30662880000000003,0.0,0.0,0.0,0.0
14.0,657.6858576000001,-1.3011912,0.5422392,0.15331440000000002,0.0,0.0,0.0,0.0
14.02,658.2113328000002,-1.1387328,0.4879848,0.30662880000000003,0.0,0.0,0.0,0.0
14.04,658.8102648,-1.1387328,0.4879848,0.23012400000000002,0.0,0.0,0.0,0.0
14.059999999999999,659.3092224000001,-1.2469368,0.5964936000000001,0.15331440000000002,0.0,0.0,0.0,0.0
14.079999999999998,659.8206768,-1.0844784,0.5422392,0.23012400000000002,0.0,0.0,0.0,0.0
14.100000000000001,660.2489208000001,-1.2469368,0.37947600000000004,0.15331440000000002,0.0,0.0,0.0,0.0
14.120000000000001,660.7716528,-1.030224,0.4879848,0.23012400000000002,0.0,0.0,0.0,0.0
14.14,661.2736584000002,-1.1926824,0.4337304,0.15331440000000002,0.0,0.0,0.0,0.0
14.16,661.8000480000001,-1.0844784,0.5422392,0.30662880000000003,0.0,0.0,0.0,0.0
14.18,662.3593560000002,-1.1926824,0.5422392,0.15331440000000002,0.0,0.0,0.0,0.0
14.2,662.9354280000001,-1.030224,0.5964936000000001,0.23012400000000002,0.0,0.0,0.0,0.0
14.219999999999999,663.3700728,-1.0844784,0.5422392,0.23012400000000002,0.0,0.0,0.0,0.0
14.239999999999998,663.8589720000001,-1.1926824,0.5422392,0.30662880000000003,0.0,0.0,0.0,0.0
14.260000000000002,664.3405560000001,-1.1926824,0.5422392,0.15331440000000002,0.0,0.0,0.0,0.0
14.280000000000001,664.7718480000001,-1.030224,0.5964936000000001,0.0768096,0.0,0.0,0.0,0.0
14.3,665.2735488000001,-1.1387328,0.5964936000000001,0.15331440000000002,0.0,0.0,0.0,0.0
14.32,665.7877464000002,-1.0844784,0.5422392,0.23012400000000002,0.0,0.0,0.0,0.0
14.34,666.3107832000001,-1.1926824,0.5422392,0.0768096,0.0,0.0,0.0,0.0
14.36,666.7737744,-1.030224,0.4879848,0.15331440000000002,0.0,0.0,0.0,0.0
14.379999999999999,667.2815712,-1.1926824,0.5422392,0.0768096,0.0,0.0,0.0,0.0
14.399999999999999,667.8987912000001,-1.2469368,0.5964936000000001,0.0,0.0,0.0,0.0,0.0
14.420000000000002,668.4108552,-1.1926824,0.5422392,-0.0768096,0.0,0.0,0.0,0.0
14.440000000000001,668.8863432,-1.0844784,0.5422392,0.0768096,0.0,0.0,0.0,0.0
14.46,669.3910920000001,-1.1387328,0.5964936000000001,0.15331440000000002,0.0,0.0,0.0,0.0
14.48,669.9433896000002,-1.1387328,0.5964936000000001,0.15331440000000002,0.0,0.0,0.0,0.0
14.5,670.4926392,-1.1387328,0.5964936000000001,0.15331440000000002,0.0,0.0,0.0,0.0
14.52,670.9553256,-1.1926824,0.5422392,0.15331440000000002,0.0,0.0,0.0,0.0
14.54,671.3658912000001,-1.1387328,0.4879848,0.23012400000000002,0.0,0.0,0.0,0.0
14.559999999999999,671.785296,-1.1387328,0.5964936000000001,0.0768096,0.0,0.0,0.0,0.0
14.579999999999998,672.0983256000001,-1.1387328,0.5964936000000001,0.30662880000000003,0.0,0.0,0.0,0.0
14.600000000000001,672.5777760000001,-1.2469368,0.4879848,0.0,0.0,0.0,0.0,0.0
14.620000000000001,673.0334520000001,-1.030224,0.4879848,0.0768096,0.0,0.0,0.0,0.0
14.64,673.3379472,-1.030224,0.5964936000000001,0.0768096,0.0,0.0,0.0,0.0
14.66,673.6884672000001,-1.0844784,0.5422392,0.15331440000000002,0.0,0.0,0.0,0.0
14.68,674.1907776000002,-1.0844784,0.5422392,0.0768096,0.0,0.0,0.0,0.0
14.7,674.6760192000002,-1.2469368,0.5964936000000001,0.15331440000000002,0.0,0.0,0.0,0.0
14.719999999999999,675.1728432,-1.1387328,0.4879848,0.15331440000000002,0.0,0.0,0.0,0.0
14.739999999999998,675.7257504000002,-1.1387328,0.4879848,0.0768096,0.0,0.0,0.0,0.0
14.760000000000002,676.3249872000001,-1.0844784,0.650748,0.0768096,0.0,0.0,0.0,0.0
14.780000000000001,676.8544248000002,-1.030224,0.4879848,-0.0768096,0.0,0.0,0.0,0.0
14.8,677.3091864,-1.1387328,0.4879848,0.15331440000000002,0.0,0.0,0.0,0.0
14.82,677.6755560000001,-1.1926824,0.5422392,0.0768096,0.0,0.0,0.0,0.0
14.84,678.2086512000001,-1.1387328,0.4879848,0.23012400000000002,0.0,0.0,0.0,0.0
14.86,678.5829456,-1.0844784,0.5422392,0.0768096,0.0,0.0,0.0,0.0
14.879999999999999,678.9438288000001,-1.0844784,0.650748,0.0768096,0.0,0.0,0.0,0.0
14.899999999999999,679.2303408000001,-1.1926824,0.5422392,0.0,0.0,0.0,0.0,0.0
14.920000000000002,679.5747648,-1.0844784,0.7589520000000001,0.15331440000000002,0.0,0.0,0.0,0.0
14.940000000000001,679.896024,-1.1387328,0.5964936000000001,0.15331440000000002,0.0,0.0,0.0,0.0
