time,baro_altitude,accl_x,accl_y,accl_z,gps_altitude,gyro_roll,gyro_pitch,gyro_yaw
0.0,0.0,-9.0543888,-4.1748456,-1.5334488,0.0,0.0,0.0,0.0
0.019999999999999574,-0.014630400000000014,-9.0543888,-4.1748456,-1.4569440000000002,0.0,0.0,0.0,0.0
0.040000000000000036,0.21061679999999997,-9.0543888,-4.2833544,-1.5334488,0.0,0.0,0.0,0.0
0.05999999999999961,0.45567599999999997,-9.108643200000001,-4.2291,-1.4569440000000002,0.0,0.0,0.0,0.0
0.08000000000000007,0.2724912,-9.0543888,-4.1748456,-1.5334488,0.0,0.0,0.0,0.0
0.09999999999999964,0.22707599999999997,-9.108643200000001,-4.2291,-1.4569440000000002,0.0,0.0,0.0,0.0
0.1200000000000001,0.10667999999999997,-8.94588,-4.1748456,-1.4569440000000002,0.0,0.0,0.0,0.0
0.13999999999999968,0.36057839999999997,-9.1628976,-4.2833544,-1.5334488,0.0,0.0,0.0,0.0
0.16000000000000014,0.4782312,-9.1628976,-4.2833544,-1.4569440000000002,0.0,0.0,0.0,0.0
0.17999999999999972,0.5346192000000001,-9.1628976,-4.2833544,-1.5334488,0.0,0.0,0.0,0.0
0.20000000000000018,0.4078224,-9.1628976,-4.2833544,-1.3036296,0.0,0.0,0.0,0.0
0.21999999999999975,0.4020312,-9.0543888,-4.2833544,-1.4569440000000002,0.0,0.0,0.0,0.0
0.2400000000000002,0.5093208,-9.0543888,-4.2833544,-1.4569440000000002,0.0,0.0,0.0,0.0
0.2599999999999998,0.493776,-9.0543888,-4.2833544,-1.5334488,0.0,0.0,0.0,0.0
0.28000000000000025,0.26243279999999997,-9.108643200000001,-4.2291,-1.5334488,0.0,0.0,0.0,0.0
0.2999999999999998,0.21183599999999997,-9.108643200000001,-4.2291,-1.5334488,0.0,0.0,0.0,0.0
0.31999999999999984,0.20573999999999998,-9.0543888,-4.2833544,-1.5334488,0.0,0.0,0.0,0.0
0.33999999999999986,0.20299679999999998,-9.108643200000001,-4.2291,-1.3801344,0.0,0.0,0.0,0.0
0.3599999999999999,0.18897599999999998,-9.0543888,-4.1748456,-1.4569440000000002,0.0,0.0,0.0,0.0
0.3799999999999999,-0.0015240000000000353,-9.108643200000001,-4.2291,-1.3036296,0.0,0.0,0.0,0.0
0.3999999999999999,0.1338072,-9.1628976,-4.2833544,-1.4569440000000002,0.0,0.0,0.0,0.0
0.41999999999999993,0.18044159999999998,-9.0543888,-4.1748456,-1.3801344,0.0,0.0,0.0,0.0
0.43999999999999995,0.10546079999999997,-9.0543888,-4.1748456,-1.6102584000000002,0.0,0.0,0.0,0.0
0.45999999999999996,0.0,-9.108643200000001,-4.2291,-1.4569440000000002,0.0,0.0,0.0,0.0
0.48,0.08686799999999999,-9.108643200000001,-4.2291,-1.4569440000000002,0.0,0.0,0.0,0.0
0.5,0.09326879999999999,-9.0543888,-4.1748456,-1.5334488,0.0,0.0,0.0,0.0
0.52,0.3008376,-9.108643200000001,-4.2291,-1.4569440000000002,0.0,0.0,0.0,0.0
0.54,0.3151632,-9.0543888,-4.1748456,-1.4569440000000002,0.0,0.0,0.0,0.0
0.5599999999999996,0.25786079999999995,-9.0001344,-4.2291,-1.6102584000000002,0.0,0.0,0.0,0.0
0.5799999999999996,0.37338,-9.0543888,-4.1748456,-1.4569440000000002,0.0,0.0,0.0,0.0
0.5999999999999996,0.5132832,-9.0543888,-4.1748456,-1.4569440000000002,0.0,0.0,0.0,0.0
0.6199999999999997,0.27371039999999996,-9.0543888,-4.1748456,-1.4569440000000002,0.0,0.0,0.0,0.0
0.6399999999999997,0.19415759999999999,-9.0001344,-4.2291,-1.3801344,0.0,0.0,0.0,0.0
0.6599999999999997,0.1789176,-9.1628976,-4.2833544,-1.6102584000000002,0.0,0.0,0.0,0.0
0.6799999999999997,0.233172,-9.108643200000001,-4.2291,-1.5334488,0.0,0.0,0.0,0.0
0.6999999999999997,0.2444496,-9.108643200000001,-4.2291,-1.3801344,0.0,0.0,0.0,0.0
0.7199999999999998,0.3179064,-9.108643200000001,-4.2291,-1.5334488,0.0,0.0,0.0,0.0
0.7399999999999998,0.3578352,-9.0543888,-4.1748456,-1.4569440000000002,0.0,0.0,0.0,0.0
0.7599999999999998,0.4200144,-9.0543888,-4.1748456,-1.3801344,0.0,0.0,0.0,0.0
0.7799999999999998,0.4666488,-9.1628976,-4.2833544,-1.5334488,0.0,0.0,0.0,0.0
0.7999999999999998,0.2526792,-9.108643200000001,-4.2291,-1.5334488,0.0,0.0,0.0,0.0
0.8199999999999998,0.23073359999999998,-9.108643200000001,-4.3376088,-1.3801344,0.0,0.0,0.0,0.0
0.8399999999999999,0.19842479999999998,-9.108643200000001,-4.2291,-1.3801344,0.0,0.0,0.0,0.0
0.8599999999999999,0.17343119999999998,-9.108643200000001,-4.2291,-1.3801344,0.0,0.0,0.0,0.0
0.8799999999999999,-0.024688800000000056,-9.108643200000001,-4.2291,-1.3801344,0.0,0.0,0.0,0.0
0.8999999999999999,0.05516879999999998,-9.108643200000001,-4.2291,-1.4569440000000002,0.0,0.0,0.0,0.0
0.9199999999999999,0.15514319999999998,-9.108643200000001,-4.2291,-1.4569440000000002,0.0,0.0,0.0,0.0
0.94,0.2535936,-9.0001344,-4.2291,-1.4569440000000002,0.0,0.0,0.0,0.0
0.96,0.381,-9.108643200000001,-4.2291,-1.5334488,0.0,0.0,0.0,0.0
0.98,0.6284976,-9.0543888,-4.2833544,-1.4569440000000002,0.0,0.0,0.0,0.0
1.0,0.5394960000000001,-9.108643200000001,-4.2291,-1.4569440000000002,0.0,0.0,0.0,0.0
1.02,0.5276088,-9.1628976,-4.2833544,-1.5334488,0.0,0.0,0.0,0.0
1.04,0.3813048,-9.108643200000001,-4.2291,-1.5334488,0.0,0.0,0.0,0.0
1.0599999999999996,0.2612136,-9.1628976,-4.2833544,-1.4569440000000002,0.0,0.0,0.0,0.0
1.0799999999999996,0.14782799999999996,-9.0543888,-4.1748456,-1.5334488,0.0,0.0,0.0,0.0
1.0999999999999996,0.15941039999999998,-9.108643200000001,-4.2291,-1.4569440000000002,0.0,0.0,0.0,0.0
1.1199999999999997,0.1728216,-9.0543888,-4.1748456,-1.5334488,0.0,0.0,0.0,0.0
1.1399999999999997,0.07315199999999997,-9.108643200000001,-4.2291,-1.4569440000000002,0.0,0.0,0.0,0.0
1.1599999999999997,0.07955279999999998,-9.1628976,-4.2833544,-1.4569440000000002,0.0,0.0,0.0,0.0
1.1799999999999997,0.3197352,-9.0543888,-4.1748456,-1.4569440000000002,0.0,0.0,0.0,0.0
1.1999999999999997,0.2807208,-9.108643200000001,-4.2291,-1.6102584000000002,0.0,0.0,0.0,0.0
1.2199999999999998,0.10149839999999999,-9.108643200000001,-4.2291,-1.4569440000000002,0.0,0.0,0.0,0.0
1.2399999999999998,0.2724912,-9.108643200000001,-4.2291,-1.4569440000000002,0.0,0.0,0.0,0.0
1.2599999999999998,0.409956,-9.108643200000001,-4.2291,-1.4569440000000002,0.0,0.0,0.0,0.0
1.2799999999999998,0.3685032,-9.108643200000001,-4.2291,-1.4569440000000002,0.0,0.0,0.0,0.0
1.2999999999999998,0.4974336,-9.0543888,-4.2833544,-1.5334488,0.0,0.0,0.0,0.0
1.3199999999999998,0.560832,-9.108643200000001,-4.2291,-1.5334488,0.0,0.0,0.0,0.0
1.3399999999999999,0.49347119999999994,-9.1628976,-4.2833544,-1.4569440000000002,0.0,0.0,0.0,0.0
1.3599999999999999,0.597408,-9.1628976,-4.2833544,-1.4569440000000002,0.0,0.0,0.0,0.0
1.38,0.6394704,-9.108643200000001,-4.2291,-1.4569440000000002,0.0,0.0,0.0,0.0
1.4,0.3069336,-9.0543888,-4.1748456,-1.4569440000000002,0.0,0.0,0.0,0.0
1.42,0.32003999999999994,-9.108643200000001,-4.2291,-1.5334488,0.0,0.0,0.0,0.0
1.44,0.3953256,-9.108643200000001,-4.2291,-1.5334488,0.0,0.0,0.0,0.0
1.46,0.04602479999999998,-9.108643200000001,-4.2291,-1.4569440000000002,0.0,0.0,0.0,0.0
1.48,-0.22585680000000005,-9.0543888,-4.1748456,-1.4569440000000002,0.0,0.0,0.0,0.0
1.5,0.03108959999999996,-9.0543888,-4.2833544,-1.5334488,0.0,0.0,0.0,0.0
1.52,0.09357359999999999,-9.0543888,-4.1748456,-1.4569440000000002,0.0,0.0,0.0,0.0
1.54,0.2798064,-9.108643200000001,-4.2291,-1.4569440000000002,0.0,0.0,0.0,0.0
1.5599999999999996,0.3806952,-9.1628976,-4.2833544,-1.5334488,0.0,0.0,0.0,0.0
1.5799999999999996,0.31302959999999996,-9.108643200000001,-4.2291,-1.5334488,0.0,0.0,0.0,0.0
1.5999999999999996,0.1764792,-9.0543888,-4.1748456,-1.5334488,0.0,0.0,0.0,0.0
1.6199999999999997,0.2508504,-9.108643200000001,-4.2291,-1.4569440000000002,0.0,0.0,0.0,0.0
1.6399999999999997,0.12954,-9.0543888,-4.1748456,-1.5334488,0.0,0.0,0.0,0.0
1.6599999999999997,0.231648,-9.108643200000001,-4.2291,-1.3801344,0.0,0.0,0.0,0.0
1.6799999999999997,0.3148584,-9.0543888,-4.1748456,-1.4569440000000002,0.0,0.0,0.0,0.0
1.6999999999999997,0.23286719999999997,-9.0543888,-4.1748456,-1.4569440000000002,0.0,0.0,0.0,0.0
1.7199999999999998,0.13258799999999998,-9.0543888,-4.1748456,-1.5334488,0.0,0.0,0.0,0.0
1.7399999999999998,0.10332719999999997,-9.1628976,-4.2833544,-1.5334488,0.0,0.0,0.0,0.0
1.7599999999999998,0.0984504,-9.0001344,-4.2291,-1.4569440000000002,0.0,0.0,0.0,0.0
1.7799999999999998,0.11247119999999997,-9.108643200000001,-4.2291,-1.3801344,0.0,0.0,0.0,0.0
1.7999999999999998,0.2923032,-9.108643200000001,-4.2291,-1.6102584000000002,0.0,0.0,0.0,0.0
1.8199999999999998,0.4340352,-9.108643200000001,-4.2291,-1.4569440000000002,0.0,0.0,0.0,0.0
1.8399999999999999,0.41147999999999996,-9.0543888,-4.2833544,-1.4569440000000002,0.0,0.0,0.0,0.0
1.8599999999999999,0.42336719999999994,-9.0001344,-4.2291,-1.3801344,0.0,0.0,0.0,0.0
1.88,0.3785616,-9.108643200000001,-4.2291,-1.6102584000000002,0.0,0.0,0.0,0.0
1.9,0.38861999999999997,-9.108643200000001,-4.3376088,-1.4569440000000002,0.0,0.0,0.0,0.0
1.92,0.2276856,-9.108643200000001,-4.3376088,-1.4569440000000002,0.0,0.0,0.0,0.0
1.94,0.21427439999999998,-9.0543888,-4.1748456,-1.4569440000000002,0.0,0.0,0.0,0.0
1.96,0.05669279999999999,-9.0001344,-4.2291,-1.5334488,0.0,0.0,0.0,0.0
1.98,0.231648,-9.108643200000001,-4.2291,-1.5334488,0.0,0.0,0.0,0.0
2.0,0.2892552,-9.0543888,-4.1748456,-1.5334488,0.0,0.0,0.0,0.0
2.02,0.18836639999999996,-9.0001344,-4.2291,-1.4569440000000002,0.0,0.0,0.0,0.0
2.04,0.07437119999999997,-9.1628976,-4.2833544,-1.5334488,0.0,0.0,0.0,0.0
2.0599999999999996,0.14996159999999997,-9.0001344,-4.120591200000001,-1.4569440000000002,0.0,0.0,0.0,0.0
2.0799999999999996,0.18105119999999997,-9.0543888,-4.1748456,-1.4569440000000002,0.0,0.0,0.0,0.0
2.0999999999999996,0.207264,-9.0543888,-4.2833544,-1.5334488,0.0,0.0,0.0,0.0
2.1199999999999997,0.2776728,-9.0543888,-4.1748456,-1.4569440000000002,0.0,0.0,0.0,0.0
2.1399999999999997,0.33223199999999997,-9.108643200000001,-4.2291,-1.5334488,0.0,0.0,0.0,0.0
2.1599999999999997,0.4733544,-9.0543888,-4.1748456,-1.5334488,0.0,0.0,0.0,0.0
2.1799999999999997,0.32003999999999994,-9.108643200000001,-4.2291,-1.3801344,0.0,0.0,0.0,0.0
2.1999999999999997,0.2276856,-9.0543888,-4.1748456,-1.4569440000000002,0.0,0.0,0.0,0.0
2.2199999999999998,0.12222479999999998,-9.108643200000001,-4.2291,-1.5334488,0.0,0.0,0.0,0.0
2.2399999999999998,0.006400799999999972,-9.0543888,-4.2833544,-1.4569440000000002,0.0,0.0,0.0,0.0
2.26,0.11704319999999997,-9.1628976,-4.2833544,-1.3801344,0.0,0.0,0.0,0.0
2.28,0.04145279999999997,-9.0001344,-4.120591200000001,-1.5334488,0.0,0.0,0.0,0.0
2.3,-0.013716000000000046,-9.108643200000001,-4.2291,-1.4569440000000002,0.0,0.0,0.0,0.0
2.32,0.013106399999999978,-9.108643200000001,-4.2291,-1.4569440000000002,0.0,0.0,0.0,0.0
2.34,0.023774399999999987,-9.0543888,-4.1748456,-1.5334488,0.0,0.0,0.0,0.0
2.36,-0.06370320000000003,-9.108643200000001,-4.2291,-1.5334488,0.0,0.0,0.0,0.0
2.38,-0.146304,-9.0543888,-4.1748456,-1.3801344,0.0,0.0,0.0,0.0
2.4,0.10546079999999997,-9.0543888,-4.1748456,-1.4569440000000002,0.0,0.0,0.0,0.0
2.42,0.161544,-9.0543888,-4.1748456,-1.4569440000000002,0.0,0.0,0.0,0.0
2.4399999999999995,0.05730239999999999,-9.108643200000001,-4.2291,-1.5334488,0.0,0.0,0.0,0.0
2.46,0.24048719999999998,-9.0543888,-4.2833544,-1.4569440000000002,0.0,0.0,0.0,0.0
2.4799999999999995,0.26548079999999996,-9.0543888,-4.1748456,-1.3801344,0.0,0.0,0.0,0.0
2.5,0.329184,-9.108643200000001,-4.2291,-1.4569440000000002,0.0,0.0,0.0,0.0
2.5199999999999996,0.4584192,-9.0001344,-4.120591200000001,-1.4569440000000002,0.0,0.0,0.0,0.0
2.54,0.4376928,-9.0543888,-4.1748456,-1.6102584000000002,0.0,0.0,0.0,0.0
2.5599999999999996,0.3819144,-9.108643200000001,-4.2291,-1.5334488,0.0,0.0,0.0,0.0
2.58,0.10210799999999999,-9.1628976,-4.2833544,-1.4569440000000002,0.0,0.0,0.0,0.0
2.5999999999999996,0.27340559999999997,-9.0543888,-4.1748456,-1.4569440000000002,0.0,0.0,0.0,0.0
2.62,0.19446239999999998,-9.108643200000001,-4.2291,-1.4569440000000002,0.0,0.0,0.0,0.0
2.6399999999999997,0.26304239999999995,-9.108643200000001,-4.2291,-1.6102584000000002,0.0,0.0,0.0,0.0
2.66,0.23225759999999998,-9.1628976,-4.2833544,-1.5334488,0.0,0.0,0.0,0.0
2.6799999999999997,0.09357359999999999,-9.108643200000001,-4.3376088,-1.6102584000000002,0.0,0.0,0.0,0.0
2.6999999999999997,0.09936479999999999,-9.0543888,-4.2833544,-1.6867632000000001,0.0,0.0,0.0,0.0
2.7199999999999998,0.02468879999999999,-9.108643200000001,-4.2291,-1.4569440000000002,0.0,0.0,0.0,0.0
2.7399999999999998,-0.030480000000000028,-9.108643200000001,-4.2291,-1.4569440000000002,0.0,0.0,0.0,0.0
2.76,0.11033759999999997,-9.108643200000001,-4.2291,-1.4569440000000002,0.0,0.0,0.0,0.0
2.78,0.22646639999999998,-9.108643200000001,-4.2291,-1.4569440000000002,0.0,0.0,0.0,0.0
2.8,0.219456,-9.0001344,-4.2291,-1.5334488,0.0,0.0,0.0,0.0
2.82,0.31333439999999996,-9.108643200000001,-4.2291,-1.5334488,0.0,0.0,0.0,0.0
2.84,0.1697736,-9.0543888,-4.2833544,-1.5334488,0.0,0.0,0.0,0.0
2.86,0.2508504,-9.108643200000001,-4.2291,-1.5334488,0.0,0.0,0.0,0.0
2.88,0.41391839999999996,-9.108643200000001,-4.2291,-1.4569440000000002,0.0,0.0,0.0,0.0
2.9,0.3755136,-9.108643200000001,-4.2291,-1.5334488,0.0,0.0,0.0,0.0
2.92,0.25908,-9.108643200000001,-4.2291,-1.5334488,0.0,0.0,0.0,0.0
2.9399999999999995,0.3788664,-9.108643200000001,-4.2291,-1.5334488,0.0,0.0,0.0,0.0
2.96,0.34137599999999996,-9.0543888,-4.1748456,-1.3801344,0.0,0.0,0.0,0.0
2.9799999999999995,0.3069336,-9.1628976,-4.2833544,-1.5334488,0.0,0.0,0.0,0.0
3.0,0.3264408,-9.0543888,-4.2833544,-1.4569440000000002,0.0,0.0,0.0,0.0
3.0199999999999996,0.22585679999999997,-8.94588,-4.0663368,-1.3801344,0.0,0.0,0.0,0.0
3.04,0.31150560000000005,-9.0543888,-4.1748456,-1.5334488,0.0,0.0,0.0,0.0
3.0599999999999996,0.2953512,-9.108643200000001,-4.2291,-1.4569440000000002,0.0,0.0,0.0,0.0
3.08,0.23408639999999997,-9.0001344,-4.2291,-1.5334488,0.0,0.0,0.0,0.0
3.0999999999999996,0.10454639999999996,-9.0001344,-4.120591200000001,-1.5334488,0.0,0.0,0.0,0.0
3.12,0.11948159999999998,-9.0543888,-4.1748456,-1.5334488,0.0,0.0,0.0,0.0
3.1399999999999997,0.05425439999999998,-9.108643200000001,-4.2291,-1.3801344,0.0,0.0,0.0,0.0
3.16,0.03809999999999997,-9.108643200000001,-4.2291,-1.5334488,0.0,0.0,0.0,0.0
3.1799999999999997,0.06187439999999999,-9.108643200000001,-4.3376088,-1.4569440000000002,0.0,0.0,0.0,0.0
3.1999999999999997,0.18409919999999996,-9.108643200000001,-4.2291,-1.5334488,0.0,0.0,0.0,0.0
3.2199999999999998,0.07132319999999996,-9.0543888,-4.2833544,-1.4569440000000002,0.0,0.0,0.0,0.0
3.2399999999999998,0.2121408,-9.0543888,-4.2833544,-1.5334488,0.0,0.0,0.0,0.0
3.26,0.2923032,-9.108643200000001,-4.2291,-1.4569440000000002,0.0,0.0,0.0,0.0
3.28,0.4852416,-9.0001344,-4.120591200000001,-1.3801344,0.0,0.0,0.0,0.0
3.3,0.4672584,-9.0543888,-4.1748456,-1.4569440000000002,0.0,0.0,0.0,0.0
3.32,0.3986784,-9.0001344,-4.120591200000001,-1.3801344,0.0,0.0,0.0,0.0
3.34,0.22585679999999997,-9.1628976,-4.2833544,-1.5334488,0.0,0.0,0.0,0.0
3.36,-0.028651200000000026,-9.0543888,-4.2833544,-1.4569440000000002,0.0,0.0,0.0,0.0
3.38,0.10302239999999996,-9.108643200000001,-4.2291,-1.4569440000000002,0.0,0.0,0.0,0.0
3.4,0.292608,-9.0001344,-4.2291,-1.4569440000000002,0.0,0.0,0.0,0.0
3.42,0.1642872,-9.0543888,-4.1748456,-1.5334488,0.0,0.0,0.0,0.0
3.44,0.22463759999999997,-9.0543888,-4.1748456,-1.4569440000000002,0.0,0.0,0.0,0.0
3.46,0.2929128,-9.108643200000001,-4.2291,-1.4569440000000002,0.0,0.0,0.0,0.0
3.48,0.3608832,-9.108643200000001,-4.2291,-1.4569440000000002,0.0,0.0,0.0,0.0
3.5,0.4120896,-9.0543888,-4.1748456,-1.5334488,0.0,0.0,0.0,0.0
3.5199999999999996,0.33223199999999997,-9.1628976,-4.2833544,-1.4569440000000002,0.0,0.0,0.0,0.0
3.54,0.3151632,-9.0543888,-4.1748456,-1.5334488,0.0,0.0,0.0,0.0
3.5599999999999996,0.36667439999999996,-9.0543888,-4.1748456,-1.4569440000000002,0.0,0.0,0.0,0.0
3.58,0.4044696,-9.1628976,-4.2833544,-1.3801344,0.0,0.0,0.0,0.0
3.5999999999999996,0.30175199999999996,-9.108643200000001,-4.2291,-1.4569440000000002,0.0,0.0,0.0,0.0
3.6199999999999997,0.18531839999999997,-9.1628976,-4.2833544,-1.3801344,0.0,0.0,0.0,0.0
3.6399999999999997,0.22799039999999998,-9.108643200000001,-4.2291,-1.5334488,0.0,0.0,0.0,0.0
3.6599999999999997,0.2795016,-9.0543888,-4.2833544,-1.5334488,0.0,0.0,0.0,0.0
3.6799999999999997,0.2883408,-9.0543888,-4.1748456,-1.4569440000000002,0.0,0.0,0.0,0.0
3.6999999999999997,0.21336,-9.0543888,-4.1748456,-1.4569440000000002,0.0,0.0,0.0,0.0
3.7199999999999998,0.219456,-9.0543888,-4.1748456,-1.6102584000000002,0.0,0.0,0.0,0.0
3.7399999999999998,0.14599919999999997,-9.108643200000001,-4.3376088,-1.5334488,0.0,0.0,0.0,0.0
3.76,0.26791919999999997,-9.0543888,-4.1748456,-1.4569440000000002,0.0,0.0,0.0,0.0
3.78,0.38404799999999994,-9.0543888,-4.1748456,-1.6102584000000002,0.0,0.0,0.0,0.0
3.8,0.3904488,-9.108643200000001,-4.2291,-1.4569440000000002,0.0,0.0,0.0,0.0
3.82,0.2816352,-9.0543888,-4.1748456,-1.3801344,0.0,0.0,0.0,0.0
3.84,0.32491679999999995,-9.0543888,-4.2833544,-1.4569440000000002,0.0,0.0,0.0,0.0
3.86,0.22524719999999998,-9.108643200000001,-4.2291,-1.5334488,0.0,0.0,0.0,0.0
3.88,0.09875519999999999,-9.108643200000001,-4.2291,-1.4569440000000002,0.0,0.0,0.0,0.0
3.9,0.18227039999999997,-9.0543888,-4.2833544,-1.4569440000000002,0.0,0.0,0.0,0.0
3.92,0.053644799999999986,-9.108643200000001,-4.2291,-1.4569440000000002,0.0,0.0,0.0,0.0
3.94,0.10515599999999996,-9.1628976,-4.2833544,-1.4569440000000002,0.0,0.0,0.0,0.0
3.96,-0.015849600000000016,-9.0543888,-4.2833544,-1.5334488,0.0,0.0,0.0,0.0
3.98,0.04114799999999997,-9.0543888,-4.1748456,-1.4569440000000002,0.0,0.0,0.0,0.0
4.0,0.07376159999999997,-9.0543888,-4.2833544,-1.5334488,0.0,0.0,0.0,0.0
4.02,0.10302239999999996,-9.0001344,-4.2291,-1.4569440000000002,0.0,0.0,0.0,0.0
4.04,0.02956559999999996,-9.1628976,-4.2833544,-1.4569440000000002,0.0,0.0,0.0,0.0
4.06,0.2356104,-9.108643200000001,-4.2291,-1.4569440000000002,0.0,0.0,0.0,0.0
4.08,0.252984,-9.108643200000001,-4.2291,-1.4569440000000002,0.0,0.0,0.0,0.0
4.1,0.3934968,-9.108643200000001,-4.2291,-1.5334488,0.0,0.0,0.0,0.0
4.12,0.3233928,-9.0001344,-4.2291,-1.4569440000000002,0.0,0.0,0.0,0.0
4.14,0.29352239999999996,-9.0543888,-4.1748456,-1.5334488,0.0,0.0,0.0,0.0
4.16,0.38313359999999996,-9.1628976,-4.2833544,-1.6102584000000002,0.0,0.0,0.0,0.0
4.18,0.3191256,-9.1628976,-4.2833544,-1.5334488,0.0,0.0,0.0,0.0
4.2,0.23286719999999997,-9.0001344,-4.2291,-1.3801344,0.0,0.0,0.0,0.0
4.22,0.37338,-9.0543888,-4.1748456,-1.6102584000000002,0.0,0.0,0.0,0.0
4.24,0.5468112,-8.94588,-4.1748456,-1.3801344,0.0,0.0,0.0,0.0
4.26,0.4337304,-9.379915200000001,-4.5000672,-1.5334488,0.0,0.0,0.0,0.0
4.28,0.4544568,-9.0001344,-4.120591200000001,-1.3801344,0.0,0.0,0.0,0.0
4.3,0.432816,-8.6749128,-4.012082400000001,-1.3036296,0.0,0.0,0.0,0.0
4.319999999999999,0.4782312,-9.596628,-4.7170848,-1.9168872,0.0,0.0,0.0,0.0
4.34,0.5123688000000001,-8.94588,-4.1748456,-1.0735056,0.0,0.0,0.0,0.0
4.359999999999999,0.2051304,-9.4338648,-4.554321600000001,-1.7635728,0.0,0.0,0.0,0.0
4.38,0.14325599999999997,-10.0846128,-5.096560800000001,-1.9936968000000002,0.0,0.0,0.0,0.0
4.3999999999999995,-0.1481328,-52.21224000000001,-27.271675200000004,-1.3801344,0.0,0.0,0.0,0.0
4.42,-0.43555920000000004,-88.3215912,-44.6218056,-3.2205168000000004,0.0,0.0,0.0,0.0
4.4399999999999995,-0.36667440000000007,-92.5506912,-43.3203096,-4.4473368,0.0,0.0,0.0,0.0
4.46,0.06583679999999996,-109.3040232,-58.5557376,-6.594043200000001,0.0,0.0,0.0,0.0
4.4799999999999995,0.7257288000000001,70.0500504,-151.9196352,-79.4366712,0.0,0.0,0.0,0.0
4.5,1.1612879999999999,-96.12904320000001,-58.1762616,-6.9774816,0.0,0.0,0.0,0.0
4.52,1.5901416,-107.9485776,-51.453288,-10.274503200000002,0.0,0.0,0.0,0.0
4.54,1.7547336,-110.3342472,-53.2967184,-3.3738312000000006,0.0,0.0,0.0,0.0
4.56,1.869948,-109.3040232,-63.218568000000005,-3.5271456,0.0,0.0,0.0,0.0
4.58,1.9793712,-98.2976952,-52.320748800000004,-2.223516,0.0,0.0,0.0,0.0
4.6,2.345436,-94.71934320000001,-46.8989664,0.15331440000000002,0.0,0.0,0.0,0.0
4.62,2.6331672,-117.219984,-62.459616,-8.050987200000002,0.0,0.0,0.0,0.0
4.64,2.9029152,-115.9187928,-60.832898400000005,-7.437729600000001,0.0,0.0,0.0,0.0
4.66,3.140964,-113.69588639999999,-60.4534224,-6.8241672,0.0,0.0,0.0,0.0
4.68,3.4661856,-125.46116640000001,-65.06199840000001,-9.2013024,0.0,0.0,0.0,0.0
4.7,3.9898320000000003,-111.41872560000002,-57.200292,-6.364224,0.0,0.0,0.0,0.0
4.72,4.421124,-110.2257384,-57.525513600000004,-5.903976000000001,0.0,0.0,0.0,0.0
4.74,5.001768,-110.7679776,-59.0437224,-6.8241672,0.0,0.0,0.0,0.0
4.76,5.499201599999999,-112.9366296,-60.2364048,-7.0542912,0.0,0.0,0.0,0.0
4.779999999999999,6.040221600000001,-112.5028992,-59.260740000000006,-6.6708528000000005,0.0,0.0,0.0,0.0
4.8,6.658356,-111.7982016,-58.0134984,-6.0572904,0.0,0.0,0.0,0.0
4.82,7.4185272,-113.26215600000002,-58.609992,-6.1341,0.0,0.0,0.0,0.0
4.84,8.115300000000001,-110.6594688,-58.7185008,-5.9807856,0.0,0.0,0.0,0.0
4.859999999999999,9.104376,-114.021108,-60.670135200000004,-6.8241672,0.0,0.0,0.0,0.0
4.88,9.9337368,-112.3943904,-59.4774528,-6.8241672,0.0,0.0,0.0,0.0
4.8999999999999995,10.644225600000002,-108.9788016,-57.6882768,-4.984089600000001,0.0,0.0,0.0,0.0
4.92,11.303508,-113.0993928,-59.0979768,-6.1341,0.0,0.0,0.0,0.0
4.9399999999999995,11.755526400000003,-111.0389448,-59.74842,-9.6612456,0.0,0.0,0.0,0.0
4.96,12.243816,-110.2799928,-48.254412,-2.6069544000000002,0.0,0.0,0.0,0.0
4.9799999999999995,12.565989600000002,-102.74381280000001,-55.03164,-6.6708528000000005,0.0,0.0,0.0,0.0
5.0,13.254228000000003,-103.01478000000002,-56.06186400000001,-6.4407288000000005,0.0,0.0,0.0,0.0
5.02,13.759281600000001,-80.4598848,-31.8802512,3.5271456,0.0,0.0,0.0,0.0
5.04,14.398447200000001,-107.51484719999999,-57.525513600000004,-9.891369599999999,0.0,0.0,0.0,0.0
5.06,14.815413600000003,-101.76784320000002,-63.489535200000006,-6.8241672,0.0,0.0,0.0,0.0
5.08,15.535960800000002,-99.5449368,-64.9534896,-6.4407288000000005,0.0,0.0,0.0,0.0
5.1,16.201948800000004,-94.99031040000001,-67.6643808,-7.2076056,0.0,0.0,0.0,0.0
5.12,17.1718224,-90.92397360000001,-63.489535200000006,-1.4569440000000002,0.0,0.0,0.0,0.0
5.14,18.324576000000004,-101.4423168,-56.3328312,-3.0672024,0.0,0.0,0.0,0.0
5.16,19.4474592,-123.50922720000001,-89.24330640000001,-35.0410272,0.0,0.0,0.0,0.0
5.18,20.7199992,-105.183432,-72.43572,6.0572904,0.0,0.0,0.0,0.0
5.2,22.1617032,-101.71358880000001,-58.230516,18.172176,0.0,0.0,0.0,0.0
5.22,23.559820799999997,-98.1891864,-55.465370400000005,28.8304224,0.0,0.0,0.0,0.0
5.24,25.0585224,-104.5872432,-56.875070400000006,25.916534400000003,0.0,0.0,0.0,0.0
5.26,26.7519912,-102.14731920000001,-51.832764000000005,28.370174400000003,0.0,0.0,0.0,0.0
5.279999999999999,28.190342400000002,-102.364032,-47.712172800000005,29.3668704,0.0,0.0,0.0,0.0
5.3,29.4153336,-96.8879952,-56.98357920000001,29.7503088,0.0,0.0,0.0,0.0
5.32,30.676596,-101.8760472,-56.1158136,26.6066016,0.0,0.0,0.0,0.0
5.34,31.8976248,-96.7797912,-41.693896800000005,45.3155304,0.0,0.0,0.0,0.0
5.359999999999999,32.9196192,-100.84612800000001,-45.76023360000001,31.360567200000002,0.0,0.0,0.0,0.0
5.38,33.9678264,-101.225604,-48.200157600000004,24.306276000000004,0.0,0.0,0.0,0.0
5.4,34.8587568,-103.99074960000002,-48.471124800000005,24.229771200000002,0.0,0.0,0.0,0.0
5.42,35.7143304,-101.0085864,-46.7904576,19.7059296,0.0,0.0,0.0,0.0
5.4399999999999995,36.596116800000004,-96.99650400000002,-46.1397096,22.1595696,0.0,0.0,0.0,0.0
5.46,37.615368000000004,-94.28561280000001,-47.3326968,16.3320984,0.0,0.0,0.0,0.0
5.4799999999999995,38.8031736,-98.026728,-48.254412,12.345009600000001,0.0,0.0,0.0,0.0
5.5,40.052244,-97.5929976,-47.92888560000001,11.7314472,0.0,0.0,0.0,0.0
5.52,41.6140392,-96.50851920000001,-44.4590424,13.49502,0.0,0.0,0.0,0.0
5.54,43.1712624,-93.47240640000001,-50.2060464,4.4473368,0.0,0.0,0.0,0.0
5.56,44.766280800000004,-91.6832304,-49.7180616,6.4407288000000005,0.0,0.0,0.0,0.0
5.58,46.509736800000006,-89.6227824,-48.41687040000001,4.6006512,0.0,0.0,0.0,0.0
5.6,48.37450320000001,-89.2975608,-48.0916488,7.130796,0.0,0.0,0.0,0.0
5.62,50.252985599999995,-85.7734632,-42.2903904,14.0317728,0.0,0.0,0.0,0.0
5.64,52.2924024,-86.5324152,-45.435012,6.5175384,0.0,0.0,0.0,0.0
5.66,54.35346,-86.9118912,-55.6820832,-1.3036296,0.0,0.0,0.0,0.0
5.68,56.319115200000006,-82.4660784,-40.067179200000005,16.7920416,0.0,0.0,0.0,0.0
5.699999999999999,58.446009600000004,-80.5141392,-45.163740000000004,10.3513128,0.0,0.0,0.0,0.0
5.72,60.5338896,-80.29742639999999,-45.814488000000004,7.2841104,0.0,0.0,0.0,0.0
5.74,62.6665752,-79.5381696,-43.1035968,7.437729600000001,0.0,0.0,0.0,0.0
5.76,64.771524,-79.5381696,-41.476879200000006,6.5175384,0.0,0.0,0.0,0.0
5.779999999999999,66.8904936,-76.9357872,-39.9589752,5.597347200000001,0.0,0.0,0.0,0.0
5.8,68.93814,-78.18272400000001,-38.1697992,8.8943688,0.0,0.0,0.0,0.0
5.82,70.80839280000001,-81.9238392,-43.645836,1.0735056,0.0,0.0,0.0,0.0
5.84,72.7874592,-78.833472,-39.3624816,3.2205168000000004,0.0,0.0,0.0,0.0
5.859999999999999,74.6769144,-76.014072,-39.3624816,-15.488716800000002,0.0,0.0,0.0,0.0
5.88,76.61970960000001,-77.044296,-35.7298752,8.971178400000001,0.0,0.0,0.0,0.0
5.9,78.53415840000001,-70.9175112,-30.796077600000004,9.891369599999999,0.0,0.0,0.0,0.0
5.92,80.2913304,-71.2969872,-31.0670448,12.114885600000001,0.0,0.0,0.0,0.0
5.9399999999999995,82.046064,-70.646544,-29.6573448,10.811256,0.0,0.0,0.0,0.0
5.96,83.71636800000002,-67.555872,-24.6150384,4.677156,0.0,0.0,0.0,0.0
5.9799999999999995,85.45890960000001,-70.4295264,-32.8019664,3.2205168000000004,0.0,0.0,0.0,0.0
6.0,87.16761840000001,-69.56206560000001,-50.4773184,-19.2456816,0.0,0.0,0.0,0.0
6.02,88.94856480000001,-63.3813312,-33.452714400000005,-4.2172128,0.0,0.0,0.0,0.0
6.04,90.8941032,-61.320883200000004,-32.1515232,-3.9870888,0.0,0.0,0.0,0.0
6.06,92.77289040000002,-60.8871528,-32.4767448,-3.6036504000000003,0.0,0.0,0.0,0.0
6.08,94.74799440000001,-58.39297440000001,-30.850332,-3.7572696000000003,0.0,0.0,0.0,0.0
6.1,96.63744960000001,-57.851040000000005,-31.1755536,-4.523841600000001,0.0,0.0,0.0,0.0
6.12,98.70429840000001,-54.8146224,-29.6573448,-3.450336,0.0,0.0,0.0,0.0
6.14,100.81138080000002,-52.1579856,-27.976677600000002,-3.2205168000000004,0.0,0.0,0.0,0.0
6.16,103.01386560000002,-54.380892,-29.3321232,-4.8304704,0.0,0.0,0.0,0.0
6.18,105.21177840000001,-50.043588,-26.5127232,-3.1437072,0.0,0.0,0.0,0.0
6.199999999999999,107.54624160000002,-51.0735072,-20.3859384,-1.2268200000000002,0.0,0.0,0.0,0.0
6.22,109.94623680000001,-47.16993360000001,-29.061156,5.5205376,0.0,0.0,0.0,0.0
6.24,112.30020720000002,-45.055536000000004,-16.970349600000002,-2.9135831999999997,0.0,0.0,0.0,0.0
6.26,114.75537120000001,-45.0012816,-25.157277600000004,-17.0221656,0.0,0.0,0.0,0.0
6.279999999999999,117.16207200000002,-48.037394400000004,-20.8199736,-4.0638984,0.0,0.0,0.0,0.0
6.3,119.72269680000001,-39.3624816,-20.602956,-4.2172128,0.0,0.0,0.0,0.0
6.32,122.17542240000002,-40.3384512,-18.1087776,-7.6675488,0.0,0.0,0.0,0.0
6.34,124.5296976,-39.145464000000004,-20.1692256,-4.523841600000001,0.0,0.0,0.0,0.0
6.359999999999999,126.88062000000002,-37.5190512,-17.5668432,-4.4473368,0.0,0.0,0.0,0.0
6.38,129.35407200000003,-29.3321232,-10.0303584,23.9231424,0.0,0.0,0.0,0.0
6.4,131.68396320000002,-53.2967184,-59.9111832,-66.7850328,0.0,0.0,0.0,0.0
6.42,134.0781672,-28.410408,-18.000573600000003,-11.1181896,0.0,0.0,0.0,0.0
6.4399999999999995,136.40440080000002,-29.3321232,-14.8016976,-1.9168872,0.0,0.0,0.0,0.0
6.46,138.7086888,-26.133247200000003,-8.241182400000001,6.4407288000000005,0.0,0.0,0.0,0.0
6.48,141.088872,-25.0487688,-15.8316168,-2.9135831999999997,0.0,0.0,0.0,0.0
6.5,143.4961824,-22.6630992,-12.2532648,-2.5304496,0.0,0.0,0.0,0.0
6.52,146.0833248,-24.45258,-11.440058400000002,-2.7602688,0.0,0.0,0.0,0.0
6.54,148.52142,-20.9281776,-11.277295200000001,-3.2970216000000003,0.0,0.0,0.0,0.0
6.56,151.32893280000002,-19.3560192,-9.2714064,-0.9201912000000001,0.0,0.0,0.0,0.0
6.58,153.85846800000002,-20.6572104,-7.5364848,-2.4536400000000005,0.0,0.0,0.0,0.0
6.6,156.38343120000002,-17.6750472,-8.1326736,-2.223516,0.0,0.0,0.0,0.0
6.619999999999999,158.88004800000002,-18.488558400000002,-9.0543888,-2.8370784000000002,0.0,0.0,0.0,0.0
6.64,161.51595840000002,-18.217286400000003,-7.048500000000001,-2.5304496,0.0,0.0,0.0,0.0
6.66,164.05463760000004,-17.024604,-8.024164800000001,-2.7602688,0.0,0.0,0.0,0.0
6.68,166.6286736,-14.476171200000001,-6.668719200000001,-2.4536400000000005,0.0,0.0,0.0,0.0
6.699999999999999,169.30085520000003,-11.4943128,-4.7713392,-1.3036296,0.0,0.0,0.0,0.0
6.72,171.91421040000003,-18.3800496,-5.259324,-51.6032496,0.0,0.0,0.0,0.0
6.74,174.7147128,-3.4698432,-2.9279088,-0.8433816000000001,0.0,0.0,0.0,0.0
6.76,177.5316744,-6.668719200000001,-2.1143976,3.9870888,0.0,0.0,0.0,0.0
6.779999999999999,180.41569200000004,-5.5845456,-2.9818584,-1.7635728,0.0,0.0,0.0,0.0
6.8,183.35548800000004,-7.5904344,-2.8194000000000004,-2.6069544000000002,0.0,0.0,0.0,0.0
6.82,186.40501200000003,-6.9399912,-2.6023824,-0.6135624,0.0,0.0,0.0,0.0
6.84,189.13602,-7.970215200000001,-4.1748456,-3.6036504000000003,0.0,0.0,0.0,0.0
6.859999999999999,191.943228,-7.2652128,-4.2291,-2.5304496,0.0,0.0,0.0,0.0
6.88,194.56542240000005,-3.8496240000000004,-1.789176,-32.203948800000006,0.0,0.0,0.0,0.0
6.9,197.27844720000002,-7.5904344,-2.7108912000000003,-1.0735056,0.0,0.0,0.0,0.0
6.92,199.9384368,-4.6628304,-1.5182088,-2.5304496,0.0,0.0,0.0,0.0
6.9399999999999995,202.58623440000002,-10.5725976,5.367528,-9.5079312,0.0,0.0,0.0,0.0
6.96,205.1322288,0.37947600000000004,3.6326064,-2.3768304000000002,0.0,0.0,0.0,0.0
6.98,207.6035472,2.9818584,4.608576,-3.910584,0.0,0.0,0.0,0.0
7.0,210.1422264,0.8132064000000001,2.9818584,-4.2172128,0.0,0.0,0.0,0.0
7.02,212.76655440000002,-2.7651456,1.030224,9.2778072,0.0,0.0,0.0,0.0
7.04,215.38356720000002,6.9942456,3.6326064,-3.7572696000000003,0.0,0.0,0.0,0.0
7.06,217.99417920000002,35.2961448,-14.259458400000002,-29.5969944,0.0,0.0,0.0,0.0
7.08,220.90623840000003,8.8919304,5.7470040000000004,-2.683764,0.0,0.0,0.0,0.0
7.1,223.60798560000003,13.8799824,-9.976104,-13.6483344,0.0,0.0,0.0,0.0
7.119999999999999,226.49352720000002,4.933797600000001,2.7651456,-3.9870888,0.0,0.0,0.0,0.0
7.14,229.258368,8.837676,6.9942456,-0.30662880000000003,0.0,0.0,0.0,0.0
7.16,232.0293048,15.235428,12.958267200000002,-0.30662880000000003,0.0,0.0,0.0,0.0
7.18,234.67192080000004,-1.030224,11.657076,-14.0317728,0.0,0.0,0.0,0.0
7.199999999999999,237.41268240000002,-6.0725304,-216.005664,-157.03296000000003,0.0,0.0,0.0,0.0
7.22,239.99129040000003,-1.4097000000000002,1.8434304000000001,1.9168872,0.0,0.0,0.0,0.0
7.24,242.7146784,-3.2531304000000003,15.506395200000002,1.9936968000000002,0.0,0.0,0.0,0.0
7.26,245.43867600000002,0.2170176,3.7953696000000003,5.827471200000001,0.0,0.0,0.0,0.0
7.279999999999999,248.1730368,-20.277734400000003,-4.6628304,13.49502,0.0,0.0,0.0,0.0
7.3,250.94519280000003,-14.0424408,-2.7651456,2.5304496,0.0,0.0,0.0,0.0
7.32,253.65029280000002,-60.0739464,8.7834216,0.15331440000000002,0.0,0.0,0.0,0.0
7.34,256.68853920000004,-29.548835999999998,-3.198876,-3.2970216000000003,0.0,0.0,0.0,0.0
7.359999999999999,259.5170832,-34.6453968,1.030224,15.795345600000001,0.0,0.0,0.0,0.0
7.38,262.3532472,-36.4888272,-3.957828,9.6612456,0.0,0.0,0.0,0.0
7.4,265.2784128,-27.4344384,-2.8194000000000004,7.2841104,0.0,0.0,0.0,0.0
7.42,268.09872720000004,-29.386377600000003,-6.1807343999999995,5.5205376,0.0,0.0,0.0,0.0
7.4399999999999995,270.9586656,-35.2961448,5.259324,4.7539656,0.0,0.0,0.0,0.0
7.46,273.8027544,-29.603090400000003,-2.8194000000000004,9.4311216,0.0,0.0,0.0,0.0
7.48,276.4874328,-30.308092800000004,2.4399240000000004,5.137404,0.0,0.0,0.0,0.0
7.5,279.2678184,-34.049208,-5.8555128,3.7572696000000003,0.0,0.0,0.0,0.0
7.52,282.09636240000003,-27.8681688,-0.2170176,9.891369599999999,0.0,0.0,0.0,0.0
7.54,284.7810408,-30.2538384,4.988052,3.0672024,0.0,0.0,0.0,0.0
7.56,287.50168560000003,-32.9104752,3.4158936000000004,4.0638984,0.0,0.0,0.0,0.0
7.58,290.14460640000004,-33.9949536,2.7651456,13.49502,0.0,0.0,0.0,0.0
7.6,292.96735920000003,-26.621232000000003,-5.259324,8.741054400000001,0.0,0.0,0.0,0.0
7.619999999999999,295.5749232,-33.018984,2.6566368,7.130796,0.0,0.0,0.0,0.0
7.64,298.0627008,-24.669292800000004,-3.0903671999999998,5.2139088000000005,0.0,0.0,0.0,0.0
7.66,300.65929200000005,-26.241756000000002,-4.8795432000000005,5.137404,0.0,0.0,0.0,0.0
7.68,303.20345760000004,-22.392132000000004,-0.0542544,4.2172128,0.0,0.0,0.0,0.0
7.699999999999999,305.7421368,-20.765719200000003,-4.0663368,9.584436,0.0,0.0,0.0,0.0
7.72,308.2567368,-26.2960104,4.933797600000001,11.194694400000001,0.0,0.0,0.0,0.0
7.74,310.8618624,-33.940699200000005,1.1926824,4.984089600000001,0.0,0.0,0.0,0.0
7.76,313.35146879999996,-29.494886400000002,1.5182088,11.3480088,0.0,0.0,0.0,0.0
7.779999999999999,315.91270319999995,-23.3138472,-2.3856696,2.4536400000000005,0.0,0.0,0.0,0.0
7.8,318.5989056,-24.344071200000002,3.5240976,8.2043016,0.0,0.0,0.0,0.0
7.82,321.2354255999999,-23.422356,-4.012082400000001,10.888065600000001,0.0,0.0,0.0,0.0
7.84,323.86524000000003,-24.072799200000002,-3.2531304000000003,7.437729600000001,0.0,0.0,0.0,0.0
7.859999999999999,326.5554048,-25.4282448,0.16276320000000002,4.370527200000001,0.0,0.0,0.0,0.0
7.88,329.1684552,-25.3742952,3.578352,10.5046272,0.0,0.0,0.0,0.0
7.9,331.55168639999994,-21.741384,-2.8736544000000004,13.264896000000002,0.0,0.0,0.0,0.0
7.92,333.97972319999997,-22.6630992,-4.6628304,6.6708528000000005,0.0,0.0,0.0,0.0
7.9399999999999995,336.3312552,-14.693188800000001,0.9217152000000001,11.3480088,0.0,0.0,0.0,0.0
7.96,338.5910424,-20.8739232,-0.9217152000000001,3.0672024,0.0,0.0,0.0,0.0
7.98,340.889844,-18.217286400000003,0.8674608,6.9774816,0.0,0.0,0.0,0.0
8.0,343.2706368,-26.0789928,1.5724632,7.9744824,0.0,0.0,0.0,0.0
8.02,345.6785568,-23.259592800000004,0.16276320000000002,9.967874400000001,0.0,0.0,0.0,0.0
8.04,348.10994639999996,-22.012656,-0.4337304,16.255288800000002,0.0,0.0,0.0,0.0
8.059999999999999,350.6233272,-19.952208,-4.8795432000000005,14.2618968,0.0,0.0,0.0,0.0
8.08,352.9806504,-32.693762400000004,5.9097672,1.6867632000000001,0.0,0.0,0.0,0.0
8.1,355.20538559999994,-22.392132000000004,-0.8132064000000001,5.367223200000001,0.0,0.0,0.0,0.0
8.12,357.70870799999994,-22.5006408,6.668719200000001,10.888065600000001,0.0,0.0,0.0,0.0
8.14,359.98282079999996,-25.3742952,-1.9519392,-1.9936968000000002,0.0,0.0,0.0,0.0
8.16,362.2240152,-22.1211648,-0.2170176,4.2937176,0.0,0.0,0.0,0.0
8.18,364.5508584,-20.1692256,-3.2531304000000003,11.1181896,0.0,0.0,0.0,0.0
8.2,366.8170464,-25.753771200000003,-0.4879848,-1.0735056,0.0,0.0,0.0,0.0
8.219999999999999,368.95796160000003,-15.181173600000001,0.8674608,8.58774,0.0,0.0,0.0,0.0
8.24,371.106192,-21.3076536,-2.4399240000000004,9.047683200000002,0.0,0.0,0.0,0.0
8.26,373.2894744,-15.994380000000001,-1.8976848000000002,4.370527200000001,0.0,0.0,0.0,0.0
8.28,375.6022968,-16.1571432,-2.2771608000000003,7.8976728000000005,0.0,0.0,0.0,0.0
8.3,377.88128639999996,-19.7354952,1.0844784,1.6867632000000001,0.0,0.0,0.0,0.0
8.32,380.32151519999996,-20.5487016,-0.4879848,0.996696,0.0,0.0,0.0,0.0
8.34,382.4746224,-19.247510400000003,1.2469368,2.5304496,0.0,0.0,0.0,0.0
8.36,384.6874704,-20.0607168,-0.9759696,8.2811112,0.0,0.0,0.0,0.0
8.379999999999999,387.08319839999996,-17.2955712,2.2229064000000003,9.967874400000001,0.0,0.0,0.0,0.0
8.399999999999999,389.09152559999995,-21.3076536,0.16276320000000002,1.7635728,0.0,0.0,0.0,0.0
8.42,391.1641656,-17.837810400000002,-0.5964936000000001,6.2109096,0.0,0.0,0.0,0.0
8.44,393.3541536,-15.994380000000001,0.8132064000000001,7.0542912,0.0,0.0,0.0,0.0
8.46,395.4136872,-21.1451952,2.6023824,2.7602688,0.0,0.0,0.0,0.0
8.48,397.5393624,-19.4102736,-3.2531304000000003,6.2874144,0.0,0.0,0.0,0.0
8.5,399.731484,-18.000573600000003,1.0844784,5.367223200000001,0.0,0.0,0.0,0.0
8.52,401.76084239999994,-17.458334400000002,1.8434304000000001,1.6867632000000001,0.0,0.0,0.0,0.0
8.54,403.9227888,-15.614904,0.1085088,13.111581600000001,0.0,0.0,0.0,0.0
8.559999999999999,405.96677759999994,-17.783556,-1.3011912,4.2937176,0.0,0.0,0.0,0.0
8.58,408.0290544,-20.8739232,4.5000672,2.1470112,0.0,0.0,0.0,0.0
8.6,409.9745928,-14.964156000000001,1.6264128000000002,-0.0768096,0.0,0.0,0.0,0.0
8.620000000000001,411.9490872,-14.747443200000001,-2.3856696,7.591044000000001,0.0,0.0,0.0,0.0
8.64,414.1265784,-17.512588800000003,-3.4158936000000004,4.907280000000001,0.0,0.0,0.0,0.0
8.66,416.0678496,-16.970349600000002,1.5724632,3.910584,0.0,0.0,0.0,0.0
8.68,417.8372136,-19.0847472,1.9519392,2.683764,0.0,0.0,0.0,0.0
8.7,419.8129272,-13.771473600000002,0.7589520000000001,5.6741568000000004,0.0,0.0,0.0,0.0
8.719999999999999,421.86209759999997,-15.7234128,-0.2170176,2.8370784000000002,0.0,0.0,0.0,0.0
8.74,423.8865792,-13.7172192,-1.2469368,10.888065600000001,0.0,0.0,0.0,0.0
8.76,425.8214496,-19.0304928,0.2709672,4.4473368,0.0,0.0,0.0,0.0
8.780000000000001,427.87488720000005,-20.711464799999998,-0.3252216,0.6900672,0.0,0.0,0.0,0.0
8.8,429.8819952,-18.81378,4.3915584,2.9135831999999997,0.0,0.0,0.0,0.0
8.82,431.7534672,-14.476171200000001,0.16276320000000002,9.891369599999999,0.0,0.0,0.0,0.0
8.84,433.8437856,-14.476171200000001,-1.3554456000000001,8.8943688,0.0,0.0,0.0,0.0
8.86,435.6631368,-13.012521600000001,-2.1686520000000002,7.6675488,0.0,0.0,0.0,0.0
8.879999999999999,437.5849008,-16.753332,2.1143976,5.060594400000001,0.0,0.0,0.0,0.0
8.899999999999999,439.5776832,-13.446252000000001,-5.7470040000000004,2.3003256,0.0,0.0,0.0,0.0
8.92,441.2897448,-14.313712800000001,0.9759696,8.58774,0.0,0.0,0.0,0.0
8.94,443.0051592,-19.3560192,2.9818584,-2.5304496,0.0,0.0,0.0,0.0
8.96,444.8424936,-17.2413168,4.3376088,2.1470112,0.0,0.0,0.0,0.0
8.98,446.6444712,-13.1207256,-1.3011912,10.121188800000002,0.0,0.0,0.0,0.0
9.0,448.3056312,-14.5304256,-0.650748,0.6900672,0.0,0.0,0.0,0.0
9.02,450.15698639999994,-13.608710400000001,-1.1387328,4.7539656,0.0,0.0,0.0,0.0
9.04,451.9754232,-13.1207256,-0.650748,7.5142344,0.0,0.0,0.0,0.0
9.059999999999999,453.6813888,-17.5668432,1.9519392,4.2172128,0.0,0.0,0.0,0.0
9.08,455.52360000000004,-15.8858712,3.3073848000000003,1.9936968000000002,0.0,0.0,0.0,0.0
9.1,457.4907792,-13.3377432,0.8674608,3.9870888,0.0,0.0,0.0,0.0
9.120000000000001,459.086712,-16.1571432,1.9519392,0.6135624,0.0,0.0,0.0,0.0
9.14,460.8304728,-12.8497584,0.16276320000000002,7.2076056,0.0,0.0,0.0,0.0
9.16,462.726024,-14.476171200000001,2.3314152,-0.8433816000000001,0.0,0.0,0.0,0.0
9.18,464.4417432,-10.626852000000001,0.650748,7.0542912,0.0,0.0,0.0,0.0
9.2,466.0782144,-15.7234128,-0.650748,-0.23012400000000002,0.0,0.0,0.0,0.0
9.219999999999999,467.857332,-13.229234400000001,0.5422392,7.591044000000001,0.0,0.0,0.0,0.0
9.24,469.593168,-13.1207256,-1.4097000000000002,2.1470112,0.0,0.0,0.0,0.0
9.26,471.28938,-9.596628,-1.5724632,9.6612456,0.0,0.0,0.0,0.0
9.280000000000001,472.89963839999996,-14.096695200000001,-1.0844784,7.8208632,0.0,0.0,0.0,0.0
9.3,474.69887279999995,-13.446252000000001,2.3856696,2.6069544000000002,0.0,0.0,0.0,0.0
9.32,476.3682624,-11.006328,-1.789176,8.971178400000001,0.0,0.0,0.0,0.0
9.34,477.9635856,-14.0424408,3.5240976,3.8337744,0.0,0.0,0.0,0.0
9.36,479.76586799999995,-11.5485672,2.8736544000000004,4.4473368,0.0,0.0,0.0,0.0
9.379999999999999,481.3742976,-9.596628,-0.5964936000000001,4.2172128,0.0,0.0,0.0,0.0
9.399999999999999,483.0375912,-12.8497584,-2.7651456,0.23012400000000002,0.0,0.0,0.0,0.0
9.42,484.735632,-13.283488800000002,0.8132064000000001,2.3003256,0.0,0.0,0.0,0.0
9.44,486.2096448,-12.795504,1.1926824,4.523841600000001,0.0,0.0,0.0,0.0
9.46,487.61782079999995,-11.982297599999999,1.8976848000000002,3.2970216000000003,0.0,0.0,0.0,0.0
9.48,489.20278079999997,-14.747443200000001,2.9279088,4.677156,0.0,0.0,0.0,0.0
9.5,490.8291936,-9.976104,-1.1926824,4.523841600000001,0.0,0.0,0.0,0.0
9.52,492.5820984,-15.0726648,4.012082400000001,1.1500104,0.0,0.0,0.0,0.0
9.54,494.1481608,-11.6028216,1.9519392,0.8433816000000001,0.0,0.0,0.0,0.0
9.559999999999999,495.7428744,-9.9218496,-2.4399240000000004,4.2937176,0.0,0.0,0.0,0.0
9.58,497.2757136,-14.096695200000001,1.4097000000000002,1.3036296,0.0,0.0,0.0,0.0
9.6,498.793008,-11.1690912,2.0601432,3.3738312000000006,0.0,0.0,0.0,0.0
9.620000000000001,500.4733704,-11.6028216,-2.3856696,2.7602688,0.0,0.0,0.0,0.0
9.64,501.930924,-11.7110256,1.5182088,2.7602688,0.0,0.0,0.0,0.0
9.66,503.57958720000005,-13.554456,0.0,5.750661600000001,0.0,0.0,0.0,0.0
9.68,505.30414559999997,-11.1690912,-1.1926824,1.0735056,0.0,0.0,0.0,0.0
9.7,506.8756944,-11.657076,2.0061936,5.4440328000000004,0.0,0.0,0.0,0.0
9.719999999999999,508.46431199999995,-12.416028,-0.0542544,0.30662880000000003,0.0,0.0,0.0,0.0
9.74,510.0273264,-11.3315496,2.0061936,2.223516,0.0,0.0,0.0,0.0
9.76,511.4809176,-7.5904344,2.4941784,6.2109096,0.0,0.0,0.0,0.0
9.780000000000001,512.9210975999999,-10.193121600000001,2.3856696,5.750661600000001,0.0,0.0,0.0,0.0
9.8,514.4066928,-10.8978192,1.4639544,2.4536400000000005,0.0,0.0,0.0,0.0
9.82,515.816088,-12.5787912,3.0361128,3.910584,0.0,0.0,0.0,0.0
9.84,517.2864432,-11.5485672,1.3554456000000001,4.907280000000001,0.0,0.0,0.0,0.0
9.86,518.673588,-11.4943128,-1.1926824,0.996696,0.0,0.0,0.0,0.0
9.879999999999999,520.2436128,-10.4640888,0.37947600000000004,4.2172128,0.0,0.0,0.0,0.0
9.899999999999999,521.5688832000001,-12.2532648,1.8434304000000001,3.8337744,0.0,0.0,0.0,0.0
9.92,522.9572472,-11.277295200000001,-0.7589520000000001,3.2205168000000004,0.0,0.0,0.0,0.0
9.94,524.5574472,-8.024164800000001,-1.3011912,3.6036504000000003,0.0,0.0,0.0,0.0
9.96,525.8854608,-10.843564800000001,-2.0601432,0.5367528,0.0,0.0,0.0,0.0
9.98,527.2707768,-8.4039456,2.3314152,5.060594400000001,0.0,0.0,0.0,0.0
10.0,528.7834991999999,-9.813645600000001,-1.2469368,0.9201912000000001,0.0,0.0,0.0,0.0
10.02,530.0987112,-10.138867200000002,2.2229064000000003,4.1404032,0.0,0.0,0.0,0.0
10.04,531.5023152,-11.5485672,2.4399240000000004,1.6867632000000001,0.0,0.0,0.0,0.0
10.059999999999999,532.848312,-8.837676,3.198876,1.5334488,0.0,0.0,0.0,0.0
10.08,534.2979408,-9.7051368,-2.4399240000000004,3.6036504000000003,0.0,0.0,0.0,0.0
10.1,535.6887432,-9.2714064,2.548128,2.1470112,0.0,0.0,0.0,0.0
10.120000000000001,537.0228528,-7.6989432,0.4337304,5.597347200000001,0.0,0.0,0.0,0.0
10.14,538.5495960000001,-7.5904344,1.8434304000000001,3.3738312000000006,0.0,0.0,0.0,0.0
10.16,539.9724024,-8.6206584,-1.1387328,0.8433816000000001,0.0,0.0,0.0,0.0
10.18,541.4202024,-9.7593912,-0.5422392,0.6135624,0.0,0.0,0.0,0.0
10.2,542.7326712,-9.1628976,1.2469368,1.6102584000000002,0.0,0.0,0.0,0.0
10.219999999999999,544.13658,-8.837676,0.5964936000000001,2.223516,0.0,0.0,0.0,0.0
10.24,545.4969024,-9.3256608,2.0601432,1.3036296,0.0,0.0,0.0,0.0
10.26,546.7831584,-10.681106400000001,1.1387328,3.9870888,0.0,0.0,0.0,0.0
10.280000000000001,548.0944079999999,-9.4338648,0.2170176,3.0672024,0.0,0.0,0.0,0.0
10.3,549.4788096,-10.3013256,2.3856696,2.5304496,0.0,0.0,0.0,0.0
10.32,550.7696376,-8.295436800000001,-1.8976848000000002,2.8370784000000002,0.0,0.0,0.0,0.0
10.34,552.1104528,-9.2714064,0.0542544,2.683764,0.0,0.0,0.0,0.0
10.36,553.3604376,-8.3496912,1.0844784,4.8304704,0.0,0.0,0.0,0.0
10.379999999999999,554.6119464,-8.4039456,0.7046976,4.370527200000001,0.0,0.0,0.0,0.0
10.399999999999999,555.921672,-7.4822304,1.9519392,4.8304704,0.0,0.0,0.0,0.0
10.42,557.1509304,-9.379915200000001,0.8132064000000001,1.6102584000000002,0.0,0.0,0.0,0.0
10.44,558.4067064,-8.024164800000001,-0.3252216,2.4536400000000005,0.0,0.0,0.0,0.0
10.46,559.6374888,-9.7051368,1.2469368,1.8400776,0.0,0.0,0.0,0.0
10.48,560.9520912,-7.915960800000001,1.4097000000000002,2.9135831999999997,0.0,0.0,0.0,0.0
10.5,562.3108896,-8.4582,-0.3252216,3.7572696000000003,0.0,0.0,0.0,0.0
10.52,563.6096424,-7.8617064,-0.16276320000000002,2.4536400000000005,0.0,0.0,0.0,0.0
10.54,564.8815728,-6.5605152,1.5724632,5.060594400000001,0.0,0.0,0.0,0.0
10.559999999999999,566.1769727999999,-9.379915200000001,1.030224,2.1470112,0.0,0.0,0.0,0.0
10.58,567.4364064,-9.0543888,0.9217152000000001,2.5304496,0.0,0.0,0.0,0.0
10.6,568.6559112,-7.210958400000001,2.3314152,2.9903928,0.0,0.0,0.0,0.0
10.620000000000001,569.7876335999999,-9.1628976,0.16276320000000002,2.223516,0.0,0.0,0.0,0.0
10.64,570.9196608,-8.566404,-0.8674608,2.5304496,0.0,0.0,0.0,0.0
10.66,572.1266688,-9.0543888,2.1143976,4.1404032,0.0,0.0,0.0,0.0
10.68,573.2391888,-8.295436800000001,-0.16276320000000002,2.223516,0.0,0.0,0.0,0.0
10.7,574.3617672,-7.6446888,0.16276320000000002,2.5304496,0.0,0.0,0.0,0.0
10.719999999999999,575.4907464,-6.777228,1.030224,5.137404,0.0,0.0,0.0,0.0
10.74,576.5557176,-6.9399912,0.0,1.9168872,0.0,0.0,0.0,0.0
10.76,577.7273688,-8.4039456,2.8736544000000004,3.2205168000000004,0.0,0.0,0.0,0.0
10.780000000000001,578.9173079999999,-6.668719200000001,1.3554456000000001,3.3738312000000006,0.0,0.0,0.0,0.0
10.8,579.9609432000001,-7.8617064,0.0542544,3.3738312000000006,0.0,0.0,0.0,0.0
10.82,581.1780096,-6.7229735999999995,1.3011912,2.8370784000000002,0.0,0.0,0.0,0.0
10.84,582.2865672,-6.7229735999999995,1.5182088,3.3738312000000006,0.0,0.0,0.0,0.0
10.86,583.437492,-6.668719200000001,0.8132064000000001,3.7572696000000003,0.0,0.0,0.0,0.0
10.879999999999999,584.5295904,-6.8314824000000005,1.4097000000000002,3.910584,0.0,0.0,0.0,0.0
10.899999999999999,585.8548608,-6.2892432000000005,1.9519392,4.2937176,0.0,0.0,0.0,0.0
10.92,586.9628088000001,-5.7470040000000004,1.6264128000000002,2.3003256,0.0,0.0,0.0,0.0
10.94,588.0613079999999,-6.0725304,1.1926824,1.9936968000000002,0.0,0.0,0.0,0.0
10.96,589.1467008,-6.7229735999999995,2.6023824,3.450336,0.0,0.0,0.0,0.0
10.98,590.3512704,-7.6446888,1.789176,2.9135831999999997,0.0,0.0,0.0,0.0
11.0,591.4799448,-6.668719200000001,2.0061936,2.6069544000000002,0.0,0.0,0.0,0.0
11.02,592.6647024,-5.964021600000001,1.6264128000000002,1.8400776,0.0,0.0,0.0,0.0
11.04,593.7708216,-7.427976000000001,1.6806672000000002,1.5334488,0.0,0.0,0.0,0.0
11.059999999999999,594.7986072,-6.8314824000000005,0.5422392,2.5304496,0.0,0.0,0.0,0.0
11.08,595.9720872,-7.753197600000001,0.9217152000000001,0.0768096,0.0,0.0,0.0,0.0
11.1,597.0586992,-5.7470040000000004,0.9759696,0.9201912000000001,0.0,0.0,0.0,0.0
11.120000000000001,597.9999216,-6.777228,1.3554456000000001,3.1437072,0.0,0.0,0.0,0.0
11.14,598.9804632,-6.614769600000001,-0.1085088,0.8433816000000001,0.0,0.0,0.0,0.0
11.16,599.9457648,-6.9942456,1.030224,0.9201912000000001,0.0,0.0,0.0,0.0
11.18,600.9186864,-7.753197600000001,0.0542544,1.9936968000000002,0.0,0.0,0.0,0.0
11.2,601.9732944,-7.6446888,0.37947600000000004,1.3801344,0.0,0.0,0.0,0.0
11.219999999999999,602.9227463999999,-6.7229735999999995,0.1085088,1.2268200000000002,0.0,0.0,0.0,0.0
11.24,603.9996048,-7.156704,0.3252216,1.8400776,0.0,0.0,0.0,0.0
11.26,605.0389728,-4.554321600000001,1.6264128000000002,2.4536400000000005,0.0,0.0,0.0,0.0
11.280000000000001,606.0509088,-5.5845456,0.37947600000000004,2.4536400000000005,0.0,0.0,0.0,0.0
11.3,607.0814376,-5.801258400000001,1.030224,2.683764,0.0,0.0,0.0,0.0
11.32,608.1016032,-7.5904344,0.9759696,1.8400776,0.0,0.0,0.0,0.0
11.34,609.1266456,-5.638800000000001,0.5422392,2.3768304000000002,0.0,0.0,0.0,0.0
11.36,610.0867656,-6.9399912,0.8674608,0.996696,0.0,0.0,0.0,0.0
11.379999999999999,611.1047976,-5.6930544,1.2469368,1.9936968000000002,0.0,0.0,0.0,0.0
11.399999999999999,612.085644,-4.988052,0.7589520000000001,2.9903928,0.0,0.0,0.0,0.0
11.42,612.9531048,-5.6930544,1.3554456000000001,-0.15331440000000002,0.0,0.0,0.0,0.0
11.44,614.0275248,-4.7170848,1.8976848000000002,1.9168872,0.0,0.0,0.0,0.0
11.46,615.0687216,-5.801258400000001,1.6806672000000002,2.3768304000000002,0.0,0.0,0.0,0.0
11.48,616.0739520000001,-5.7470040000000004,2.0601432,0.6900672,0.0,0.0,0.0,0.0
11.5,617.0200512,-4.8795432000000005,2.3856696,2.0702016,0.0,0.0,0.0,0.0
11.52,618.0158328,-4.5000672,1.789176,2.5304496,0.0,0.0,0.0,0.0
11.54,618.9972888,-6.4520064,2.1143976,1.6867632000000001,0.0,0.0,0.0,0.0
11.559999999999999,619.9269288,-5.0423064,2.2229064000000003,1.6102584000000002,0.0,0.0,0.0,0.0
11.58,620.8236504,-5.6930544,1.789176,2.1470112,0.0,0.0,0.0,0.0
11.6,621.8020584,-6.1807343999999995,2.3856696,1.9936968000000002,0.0,0.0,0.0,0.0
11.620000000000001,622.654584,-5.7470040000000004,2.2771608000000003,1.3801344,0.0,0.0,0.0,0.0
11.64,623.5869672,-6.1807343999999995,2.1686520000000002,1.4569440000000002,0.0,0.0,0.0,0.0
11.66,624.4785072,-6.2349888,1.789176,1.6867632000000001,0.0,0.0,0.0,0.0
11.68,625.349016,-6.1267848,2.4399240000000004,0.6135624,0.0,0.0,0.0,0.0
11.7,626.2533576000001,-5.5302912,0.4337304,0.9201912000000001,0.0,0.0,0.0,0.0
11.719999999999999,627.1814736000001,-6.1267848,1.8976848000000002,0.9201912000000001,0.0,0.0,0.0,0.0
11.74,628.1300112000001,-6.0725304,2.1686520000000002,1.5334488,0.0,0.0,0.0,0.0
11.76,629.0035680000001,-5.638800000000001,0.650748,0.15331440000000002,0.0,0.0,0.0,0.0
11.780000000000001,629.9966064,-6.397752,1.4097000000000002,-0.15331440000000002,0.0,0.0,0.0,0.0
11.8,630.8210904,-5.801258400000001,1.3554456000000001,1.3801344,0.0,0.0,0.0,0.0
11.82,631.6867224000001,-5.367528,1.030224,-0.7668768,0.0,0.0,0.0,0.0
11.84,632.5828344000001,-5.3132736,1.8434304000000001,1.5334488,0.0,0.0,0.0,0.0
11.86,633.5005872,-6.1807343999999995,0.5422392,0.0768096,0.0,0.0,0.0,0.0
11.879999999999999,634.3707912000001,-4.8795432000000005,0.4337304,0.4599432,0.0,0.0,0.0,0.0
11.899999999999999,635.1556512000001,-5.1508152,0.8132064000000001,1.9168872,0.0,0.0,0.0,0.0
11.92,635.8902192000002,-4.3376088,0.5422392,1.4569440000000002,0.0,0.0,0.0,0.0
11.94,636.6211296,-6.614769600000001,0.8674608,1.7635728,0.0,0.0,0.0,0.0
11.96,637.3642320000001,-4.6628304,0.2170176,0.30662880000000003,0.0,0.0,0.0,0.0
11.98,638.188716,-5.367528,0.9217152000000001,2.223516,0.0,0.0,0.0,0.0
12.0,638.9693088000001,-4.933797600000001,0.37947600000000004,0.3834384,0.0,0.0,0.0,0.0
12.02,639.7328328000001,-4.7170848,0.16276320000000002,0.9201912000000001,0.0,0.0,0.0,0.0
12.04,640.5823104000001,-4.1748456,1.030224,1.4569440000000002,0.0,0.0,0.0,0.0
12.059999999999999,641.2821312,-5.5302912,0.4337304,0.6135624,0.0,0.0,0.0,0.0
12.08,642.0322440000001,-4.7170848,0.9217152000000001,1.4569440000000002,0.0,0.0,0.0,0.0
12.1,642.8454504000001,-4.0663368,1.030224,1.8400776,0.0,0.0,0.0,0.0
12.120000000000001,643.5894672000001,-4.8252888,0.0542544,-0.0768096,0.0,0.0,0.0,0.0
12.14,644.3926152000001,-4.2291,0.9759696,1.9936968000000002,0.0,0.0,0.0,0.0
12.16,645.2177088000001,-4.933797600000001,0.7046976,0.3834384,0.0,0.0,0.0,0.0
12.18,646.1391192000001,-4.7713392,0.9759696,0.6900672,0.0,0.0,0.0,0.0
12.2,647.0145048,-5.1508152,1.1387328,1.6867632000000001,0.0,0.0,0.0,0.0
12.219999999999999,647.9264664,-5.6930544,0.5964936000000001,-0.30662880000000003,0.0,0.0,0.0,0.0
12.24,648.7536936000001,-5.367528,1.1387328,0.6900672,0.0,0.0,0.0,0.0
12.26,649.4782032000002,-4.012082400000001,1.1926824,1.4569440000000002,0.0,0.0,0.0,0.0
12.280000000000001,650.1850344000001,-3.8496240000000004,1.1387328,0.15331440000000002,0.0,0.0,0.0,0.0
12.3,650.9046672000001,-4.5000672,1.6806672000000002,0.30662880000000003,0.0,0.0,0.0,0.0
12.32,651.6944040000001,-5.367528,1.1387328,-0.6135624,0.0,0.0,0.0,0.0
12.34,652.5198024000001,-5.0423064,1.5724632,1.0735056,0.0,0.0,0.0,0.0
12.36,653.2565040000001,-4.8795432000000005,0.7589520000000001,-0.0768096,0.0,0.0,0.0,0.0
12.379999999999999,654.0166752000001,-4.608576,0.0542544,0.30662880000000003,0.0,0.0,0.0,0.0
12.399999999999999,654.7277736000001,-4.3915584,0.5964936000000001,-0.15331440000000002,0.0,0.0,0.0,0.0
12.419999999999998,655.3785216,-4.988052,0.8674608,-0.0768096,0.0,0.0,0.0,0.0
12.440000000000001,656.0253072000002,-4.7170848,0.37947600000000004,0.0,0.0,0.0,0.0,0.0
12.46,656.7863928,-4.554321600000001,0.650748,-0.23012400000000002,0.0,0.0,0.0,0.0
12.48,657.5782632,-5.476036800000001,0.9217152000000001,0.0,0.0,0.0,0.0,0.0
12.5,658.2405936000001,-6.1807343999999995,0.8674608,0.0768096,0.0,0.0,0.0,0.0
12.52,658.9861344000001,-4.2833544,0.5964936000000001,0.0768096,0.0,0.0,0.0,0.0
12.54,659.6585232,-5.1508152,-0.16276320000000002,-0.15331440000000002,0.0,0.0,0.0,0.0
12.559999999999999,660.2437392,-4.012082400000001,0.3252216,0.6135624,0.0,0.0,0.0,0.0
12.579999999999998,660.9155184000001,-4.3915584,0.9217152000000001,0.6900672,0.0,0.0,0.0,0.0
12.600000000000001,661.5031728,-3.957828,-0.0542544,0.0,0.0,0.0,0.0,0.0
12.620000000000001,662.1545304000001,-3.8496240000000004,0.37947600000000004,0.15331440000000002,0.0,0.0,0.0,0.0
12.64,662.9378664,-3.0361128,0.3252216,-0.23012400000000002,0.0,0.0,0.0,0.0
12.66,663.6337248000001,-3.6868608000000003,0.5422392,0.0,0.0,0.0,0.0,0.0
12.68,664.2667944000001,-4.012082400000001,0.1085088,0.0,0.0,0.0,0.0,0.0
12.7,664.9849032000001,-4.8252888,1.1387328,1.6867632000000001,0.0,0.0,0.0,0.0
12.719999999999999,665.5692048000001,-3.7411152,0.5964936000000001,-0.23012400000000002,0.0,0.0,0.0,0.0
12.739999999999998,666.134304,-5.205069600000001,0.0,0.6135624,0.0,0.0,0.0,0.0
12.760000000000002,666.7225680000001,-4.8795432000000005,0.5422392,0.15331440000000002,0.0,0.0,0.0,0.0
12.780000000000001,667.4287896000002,-2.9818584,-0.16276320000000002,-0.4599432,0.0,0.0,0.0,0.0
12.8,668.042352,-3.8496240000000004,1.3554456000000001,1.2268200000000002,0.0,0.0,0.0,0.0
12.82,668.6214720000002,-3.7953696000000003,-0.2170176,-0.4599432,0.0,0.0,0.0,0.0
12.84,669.2502744000001,-4.3915584,0.7046976,0.4599432,0.0,0.0,0.0,0.0
12.86,669.8184216000001,-4.554321600000001,-0.3252216,-0.6900672,0.0,0.0,0.0,0.0
12.879999999999999,670.439604,-5.205069600000001,1.1926824,0.9201912000000001,0.0,0.0,0.0,0.0
12.899999999999999,670.9903776000001,-3.957828,0.2709672,0.6135624,0.0,0.0,0.0,0.0
12.919999999999998,671.5155480000001,-3.3073848000000003,0.16276320000000002,-0.23012400000000002,0.0,0.0,0.0,0.0
12.940000000000001,672.0855240000001,-4.3915584,0.16276320000000002,0.0768096,0.0,0.0,0.0,0.0
12.96,672.6737880000001,-4.5000672,0.4879848,0.6900672,0.0,0.0,0.0,0.0
12.98,673.3038096,-3.8496240000000004,-0.2709672,0.0,0.0,0.0,0.0,0.0
13.0,673.832028,-2.6566368,0.37947600000000004,1.2268200000000002,0.0,0.0,0.0,0.0
13.02,674.4303504000002,-3.0903671999999998,-0.4879848,-0.0768096,0.0,0.0,0.0,0.0
13.04,674.9856960000001,-4.012082400000001,0.2170176,1.0735056,0.0,0.0,0.0,0.0
13.059999999999999,675.4663656000001,-3.6326064,0.5964936000000001,0.996696,0.0,0.0,0.0,0.0
13.079999999999998,675.9799536,-2.8736544000000004,-0.0542544,1.2268200000000002,0.0,0.0,0.0,0.0
13.100000000000001,676.5224976000002,-3.4158936000000004,-1.2469368,-0.23012400000000002,0.0,0.0,0.0,0.0
13.120000000000001,677.1159432000001,-2.4941784,-0.3252216,0.7668768,0.0,0.0,0.0,0.0
13.14,677.6764704,-3.0903671999999998,-0.4879848,0.7668768,0.0,0.0,0.0,0.0
13.16,678.1784760000002,-3.5240976,-0.0542544,0.8433816000000001,0.0,0.0,0.0,0.0
13.18,678.7045608000001,-4.6628304,0.0,0.30662880000000003,0.0,0.0,0.0,0.0
13.2,679.3735968000001,-3.1446216000000002,0.1085088,1.0735056,0.0,0.0,0.0,0.0
13.219999999999999,679.914312,-3.6868608000000003,-0.5422392,0.30662880000000003,0.0,0.0,0.0,0.0
13.239999999999998,680.55744,-3.6326064,-0.4879848,0.4599432,0.0,0.0,0.0,0.0
13.260000000000002,681.2270856000001,-3.9035736000000005,-0.1085088,1.5334488,0.0,0.0,0.0,0.0
13.280000000000001,681.7324440000001,-3.578352,-0.2170176,0.3834384,0.0,0.0,0.0,0.0
13.3,682.3063824000001,-4.012082400000001,-0.5422392,0.15331440000000002,0.0,0.0,0.0,0.0
13.32,682.8269808000001,-4.608576,-0.37947600000000004,0.30662880000000003,0.0,0.0,0.0,0.0
13.34,683.3612952000001,-3.4158936000000004,-0.7046976,0.0768096,0.0,0.0,0.0,0.0
13.36,683.8660440000001,-3.9035736000000005,-0.5422392,0.30662880000000003,0.0,0.0,0.0,0.0
13.379999999999999,684.3305592,-3.7411152,-0.16276320000000002,0.15331440000000002,0.0,0.0,0.0,0.0
13.399999999999999,684.8971824,-4.7170848,-0.2709672,0.15331440000000002,0.0,0.0,0.0,0.0
13.419999999999998,685.4756928,-3.1446216000000002,-0.5422392,0.7668768,0.0,0.0,0.0,0.0
13.440000000000001,685.9283208000002,-2.6566368,-0.37947600000000004,0.30662880000000003,0.0,0.0,0.0,0.0
13.46,686.5080504000001,-3.3073848000000003,-0.2709672,0.5367528,0.0,0.0,0.0,0.0
13.48,687.0396216,-3.957828,0.0542544,0.30662880000000003,0.0,0.0,0.0,0.0
13.5,687.5035272,-2.2229064000000003,-0.16276320000000002,-0.5367528,0.0,0.0,0.0,0.0
13.52,688.1237952000001,-0.5964936000000001,0.0542544,-1.3801344,0.0,0.0,0.0,0.0
13.54,688.5947112000001,-20.1149712,3.6326064,-157.03296000000003,0.0,0.0,0.0,0.0
13.559999999999999,690.1577256,-0.0542544,222.02394,-4.7539656,0.0,0.0,0.0,0.0
13.579999999999998,690.7572672000001,9.9218496,28.4646624,-2.3003256,0.0,0.0,0.0,0.0
13.600000000000001,691.2632352,18.5967624,18.488558400000002,-15.2585928,0.0,0.0,0.0,0.0
13.620000000000001,691.5771792,10.4098344,5.964021600000001,-9.047683200000002,0.0,0.0,0.0,0.0
13.64,691.8682632000001,-1.4097000000000002,4.6628304,-7.8976728000000005,0.0,0.0,0.0,0.0
13.66,692.0057280000001,-3.6326064,5.476036800000001,-4.907280000000001,0.0,0.0,0.0,0.0
13.68,692.2358520000001,-3.6868608000000003,6.1807343999999995,-1.9936968000000002,0.0,0.0,0.0,0.0
13.7,692.0502288000001,6.7229735999999995,1.5182088,-46.1592168,0.0,0.0,0.0,0.0
13.719999999999999,691.7545728,32.8562208,30.9042816,-18.8622432,0.0,0.0,0.0,0.0
13.739999999999998,691.6180224000001,9.217152,14.096695200000001,-14.185087200000002,0.0,0.0,0.0,0.0
13.760000000000002,691.5616344000001,4.445812800000001,12.686995200000002,-7.0542912,0.0,0.0,0.0,0.0
13.780000000000001,691.5509664,-83.65876080000001,124.9731816,-122.06843760000001,0.0,0.0,0.0,0.0
13.8,691.5311544000001,12.5787912,8.8919304,-11.3480088,0.0,0.0,0.0,0.0
13.82,691.4863488,-6.506260800000001,13.229234400000001,-10.657941600000001,0.0,0.0,0.0,0.0
13.84,691.2327552,-82.95406320000001,94.2313584,22.772827200000002,0.0,0.0,0.0,0.0
13.86,691.0209192000001,7.3194672,6.5605152,11.8082568,0.0,0.0,0.0,0.0
13.879999999999999,690.8039016,26.9464536,34.428684000000004,19.0158624,0.0,0.0,0.0,0.0
13.899999999999999,690.5990760000002,18.163032,54.16417920000001,23.6162088,0.0,0.0,0.0,0.0
13.919999999999998,690.3954696000001,16.9160952,45.109485600000006,24.996343200000002,0.0,0.0,0.0,0.0
13.940000000000001,690.3823632000001,15.018410400000002,24.1270536,28.2936696,0.0,0.0,0.0,0.0
13.96,690.6316896000002,17.5668432,29.494886400000002,30.8238144,0.0,0.0,0.0,0.0
13.98,691.4458104,21.4161624,28.030932000000004,34.9645224,0.0,0.0,0.0,0.0
14.0,692.9631048000001,17.1331128,35.8926384,42.5552616,0.0,0.0,0.0,0.0
14.02,694.9427808,13.554456,25.6995168,37.9546104,0.0,0.0,0.0,0.0
14.04,697.5777768,7.2652128,27.759660000000004,37.2645432,0.0,0.0,0.0,0.0
14.059999999999999,700.4133312,1.5724632,42.0191184,46.0824072,0.0,0.0,0.0,0.0
14.079999999999998,703.3641,3.5240976,21.199449600000005,38.4913632,0.0,0.0,0.0,0.0
14.100000000000001,705.9055224000001,4.608576,26.5127232,32.8175112,0.0,0.0,0.0,0.0
14.120000000000001,707.9531688000001,4.7170848,34.53719280000001,33.124140000000004,0.0,0.0,0.0,0.0
14.14,709.3817664000001,6.2892432000000005,18.7595256,29.5969944,0.0,0.0,0.0,0.0
14.16,709.9212624,12.0908064,49.609857600000005,31.5138816,0.0,0.0,0.0,0.0
14.18,709.5527592000001,24.3983256,71.35124160000001,30.5171856,0.0,0.0,0.0,0.0
14.2,708.6886512000001,14.476171200000001,23.801832,19.398996,0.0,0.0,0.0,0.0
14.219999999999999,707.6983560000001,11.277295200000001,29.711599200000002,21.469502400000003,0.0,0.0,0.0,0.0
14.239999999999998,706.8802728000001,3.6868608000000003,22.5548952,14.0317728,0.0,0.0,0.0,0.0
14.260000000000002,706.3084680000002,3.0361128,56.49559440000001,20.0125584,0.0,0.0,0.0,0.0
14.280000000000001,705.9594720000001,-1.2469368,33.8864448,7.591044000000001,0.0,0.0,0.0,0.0
14.3,705.9201528,-0.2709672,26.2960104,4.1404032,0.0,0.0,0.0,0.0
14.32,706.0780392,-6.5605152,27.5972016,1.5334488,0.0,0.0,0.0,0.0
14.34,706.2822552,-2.1143976,32.9104752,1.3801344,0.0,0.0,0.0,0.0
14.36,706.4590392,-1.1926824,52.70022480000001,-3.450336,0.0,0.0,0.0,0.0
14.379999999999999,706.7071464000002,-4.445812800000001,15.0726648,-9.4311216,0.0,0.0,0.0,0.0
14.399999999999999,707.1021672,-2.2771608000000003,14.855952000000002,-10.1979984,0.0,0.0,0.0,0.0
14.419999999999998,708.0022416,-3.6868608000000003,20.8199736,-16.0254696,0.0,0.0,0.0,0.0
14.440000000000001,709.4658912000001,-3.198876,10.681106400000001,-16.101974400000003,0.0,0.0,0.0,0.0
14.46,711.0636528,-3.0361128,2.3856696,-3.7572696000000003,0.0,0.0,0.0,0.0
14.48,712.6102080000001,-6.506260800000001,6.2892432000000005,5.4440328000000004,0.0,0.0,0.0,0.0
14.5,713.9491944,6.8314824000000005,-1.9519392,-8.357616,0.0,0.0,0.0,0.0
14.52,715.1897304000001,1.8976848000000002,1.6806672000000002,-2.9135831999999997,0.0,0.0,0.0,0.0
14.54,716.063592,8.6749128,-59.74842,-153.4293096,0.0,0.0,0.0,0.0
14.559999999999999,716.4058824,11.76528,45.7059792,10.121188800000002,0.0,0.0,0.0,0.0
