time,baro_altitude,accl_x,accl_y,accl_z,gps_altitude,gyro_roll,gyro_pitch,gyro_yaw
0.0,0.0,4.120591200000001,8.6749128,-2.6069544000000002,0.0,0.0,0.0,0.0
0.019999999999999574,0.026517599999999992,4.2291,8.6749128,-2.9903928,0.0,0.0,0.0,0.0
0.040000000000000036,-0.12283440000000001,4.5000672,8.5121496,-2.9135831999999997,0.0,0.0,0.0,0.0
0.05999999999999961,-0.10515600000000003,4.3915584,8.6206584,-2.8370784000000002,0.0,0.0,0.0,0.0
0.08000000000000007,0.12435839999999998,4.2833544,8.6206584,-3.0672024,0.0,0.0,0.0,0.0
0.09999999999999964,-0.003352800000000037,4.120591200000001,8.6749128,-3.1437072,0.0,0.0,0.0,0.0
0.1200000000000001,-0.0688848,4.0663368,8.837676,-2.4536400000000005,0.0,0.0,0.0,0.0
0.13999999999999968,-0.20055840000000003,4.3376088,8.4582,-2.8370784000000002,0.0,0.0,0.0,0.0
0.16000000000000014,-0.35356800000000005,4.445812800000001,8.4582,-3.0672024,0.0,0.0,0.0,0.0
0.17999999999999972,-0.30632400000000004,4.2291,8.7834216,-2.5304496,0.0,0.0,0.0,0.0
0.20000000000000018,-0.40355520000000006,4.120591200000001,8.7834216,-2.683764,0.0,0.0,0.0,0.0
0.21999999999999975,-0.5099304,4.120591200000001,8.7834216,-2.3768304000000002,0.0,0.0,0.0,0.0
0.2400000000000002,-0.43190160000000005,4.3376088,8.6749128,-2.4536400000000005,0.0,0.0,0.0,0.0
0.2599999999999998,-0.35387280000000004,4.5000672,8.5121496,-2.6069544000000002,0.0,0.0,0.0,0.0
0.28000000000000025,-0.2825496,4.608576,8.729167200000001,-2.5304496,0.0,0.0,0.0,0.0
0.2999999999999998,-0.19537680000000002,4.2291,8.7834216,-2.223516,0.0,0.0,0.0,0.0
0.3200000000000003,-0.2795016,4.2291,8.7834216,-2.3003256,0.0,0.0,0.0,0.0
0.33999999999999986,-0.2846832,4.608576,8.5121496,-2.683764,0.0,0.0,0.0,0.0
0.3600000000000003,-0.19385280000000002,4.608576,8.5121496,-2.4536400000000005,0.0,0.0,0.0,0.0
0.3799999999999999,-0.05760720000000002,4.5000672,8.6206584,-2.9135831999999997,0.0,0.0,0.0,0.0
0.40000000000000036,0.10149839999999999,4.5000672,8.5121496,-2.8370784000000002,0.0,0.0,0.0,0.0
0.41999999999999993,0.28133040000000004,4.3915584,8.5121496,-2.9903928,0.0,0.0,0.0,0.0
0.4400000000000004,0.3218688,4.445812800000001,8.4582,-3.2205168000000004,0.0,0.0,0.0,0.0
0.45999999999999996,0.34076639999999997,4.2833544,8.5121496,-3.3738312000000006,0.0,0.0,0.0,0.0
0.4800000000000004,0.310896,4.1748456,8.6206584,-2.8370784000000002,0.0,0.0,0.0,0.0
0.5,0.17373600000000003,4.2833544,8.5121496,-3.2970216000000003,0.0,0.0,0.0,0.0
0.52,0.2959608,4.1748456,8.6206584,-3.1437072,0.0,0.0,0.0,0.0
0.54,0.23591520000000002,4.1748456,8.6206584,-3.2205168000000004,0.0,0.0,0.0,0.0
0.56,0.3355848,4.012082400000001,8.8919304,-2.683764,0.0,0.0,0.0,0.0
0.5800000000000001,0.23621999999999999,3.957828,8.94588,-2.4536400000000005,0.0,0.0,0.0,0.0
0.6000000000000001,0.1389888,4.012082400000001,8.6749128,-2.7602688,0.0,0.0,0.0,0.0
0.6200000000000001,0.32552640000000005,3.8496240000000004,9.0543888,-2.3768304000000002,0.0,0.0,0.0,0.0
0.6400000000000001,0.3630168,4.0663368,8.837676,-2.683764,0.0,0.0,0.0,0.0
0.6600000000000001,0.47640240000000006,4.2291,8.8919304,-2.1470112,0.0,0.0,0.0,0.0
0.6800000000000002,0.4203192,4.2833544,8.729167200000001,-2.3768304000000002,0.0,0.0,0.0,0.0
0.7000000000000002,0.39502079999999995,4.3915584,8.6206584,-2.9135831999999997,0.0,0.0,0.0,0.0
0.7200000000000002,0.45415199999999994,4.2833544,8.729167200000001,-2.5304496,0.0,0.0,0.0,0.0
0.7400000000000002,0.306324,4.445812800000001,8.6749128,-2.7602688,0.0,0.0,0.0,0.0
0.7599999999999998,0.382524,4.5000672,8.5121496,-2.8370784000000002,0.0,0.0,0.0,0.0
0.7799999999999998,0.29900879999999996,4.3915584,8.5121496,-2.6069544000000002,0.0,0.0,0.0,0.0
0.7999999999999998,0.26121359999999993,4.7713392,8.241182400000001,-3.2205168000000004,0.0,0.0,0.0,0.0
0.8199999999999998,0.19964400000000002,4.554321600000001,8.4582,-2.9903928,0.0,0.0,0.0,0.0
0.8399999999999999,-0.00975360000000001,4.608576,8.4039456,-2.8370784000000002,0.0,0.0,0.0,0.0
0.8599999999999999,-0.01554479999999998,4.5000672,8.4039456,-3.2205168000000004,0.0,0.0,0.0,0.0
0.8799999999999999,0.02468879999999999,4.3376088,8.6749128,-2.8370784000000002,0.0,0.0,0.0,0.0
0.8999999999999999,0.16764,4.445812800000001,8.566404,-2.9903928,0.0,0.0,0.0,0.0
0.9199999999999999,0.23317200000000005,4.2833544,8.6206584,-2.9135831999999997,0.0,0.0,0.0,0.0
0.94,0.22585680000000005,4.0663368,8.837676,-2.6069544000000002,0.0,0.0,0.0,0.0
0.96,0.20299679999999998,4.120591200000001,8.7834216,-2.8370784000000002,0.0,0.0,0.0,0.0
0.98,0.37764719999999996,3.957828,8.94588,-2.5304496,0.0,0.0,0.0,0.0
1.0,0.2048256,4.012082400000001,8.8919304,-2.6069544000000002,0.0,0.0,0.0,0.0
1.02,0.19507199999999997,3.957828,8.94588,-2.5304496,0.0,0.0,0.0,0.0
1.04,0.2938272,3.957828,8.94588,-2.3768304000000002,0.0,0.0,0.0,0.0
1.06,0.306324,4.2291,8.7834216,-2.683764,0.0,0.0,0.0,0.0
1.08,0.3285744,4.3376088,8.6749128,-2.5304496,0.0,0.0,0.0,0.0
1.1,0.4139184000000001,4.3376088,8.6749128,-2.683764,0.0,0.0,0.0,0.0
1.12,0.21336,4.3915584,8.6206584,-2.683764,0.0,0.0,0.0,0.0
1.1400000000000001,0.1972056,4.3376088,8.6749128,-2.8370784000000002,0.0,0.0,0.0,0.0
1.1600000000000001,0.00457199999999997,4.608576,8.4039456,-3.0672024,0.0,0.0,0.0,0.0
1.1800000000000002,0.013715999999999978,4.554321600000001,8.3496912,-2.9135831999999997,0.0,0.0,0.0,0.0
1.2000000000000002,-0.016154399999999982,4.7170848,8.4039456,-2.7602688,0.0,0.0,0.0,0.0
1.2200000000000002,-0.1514856,4.554321600000001,8.3496912,-2.8370784000000002,0.0,0.0,0.0,0.0
1.2400000000000002,-0.037795200000000036,4.5000672,8.5121496,-2.9903928,0.0,0.0,0.0,0.0
1.2599999999999998,-0.0755904,4.445812800000001,8.566404,-2.9903928,0.0,0.0,0.0,0.0
1.2799999999999998,0.1033272,4.5000672,8.5121496,-2.9903928,0.0,0.0,0.0,0.0
1.2999999999999998,0.0015239999999999677,4.3915584,8.5121496,-3.1437072,0.0,0.0,0.0,0.0
1.3199999999999998,0.11399519999999998,4.3376088,8.6749128,-2.9903928,0.0,0.0,0.0,0.0
1.3399999999999999,-0.04297680000000001,4.120591200000001,8.7834216,-2.6069544000000002,0.0,0.0,0.0,0.0
1.3599999999999999,-0.07284720000000003,4.120591200000001,8.6749128,-2.7602688,0.0,0.0,0.0,0.0
1.38,-0.1581912,3.957828,9.0543888,-2.5304496,0.0,0.0,0.0,0.0
1.4,-0.1984248,3.957828,8.94588,-2.5304496,0.0,0.0,0.0,0.0
1.42,-0.29535120000000004,4.012082400000001,9.0001344,-2.5304496,0.0,0.0,0.0,0.0
1.44,-0.17922240000000003,4.120591200000001,8.8919304,-2.4536400000000005,0.0,0.0,0.0,0.0
1.46,-0.11643360000000001,4.0663368,8.94588,-2.5304496,0.0,0.0,0.0,0.0
1.48,-0.1520952,4.1748456,8.837676,-2.5304496,0.0,0.0,0.0,0.0
1.5,0.06431279999999996,4.3915584,8.729167200000001,-2.3768304000000002,0.0,0.0,0.0,0.0
1.52,0.010667999999999976,4.554321600000001,8.566404,-2.6069544000000002,0.0,0.0,0.0,0.0
1.54,-0.028955999999999992,4.5000672,8.6206584,-2.6069544000000002,0.0,0.0,0.0,0.0
1.56,-0.039319200000000006,4.5000672,8.6206584,-2.5304496,0.0,0.0,0.0,0.0
1.58,-0.17434560000000002,4.6628304,8.3496912,-2.9135831999999997,0.0,0.0,0.0,0.0
1.6,-0.024993600000000022,4.608576,8.5121496,-2.7602688,0.0,0.0,0.0,0.0
1.62,-0.05090160000000001,4.608576,8.4039456,-3.2205168000000004,0.0,0.0,0.0,0.0
1.6400000000000001,-0.1475232,4.6628304,8.3496912,-3.0672024,0.0,0.0,0.0,0.0
1.6600000000000001,-0.27432,4.5000672,8.5121496,-3.1437072,0.0,0.0,0.0,0.0
1.6800000000000002,-0.24140160000000002,4.3376088,8.6749128,-2.9135831999999997,0.0,0.0,0.0,0.0
1.7000000000000002,-0.37520880000000006,4.1748456,8.729167200000001,-2.9903928,0.0,0.0,0.0,0.0
1.7200000000000002,-0.28102560000000004,4.1748456,8.6206584,-3.0672024,0.0,0.0,0.0,0.0
1.7400000000000002,-0.192024,4.1748456,8.729167200000001,-2.7602688,0.0,0.0,0.0,0.0
1.7599999999999998,-0.2874264,4.2833544,8.729167200000001,-2.7602688,0.0,0.0,0.0,0.0
1.7799999999999998,-0.36576000000000003,3.8496240000000004,8.94588,-2.5304496,0.0,0.0,0.0,0.0
1.7999999999999998,-0.3681984,4.0663368,8.94588,-2.7602688,0.0,0.0,0.0,0.0
1.8199999999999998,-0.5093208,4.012082400000001,9.0001344,-2.3768304000000002,0.0,0.0,0.0,0.0
1.8399999999999999,-0.5416296,4.1748456,8.94588,-2.3003256,0.0,0.0,0.0,0.0
1.8599999999999999,-0.4337304,4.2291,8.7834216,-2.3768304000000002,0.0,0.0,0.0,0.0
1.88,-0.46024800000000005,4.3376088,8.6749128,-2.4536400000000005,0.0,0.0,0.0,0.0
1.9,-0.3435096,4.5000672,8.6206584,-2.5304496,0.0,0.0,0.0,0.0
1.92,-0.3828288,4.3376088,8.6749128,-2.4536400000000005,0.0,0.0,0.0,0.0
1.94,-0.47884080000000007,4.5000672,8.6206584,-2.683764,0.0,0.0,0.0,0.0
1.96,-0.5574792000000001,4.5000672,8.5121496,-2.7602688,0.0,0.0,0.0,0.0
1.98,-0.448056,4.608576,8.4039456,-2.9135831999999997,0.0,0.0,0.0,0.0
2.0,-0.6105144,4.7170848,8.4039456,-3.0672024,0.0,0.0,0.0,0.0
2.02,-0.6699504000000001,4.7170848,8.4039456,-2.9135831999999997,0.0,0.0,0.0,0.0
2.04,-0.48310800000000004,4.445812800000001,8.4582,-2.9135831999999997,0.0,0.0,0.0,0.0
2.06,-0.515112,4.2833544,8.5121496,-3.2205168000000004,0.0,0.0,0.0,0.0
2.08,-0.4974336000000001,4.0663368,8.837676,-2.7602688,0.0,0.0,0.0,0.0
2.1,-0.374904,4.0663368,8.729167200000001,-2.683764,0.0,0.0,0.0,0.0
2.12,-0.45201840000000004,4.0663368,8.729167200000001,-2.9903928,0.0,0.0,0.0,0.0
2.14,-0.4306824,4.1748456,8.729167200000001,-2.8370784000000002,0.0,0.0,0.0,0.0
2.16,-0.3313176,4.120591200000001,8.8919304,-2.5304496,0.0,0.0,0.0,0.0
2.18,-0.37216080000000007,4.0663368,8.837676,-2.683764,0.0,0.0,0.0,0.0
2.2,-0.34259520000000004,3.9035736000000005,9.0001344,-2.5304496,0.0,0.0,0.0,0.0
2.22,-0.28437840000000003,3.8496240000000004,8.94588,-2.4536400000000005,0.0,0.0,0.0,0.0
2.24,-0.2798064,4.1748456,8.729167200000001,-2.4536400000000005,0.0,0.0,0.0,0.0
2.26,-0.2337816,4.445812800000001,8.6749128,-2.4536400000000005,0.0,0.0,0.0,0.0
2.28,-0.257556,4.7713392,8.3496912,-2.8370784000000002,0.0,0.0,0.0,0.0
2.3,-0.19263360000000002,4.3376088,8.566404,-2.6069544000000002,0.0,0.0,0.0,0.0
2.32,-0.21061680000000002,4.2833544,8.6206584,-2.683764,0.0,0.0,0.0,0.0
2.34,-0.1731264,4.5000672,8.6206584,-2.9135831999999997,0.0,0.0,0.0,0.0
2.36,-0.23042880000000002,4.7170848,8.4039456,-2.7602688,0.0,0.0,0.0,0.0
2.38,-0.3590544,4.7713392,8.3496912,-2.683764,0.0,0.0,0.0,0.0
2.4,-0.45628560000000007,4.7170848,8.295436800000001,-2.9135831999999997,0.0,0.0,0.0,0.0
2.42,-0.37703760000000003,4.608576,8.4039456,-3.1437072,0.0,0.0,0.0,0.0
2.44,-0.33528,4.2833544,8.6206584,-2.9903928,0.0,0.0,0.0,0.0
2.46,-0.24627840000000004,4.1748456,8.6206584,-2.9903928,0.0,0.0,0.0,0.0
2.48,-0.3252216,4.2291,8.6749128,-2.9135831999999997,0.0,0.0,0.0,0.0
2.5,-0.32278320000000005,4.2291,8.6749128,-2.9903928,0.0,0.0,0.0,0.0
2.52,-0.254508,4.2833544,8.729167200000001,-2.9135831999999997,0.0,0.0,0.0,0.0
2.54,-0.09387840000000001,4.012082400000001,8.8919304,-2.683764,0.0,0.0,0.0,0.0
2.56,-0.29535120000000004,3.7411152,9.0543888,-2.3768304000000002,0.0,0.0,0.0,0.0
2.58,-0.27432,3.7411152,9.0543888,-2.4536400000000005,0.0,0.0,0.0,0.0
2.6,-0.30083760000000004,4.012082400000001,8.7834216,-2.5304496,0.0,0.0,0.0,0.0
2.62,-0.20970240000000004,4.2291,8.6749128,-2.3768304000000002,0.0,0.0,0.0,0.0
2.6399999999999997,-0.20299680000000003,4.554321600000001,8.566404,-2.683764,0.0,0.0,0.0,0.0
2.66,-0.3441192,4.2833544,8.729167200000001,-2.4536400000000005,0.0,0.0,0.0,0.0
2.6799999999999997,-0.4818888,4.1748456,8.837676,-2.3768304000000002,0.0,0.0,0.0,0.0
2.7,-0.6013704000000001,4.3376088,8.6749128,-2.6069544000000002,0.0,0.0,0.0,0.0
2.7199999999999998,-0.4809744,4.8795432000000005,8.3496912,-2.7602688,0.0,0.0,0.0,0.0
2.74,-0.33345120000000006,4.7170848,8.4039456,-2.9135831999999997,0.0,0.0,0.0,0.0
2.76,-0.3633216,4.7170848,8.5121496,-2.683764,0.0,0.0,0.0,0.0
2.7800000000000002,-0.29718000000000006,4.554321600000001,8.4582,-3.0672024,0.0,0.0,0.0,0.0
2.8,-0.23195280000000001,4.554321600000001,8.3496912,-2.9903928,0.0,0.0,0.0,0.0
2.8200000000000003,-0.18989040000000001,4.554321600000001,8.4582,-3.0672024,0.0,0.0,0.0,0.0
2.84,0.053949600000000014,4.3915584,8.5121496,-3.1437072,0.0,0.0,0.0,0.0
2.8600000000000003,0.035052,4.2833544,8.6206584,-2.9135831999999997,0.0,0.0,0.0,0.0
2.88,0.050596799999999977,4.1748456,8.6206584,-3.1437072,0.0,0.0,0.0,0.0
2.9,0.08138159999999997,4.1748456,8.729167200000001,-2.9135831999999997,0.0,0.0,0.0,0.0
2.92,0.1929384,4.0663368,8.729167200000001,-2.9903928,0.0,0.0,0.0,0.0
2.94,0.17434560000000002,4.0663368,8.837676,-2.7602688,0.0,0.0,0.0,0.0
2.96,0.10302239999999996,3.9035736000000005,8.8919304,-2.6069544000000002,0.0,0.0,0.0,0.0
2.98,-0.16977360000000002,3.957828,8.94588,-2.6069544000000002,0.0,0.0,0.0,0.0
3.0,-0.1527048,3.957828,8.94588,-2.4536400000000005,0.0,0.0,0.0,0.0
3.02,-0.20513040000000002,4.1748456,8.837676,-2.3768304000000002,0.0,0.0,0.0,0.0
3.04,-0.2715768,4.3376088,8.6749128,-2.5304496,0.0,0.0,0.0,0.0
3.06,-0.45994320000000005,4.445812800000001,8.6749128,-2.4536400000000005,0.0,0.0,0.0,0.0
3.08,-0.4864608,4.6628304,8.4582,-2.6069544000000002,0.0,0.0,0.0,0.0
3.1,-0.42854880000000006,4.5000672,8.6206584,-2.683764,0.0,0.0,0.0,0.0
3.12,-0.33710880000000004,4.554321600000001,8.4582,-2.6069544000000002,0.0,0.0,0.0,0.0
3.1399999999999997,-0.4587240000000001,4.7713392,8.4582,-2.683764,0.0,0.0,0.0,0.0
3.16,-0.21457920000000003,4.6628304,8.3496912,-2.8370784000000002,0.0,0.0,0.0,0.0
3.1799999999999997,-0.3675888,4.608576,8.4039456,-2.9903928,0.0,0.0,0.0,0.0
3.2,-0.41148000000000007,4.5000672,8.5121496,-3.1437072,0.0,0.0,0.0,0.0
3.2199999999999998,-0.34899600000000003,4.3915584,8.5121496,-3.1437072,0.0,0.0,0.0,0.0
3.24,-0.20391120000000001,4.3376088,8.566404,-3.0672024,0.0,0.0,0.0,0.0
3.26,-0.3913632,4.1748456,8.6206584,-2.9135831999999997,0.0,0.0,0.0,0.0
3.2800000000000002,-0.34290000000000004,4.0663368,8.729167200000001,-2.9135831999999997,0.0,0.0,0.0,0.0
3.3,-0.023774400000000022,4.012082400000001,8.7834216,-2.9903928,0.0,0.0,0.0,0.0
3.3200000000000003,0.049072800000000014,3.8496240000000004,8.94588,-2.683764,0.0,0.0,0.0,0.0
3.34,0.13136880000000004,3.8496240000000004,8.837676,-2.7602688,0.0,0.0,0.0,0.0
3.3600000000000003,-0.015849600000000016,3.8496240000000004,8.94588,-2.6069544000000002,0.0,0.0,0.0,0.0
3.38,0.037185599999999965,3.9035736000000005,9.0001344,-2.683764,0.0,0.0,0.0,0.0
3.4,0.03108959999999996,4.0663368,8.94588,-2.3768304000000002,0.0,0.0,0.0,0.0
3.42,0.10850879999999996,4.012082400000001,7.6989432,-2.3768304000000002,0.0,0.0,0.0,0.0
3.44,0.09326880000000003,4.554321600000001,9.217152,-2.9135831999999997,0.0,0.0,0.0,0.0
3.46,0.0652272,4.7713392,9.217152,-2.5304496,0.0,0.0,0.0,0.0
3.48,0.08016239999999997,4.445812800000001,8.3496912,-2.9903928,0.0,0.0,0.0,0.0
3.5,0.13075920000000002,4.608576,8.186928,-2.5304496,0.0,0.0,0.0,0.0
3.52,0.026517599999999992,4.8252888,8.6206584,-2.9903928,0.0,0.0,0.0,0.0
3.54,-0.10180320000000002,4.6628304,8.6749128,-2.4536400000000005,0.0,0.0,0.0,0.0
3.56,0.07772399999999997,4.554321600000001,8.241182400000001,-2.9903928,0.0,0.0,0.0,0.0
3.58,-0.06035039999999999,4.554321600000001,8.6749128,-2.683764,0.0,0.0,0.0,0.0
3.6,0.07284719999999997,4.3915584,8.186928,-3.2205168000000004,0.0,0.0,0.0,0.0
3.62,0.02346959999999999,3.9035736000000005,7.4822304,-3.7572696000000003,0.0,0.0,0.0,0.0
3.64,-0.05334000000000002,4.2833544,8.729167200000001,-2.9903928,0.0,0.0,0.0,0.0
3.66,-0.1167384,4.012082400000001,8.6749128,-2.8370784000000002,0.0,0.0,0.0,0.0
3.68,-0.13746480000000003,4.0663368,9.0543888,-3.0672024,0.0,0.0,0.0,0.0
3.7,-0.21488400000000002,4.0663368,9.0543888,-2.8370784000000002,0.0,0.0,0.0,0.0
3.7199999999999998,-0.14203680000000002,3.8496240000000004,8.729167200000001,-2.4536400000000005,0.0,0.0,0.0,0.0
3.74,-0.192024,4.2291,8.8919304,-2.683764,0.0,0.0,0.0,0.0
3.76,-0.14295120000000003,4.0663368,8.94588,-2.6069544000000002,0.0,0.0,0.0,0.0
3.7800000000000002,-0.277368,4.2291,9.0001344,-2.0702016,0.0,0.0,0.0,0.0
3.8,-0.2776728,4.3915584,8.837676,-2.6069544000000002,0.0,0.0,0.0,0.0
3.82,-0.2776728,4.2291,8.566404,-2.4536400000000005,0.0,0.0,0.0,0.0
3.84,-0.22128480000000003,4.3915584,8.6206584,-2.3768304000000002,0.0,0.0,0.0,0.0
3.86,-0.2572512,4.554321600000001,8.4582,-2.683764,0.0,0.0,0.0,0.0
3.88,-0.13289280000000003,4.5000672,8.4039456,-2.5304496,0.0,0.0,0.0,0.0
3.9,-0.12222480000000001,4.554321600000001,8.1326736,-2.7602688,0.0,0.0,0.0,0.0
3.92,-0.2682240000000001,4.8252888,8.295436800000001,-2.9903928,0.0,0.0,0.0,0.0
3.94,-0.32247840000000005,4.7713392,8.3496912,-2.9903928,0.0,0.0,0.0,0.0
3.96,-0.13898880000000002,4.554321600000001,8.241182400000001,-2.9903928,0.0,0.0,0.0,0.0
3.98,-0.20299680000000003,4.554321600000001,8.6749128,-3.1437072,0.0,0.0,0.0,0.0
4.0,-0.18013680000000004,4.5000672,8.4039456,-3.2970216000000003,0.0,0.0,0.0,0.0
4.02,-0.25908000000000003,4.1748456,8.295436800000001,-2.9903928,0.0,0.0,0.0,0.0
4.04,-0.204216,3.6868608000000003,8.4582,-3.2205168000000004,0.0,0.0,0.0,0.0
4.06,-0.384048,4.0663368,8.729167200000001,-2.9135831999999997,0.0,0.0,0.0,0.0
4.08,-0.46542960000000005,4.0663368,8.729167200000001,-2.9903928,0.0,0.0,0.0,0.0
4.1,-0.49621440000000006,4.2291,9.0001344,-2.683764,0.0,0.0,0.0,0.0
4.12,-0.3755136,3.9035736000000005,8.7834216,-2.683764,0.0,0.0,0.0,0.0
4.14,-0.5175504,4.120591200000001,8.7834216,-2.6069544000000002,0.0,0.0,0.0,0.0
4.16,-0.5001768,4.1748456,9.0543888,-2.223516,0.0,0.0,0.0,0.0
4.18,-0.6120384,4.445812800000001,9.3256608,-1.9936968000000002,0.0,0.0,0.0,0.0
4.2,-0.6620256000000001,4.1748456,8.4039456,-2.683764,0.0,0.0,0.0,0.0
4.22,-0.5931408000000001,4.3915584,8.5121496,-2.683764,0.0,0.0,0.0,0.0
4.24,-0.6117336000000001,4.554321600000001,8.3496912,-2.5304496,0.0,0.0,0.0,0.0
4.26,-0.569976,4.554321600000001,8.566404,-2.5304496,0.0,0.0,0.0,0.0
4.28,-0.6687312,4.8252888,8.5121496,-2.4536400000000005,0.0,0.0,0.0,0.0
4.3,-0.6352032000000001,4.7713392,8.241182400000001,-3.0672024,0.0,0.0,0.0,0.0
4.32,-0.6845808,4.7713392,8.566404,-2.7602688,0.0,0.0,0.0,0.0
4.34,-0.7568184000000001,4.608576,8.5121496,-2.9135831999999997,0.0,0.0,0.0,0.0
4.36,-0.8942832000000001,4.554321600000001,8.1326736,-3.2970216000000003,0.0,0.0,0.0,0.0
4.38,-0.9637776,4.554321600000001,8.6749128,-2.8370784000000002,0.0,0.0,0.0,0.0
4.4,-1.1274552,4.5000672,8.295436800000001,-3.1437072,0.0,0.0,0.0,0.0
4.42,-1.1759184,4.2291,8.6749128,-3.2205168000000004,0.0,0.0,0.0,0.0
4.44,-1.0366248000000002,4.120591200000001,8.8919304,-2.683764,0.0,0.0,0.0,0.0
4.46,-1.0472928000000001,3.8496240000000004,8.94588,-3.2205168000000004,0.0,0.0,0.0,0.0
4.48,-1.2079224000000002,4.3915584,8.94588,-2.7602688,0.0,0.0,0.0,0.0
4.5,-1.3219176,3.6868608000000003,9.217152,-2.5304496,0.0,0.0,0.0,0.0
4.52,-1.2387072000000001,4.608576,9.813645600000001,-1.8400776,0.0,0.0,0.0,0.0
4.54,-1.077468,4.5000672,8.6206584,-2.223516,0.0,0.0,0.0,0.0
4.56,-1.1676888,4.5000672,7.5364848,-4.984089600000001,0.0,0.0,0.0,0.0
4.58,-1.1426952000000001,20.494447200000003,0.8674608,-16.5622224,0.0,0.0,0.0,0.0
4.6,-1.8260568,52.862988,59.0437224,1.3801344,0.0,0.0,0.0,0.0
4.62,-2.4073104,-16.2653472,138.581892,-11.04138,0.0,0.0,0.0,0.0
4.64,-2.763012,55.57387920000001,106.1051472,-27.066849600000005,0.0,0.0,0.0,0.0
4.66,-2.4262080000000004,37.7900184,98.8399344,-18.4023,0.0,0.0,0.0,0.0
4.68,-1.9586448,45.9229968,78.453996,-42.5552616,0.0,0.0,0.0,0.0
4.7,-1.4660880000000003,39.633448800000004,98.73142560000001,-31.8205104,0.0,0.0,0.0,0.0
4.72,-0.620268,40.44696,90.8697192,-46.0059024,0.0,0.0,0.0,0.0
4.74,-0.015240000000000014,50.043588,83.442048,-31.667196,0.0,0.0,0.0,0.0
4.76,0.4044696,41.043148800000004,85.1769696,-39.488364000000004,0.0,0.0,0.0,0.0
4.78,0.8781287999999999,39.9589752,90.81576960000001,-40.8684984,0.0,0.0,0.0,0.0
4.8,1.6178784,42.88657920000001,85.61070000000001,-39.1814304,0.0,0.0,0.0,0.0
4.82,2.2497288,42.5613576,87.779352,-38.4148584,0.0,0.0,0.0,0.0
4.84,2.9577791999999996,43.7000904,85.6649544,-37.3413528,0.0,0.0,0.0,0.0
4.86,3.5061144000000004,43.37456400000001,90.21927600000001,-40.331745600000005,0.0,0.0,0.0,0.0
4.88,4.4345352,45.9772512,93.14688000000001,-40.638374400000004,0.0,0.0,0.0,0.0
4.9,5.2004976,41.043148800000004,91.46621280000001,-39.7949928,0.0,0.0,0.0,0.0
4.92,6.067044000000001,45.055536000000004,88.7553216,-44.16552,0.0,0.0,0.0,0.0
4.94,6.5937384,48.14590320000001,89.460324,-42.4019472,0.0,0.0,0.0,0.0
4.96,7.4179176,39.9589752,87.3456216,-45.4691496,0.0,0.0,0.0,0.0
4.98,8.211312000000001,42.8323248,84.7974936,-45.392340000000004,0.0,0.0,0.0,0.0
5.0,8.9858088,41.91060960000001,87.5626392,-44.088710400000004,0.0,0.0,0.0,0.0
5.02,10.123932000000002,38.765988,95.26158240000001,-45.7757784,0.0,0.0,0.0,0.0
5.04,11.128248000000003,39.9047208,90.54449760000001,-47.1559128,0.0,0.0,0.0,0.0
5.0600000000000005,12.377013600000003,36.922557600000005,98.62322160000001,-43.01550960000001,0.0,0.0,0.0,0.0
5.08,13.935760800000002,35.512857600000004,90.7072608,-44.3188344,0.0,0.0,0.0,0.0
5.1,15.538399200000002,36.2721144,91.46621280000001,-43.7055768,0.0,0.0,0.0,0.0
5.12,17.2830744,36.7600992,92.2794192,-43.168824,0.0,0.0,0.0,0.0
5.14,18.961912800000004,37.1938296,92.387928,-42.3254424,0.0,0.0,0.0,0.0
5.16,20.386243200000003,37.6818144,90.2735304,-44.0122056,0.0,0.0,0.0,0.0
5.18,21.748089600000004,37.7900184,84.5262216,-46.0824072,0.0,0.0,0.0,0.0
5.2,22.630790400000002,37.4647968,87.1289088,-42.785385600000005,0.0,0.0,0.0,0.0
5.22,23.216616000000002,37.410542400000004,89.24330640000001,-43.7820816,0.0,0.0,0.0,0.0
5.24,23.764951200000002,40.6094184,89.83980000000001,-44.3188344,0.0,0.0,0.0,0.0
5.26,24.640336800000004,38.9287512,88.26733680000001,-47.46254160000001,0.0,0.0,0.0,0.0
5.28,25.865023200000003,38.2780032,88.050624,-48.91948560000001,0.0,0.0,0.0,0.0
5.3,27.386889600000003,35.187636,89.08054320000001,-51.143001600000005,0.0,0.0,0.0,0.0
5.32,29.3622984,35.3503992,91.95419760000001,-51.143001600000005,0.0,0.0,0.0,0.0
5.34,31.642507200000004,36.1093512,97.5929976,-44.47214880000001,0.0,0.0,0.0,0.0
5.36,34.018728,32.0972688,92.93016720000001,-52.3698216,0.0,0.0,0.0,0.0
5.38,36.4254288,32.1515232,92.008452,-50.6062488,0.0,0.0,0.0,0.0
5.4,38.782142400000005,31.446520800000002,92.60494560000001,-51.6032496,0.0,0.0,0.0,0.0
5.42,40.9776168,34.2116664,92.76740400000001,-49.3794288,0.0,0.0,0.0,0.0
5.4399999999999995,43.0051464,37.6818144,90.1650216,-51.756564000000004,0.0,0.0,0.0,0.0
5.46,45.121068,34.3201752,89.7312912,-58.503921600000005,0.0,0.0,0.0,0.0
5.48,47.2016328,30.091075200000002,85.61070000000001,-60.727742400000004,0.0,0.0,0.0,0.0
5.5,49.6293648,34.2659208,87.29136720000001,-69.698616,0.0,0.0,0.0,0.0
5.52,52.117751999999996,33.452714400000005,83.65876080000001,-63.411201600000005,0.0,0.0,0.0,0.0
5.54,54.8710104,33.5069688,81.652872,-64.024764,0.0,0.0,0.0,0.0
5.5600000000000005,57.6245736,27.5972016,81.1648872,-66.478404,0.0,0.0,0.0,0.0
5.58,60.1489272,24.018849600000003,82.1408568,-66.09496560000001,0.0,0.0,0.0,0.0
5.6,62.494972800000006,31.0670448,75.3090696,-71.2323696,0.0,0.0,0.0,0.0
5.62,64.7712192,27.054962400000004,75.2008656,-71.9224368,0.0,0.0,0.0,0.0
5.64,66.88561680000001,22.5548952,71.8934808,-74.9893344,0.0,0.0,0.0,0.0
5.66,69.3316368,3.6868608000000003,74.3873544,-84.0370176,0.0,0.0,0.0,0.0
5.68,71.83861680000001,24.3983256,70.0500504,-81.12343440000001,0.0,0.0,0.0,0.0
5.7,74.2392216,24.9945144,70.2128136,-80.2032432,0.0,0.0,0.0,0.0
5.72,76.463652,21.7956384,68.20662,-79.35986160000002,0.0,0.0,0.0,0.0
5.74,78.70911360000001,23.6390688,63.1100592,-82.19694000000001,0.0,0.0,0.0,0.0
5.76,80.78266800000002,19.572732000000002,61.9716312,-85.647276,0.0,0.0,0.0,0.0
5.78,82.99978320000001,20.765719200000003,62.730583200000005,-86.9509056,0.0,0.0,0.0,0.0
5.8,85.30833840000001,22.6630992,61.26662880000001,-84.88070400000001,0.0,0.0,0.0,0.0
5.82,87.7479576,12.3075192,61.429392,-86.107524,0.0,0.0,0.0,0.0
5.84,90.2454888,19.464223200000003,66.9596832,-88.8677928,0.0,0.0,0.0,0.0
5.86,92.73021840000001,25.0487688,67.2306504,-86.41415280000001,0.0,0.0,0.0,0.0
5.88,95.2426848,21.361908,63.6522984,-87.8710968,0.0,0.0,0.0,0.0
5.9,97.7365584,24.8863104,59.5859616,-90.2479272,0.0,0.0,0.0,0.0
5.92,100.3413792,12.416028,57.6340224,-91.70487120000001,0.0,0.0,0.0,0.0
5.9399999999999995,103.07970240000002,16.2653472,71.6764632,-90.78468000000001,0.0,0.0,0.0,0.0
5.96,105.87532800000001,21.361908,62.3511072,-91.93469040000001,0.0,0.0,0.0,0.0
5.98,108.72978000000002,21.5246712,56.7665616,-89.0979168,0.0,0.0,0.0,0.0
6.0,111.67353840000001,13.8799824,57.2545464,-90.4780512,0.0,0.0,0.0,0.0
6.02,114.71727120000001,15.7234128,59.3146896,-90.09461280000001,0.0,0.0,0.0,0.0
6.04,117.66773520000001,18.163032,58.609992,-90.2479272,0.0,0.0,0.0,0.0
6.0600000000000005,120.8035176,13.988186400000002,59.0979768,-91.16811840000001,0.0,0.0,0.0,0.0
6.08,124.03805520000002,17.024604,52.591716,-94.3118256,0.0,0.0,0.0,0.0
6.1,127.1016,13.771473600000002,50.097842400000005,-97.07209440000001,0.0,0.0,0.0,0.0
6.12,130.1944056,17.6210976,55.57387920000001,-92.54825280000001,0.0,0.0,0.0,0.0
6.14,133.29178320000003,22.5548952,54.5436552,-94.69526400000001,0.0,0.0,0.0,0.0
6.16,136.500108,10.952073600000002,48.5796336,-98.2224096,0.0,0.0,0.0,0.0
6.18,139.5514608,11.2230408,50.4773184,-99.29561040000002,0.0,0.0,0.0,0.0
6.2,142.62811200000002,7.3194672,44.29627920000001,-98.91247680000001,0.0,0.0,0.0,0.0
6.22,145.6313064,13.662964800000001,52.916937600000004,-97.83897120000002,0.0,0.0,0.0,0.0
6.24,148.7463624,12.2532648,44.675755200000005,-97.14890400000002,0.0,0.0,0.0,0.0
6.26,151.7498616,2.4941784,52.1579856,-104.9697672,0.0,0.0,0.0,0.0
6.28,154.85089680000002,6.9399912,41.85666,-100.13929680000001,0.0,0.0,0.0,0.0
6.3,158.00466240000003,-0.5422392,36.5430816,-100.44592560000001,0.0,0.0,0.0,0.0
6.32,161.06698800000004,4.8795432000000005,45.2179944,-101.6727456,0.0,0.0,0.0,0.0
6.34,164.235384,-0.16276320000000002,36.2721144,-104.7396432,0.0,0.0,0.0,0.0
6.36,167.4379176,1.1926824,33.940699200000005,-99.602544,0.0,0.0,0.0,0.0
6.38,170.724576,-7.1024496,33.8864448,-105.88995840000001,0.0,0.0,0.0,0.0
6.4,174.02403600000002,3.7953696000000003,28.9526472,-103.5896328,0.0,0.0,0.0,0.0
6.42,177.4140216,-6.0725304,38.820242400000005,-103.7429472,0.0,0.0,0.0,0.0
6.4399999999999995,180.82168560000002,3.9035736000000005,43.37456400000001,-103.66613760000001,0.0,0.0,0.0,0.0
6.46,184.2945768,1.3011912,32.964729600000005,-106.04327280000001,0.0,0.0,0.0,0.0
6.48,187.5711768,3.5240976,35.946588000000006,-100.369116,0.0,0.0,0.0,0.0
6.5,191.05747920000002,1.8976848000000002,28.4646624,-105.50652,0.0,0.0,0.0,0.0
6.52,194.4739824,-0.9759696,34.6996512,-104.049576,0.0,0.0,0.0,0.0
6.54,198.0053952,-0.7589520000000001,39.037259999999996,-111.33399120000001,0.0,0.0,0.0,0.0
6.5600000000000005,201.4261656,1.8976848000000002,23.6933232,-110.0303616,0.0,0.0,0.0,0.0
6.58,204.80152080000002,2.1686520000000002,31.121299200000003,-109.3402944,0.0,0.0,0.0,0.0
6.6,208.54416000000003,-7.6989432,31.012790400000004,-108.8035416,0.0,0.0,0.0,0.0
6.62,212.2035888,4.7170848,25.211532000000002,-99.90917280000001,0.0,0.0,0.0,0.0
6.640000000000001,215.86271280000003,1.0844784,16.6993824,-100.82936400000001,0.0,0.0,0.0,0.0
6.66,219.6044376,-5.476036800000001,-0.0542544,-96.9955896,0.0,0.0,0.0,0.0
6.68,223.3172064,-22.2293688,-8.3496912,-86.7975912,0.0,0.0,0.0,0.0
6.7,227.0601504,-9.596628,-11.2230408,-76.8297168,0.0,0.0,0.0,0.0
6.720000000000001,230.67111600000004,-10.952073600000002,-24.832056,-71.0787504,0.0,0.0,0.0,0.0
6.74,234.273852,-19.572732000000002,-31.500775200000003,-68.3184816,0.0,0.0,0.0,0.0
6.76,238.0329504,-28.789884,-28.3561536,-57.7373496,0.0,0.0,0.0,0.0
6.779999999999999,241.69542720000004,-22.1211648,-42.8323248,-61.571124000000005,0.0,0.0,0.0,0.0
6.8,245.1881304,-32.8019664,-49.1761272,-50.3764296,0.0,0.0,0.0,0.0
6.82,248.6960736,-31.3922664,-52.320748800000004,-55.5135288,0.0,0.0,0.0,0.0
6.84,251.95530000000002,-36.0008424,-52.916937600000004,-52.98338400000001,0.0,0.0,0.0,0.0
6.859999999999999,255.11729520000003,1.4639544,-62.839092,-82.19694000000001,0.0,0.0,0.0,0.0
6.88,258.13329120000003,-19.844004,-58.339024800000004,-50.529744,0.0,0.0,0.0,0.0
6.9,261.1303896,-30.633314400000003,-52.971192,-45.2390256,0.0,0.0,0.0,0.0
6.92,264.1515672,-30.4705512,-62.02558080000001,-43.7055768,0.0,0.0,0.0,0.0
6.9399999999999995,267.129768,-30.416601600000003,-57.200292,-47.38603680000001,0.0,0.0,0.0,0.0
6.96,270.11162640000003,-35.2961448,-59.69447040000001,-49.686057600000005,0.0,0.0,0.0,0.0
6.98,273.0273432,-26.241756000000002,-53.7843984,-49.456238400000004,0.0,0.0,0.0,0.0
7.0,275.781516,-25.4282448,-61.2123744,-44.395644000000004,0.0,0.0,0.0,0.0
7.02,278.6320056,-29.3321232,-48.7423968,-43.0920144,0.0,0.0,0.0,0.0
7.04,281.531568,-34.8624144,-55.2483528,-47.999294400000004,0.0,0.0,0.0,0.0
7.0600000000000005,284.4582576,-28.0851864,-51.29052480000001,-42.3254424,0.0,0.0,0.0,0.0
7.08,287.30569920000005,-21.4161624,-59.69447040000001,-44.6254632,0.0,0.0,0.0,0.0
7.1,290.0315256,-23.0971344,-47.8206816,-45.92909280000001,0.0,0.0,0.0,0.0
7.12,292.908228,-24.45258,-45.4892664,-44.77908240000001,0.0,0.0,0.0,0.0
7.140000000000001,295.6974528,-28.410408,-41.7481512,-46.0824072,0.0,0.0,0.0,0.0
7.16,298.53910320000006,-19.7354952,-54.4351464,-39.8718024,0.0,0.0,0.0,0.0
7.18,301.2972384,-32.8019664,-47.1156792,-40.0251168,0.0,0.0,0.0,0.0
7.2,304.0855488,-23.368101600000003,-52.1037312,-38.1847344,0.0,0.0,0.0,0.0
7.220000000000001,306.75011040000004,-21.361908,-49.447094400000005,-37.6479816,0.0,0.0,0.0,0.0
7.24,309.44637120000004,-24.018849600000003,-49.7180616,-38.9516112,0.0,0.0,0.0,0.0
7.26,312.2209656,-33.8321904,-42.7241208,-37.6479816,0.0,0.0,0.0,0.0
7.279999999999999,315.00165599999997,-31.825996800000002,-48.0916488,-40.791688799999996,0.0,0.0,0.0,0.0
7.3,317.7369312,-24.669292800000004,-45.27224880000001,-39.7181832,0.0,0.0,0.0,0.0
7.32,320.5167072,-25.4824992,-49.5556032,-40.9450032,0.0,0.0,0.0,0.0
7.34,323.2611264,-25.591008,-51.832764000000005,-39.4115544,0.0,0.0,0.0,0.0
7.359999999999999,325.80590159999997,-23.6933232,-47.874631199999996,-41.4052512,0.0,0.0,0.0,0.0
7.38,328.5811056,-24.2898168,-48.14590320000001,-37.724791200000006,0.0,0.0,0.0,0.0
7.4,331.35112799999996,-17.8920648,-43.916803200000004,-33.2009496,0.0,0.0,0.0,0.0
7.42,334.0672008,-20.765719200000003,-41.91060960000001,-32.894016,0.0,0.0,0.0,0.0
7.4399999999999995,336.7753488,-20.5487016,-39.9589752,-33.660892800000006,0.0,0.0,0.0,0.0
7.46,339.4453968,-20.277734400000003,-41.531133600000004,-35.347656,0.0,0.0,0.0,0.0
7.48,342.0657624,-13.0664712,-46.0312008,-35.347656,0.0,0.0,0.0,0.0
7.5,344.6443704,-15.777667200000002,-46.8989664,-37.417857600000005,0.0,0.0,0.0,0.0
7.52,347.2772328,-26.621232000000003,-39.8504664,-38.4913632,0.0,0.0,0.0,0.0
7.54,349.9280784,-17.837810400000002,-38.765988,-30.363871200000002,0.0,0.0,0.0,0.0
7.5600000000000005,352.36556399999995,-19.193256,-36.976812,-29.44368,0.0,0.0,0.0,0.0
7.58,354.68417759999994,-13.1207256,-42.39859440000001,-34.6575888,0.0,0.0,0.0,0.0
7.6,357.27528240000004,-20.8739232,-43.1035968,-35.8844088,0.0,0.0,0.0,0.0
7.62,359.81914320000004,-18.6510168,-36.7600992,-28.2936696,0.0,0.0,0.0,0.0
7.640000000000001,362.1764664,-20.5487016,-37.4647968,-26.376477600000005,0.0,0.0,0.0,0.0
7.66,364.4450928,-12.036552,-39.3624816,-28.523488800000003,0.0,0.0,0.0,0.0
7.68,366.7164624,-15.2896824,-36.8683032,-30.363871200000002,0.0,0.0,0.0,0.0
7.7,369.1003032,-14.5304256,-36.7600992,-26.299972800000003,0.0,0.0,0.0,0.0
7.720000000000001,371.4122112,-18.434304,-35.675620800000004,-25.533096,0.0,0.0,0.0,0.0
7.74,373.6150008,-24.2898168,-33.615477600000006,-25.303276800000003,0.0,0.0,0.0,0.0
7.76,375.88484639999996,-24.5065296,-29.2778688,-29.7503088,0.0,0.0,0.0,0.0
7.779999999999999,378.2516184,-24.072799200000002,-36.326368800000004,-30.133747200000002,0.0,0.0,0.0,0.0
7.8,380.5613928,-9.867595200000002,-34.4829384,-28.8304224,0.0,0.0,0.0,0.0
7.82,382.9345656,-15.7234128,-36.21786,-27.986736,0.0,0.0,0.0,0.0
7.84,385.25195999999994,-17.0788584,-36.597336,-27.526792800000003,0.0,0.0,0.0,0.0
7.859999999999999,387.6909696,-18.9222888,-34.9709232,-26.453287200000002,0.0,0.0,0.0,0.0
7.88,390.1040712,-12.361773600000001,-30.036820800000005,-25.3797816,0.0,0.0,0.0,0.0
7.9,392.46840480000003,-11.1690912,-32.205777600000005,-28.1400504,0.0,0.0,0.0,0.0
7.92,394.88851679999993,-14.8016976,-34.428684000000004,-29.2903656,0.0,0.0,0.0,0.0
7.9399999999999995,397.77832559999996,-18.81378,-28.5731712,-28.523488800000003,0.0,0.0,0.0,0.0
7.96,400.845528,-14.58468,-31.0670448,-24.3830856,0.0,0.0,0.0,0.0
7.98,403.65212640000004,-11.6028216,-31.8802512,-24.459590400000003,0.0,0.0,0.0,0.0
8.0,406.3514352,-15.2896824,-28.0851864,-19.4758056,0.0,0.0,0.0,0.0
8.02,408.7011384,-23.04288,-30.308092800000004,-25.456591200000002,0.0,0.0,0.0,0.0
8.04,411.13710000000003,-14.476171200000001,-32.1515232,-27.066849600000005,0.0,0.0,0.0,0.0
8.06,413.5715376,-12.7412496,-34.1031576,-20.7026256,0.0,0.0,0.0,0.0
8.08,416.0026224,-10.193121600000001,-30.4705512,-21.9294456,0.0,0.0,0.0,0.0
8.1,418.35445919999995,-7.807452,-35.7841296,-25.303276800000003,0.0,0.0,0.0,0.0
8.120000000000001,420.613332,-9.9218496,-28.789884,-23.4628944,0.0,0.0,0.0,0.0
8.14,422.7563808,-11.873788800000002,-27.705405600000002,-21.086064000000004,0.0,0.0,0.0,0.0
8.16,424.985688,-17.0788584,-26.837944800000002,-24.6132096,0.0,0.0,0.0,0.0
8.18,427.05375599999996,-14.259458400000002,-25.3200408,-20.7026256,0.0,0.0,0.0,0.0
8.2,429.09957360000004,-16.1571432,-30.362347200000002,-21.852636,0.0,0.0,0.0,0.0
8.22,431.07924959999997,-8.186928,-27.8139144,-19.2456816,0.0,0.0,0.0,0.0
8.24,433.0351512,-7.915960800000001,-29.711599200000002,-21.469502400000003,0.0,0.0,0.0,0.0
8.26,435.03159120000004,-10.5183432,-31.772047200000003,-26.069848800000003,0.0,0.0,0.0,0.0
8.28,437.15178,-13.662964800000001,-25.265786400000003,-23.3863896,0.0,0.0,0.0,0.0
8.3,439.0772016,-11.2230408,-27.380184,-20.932749600000005,0.0,0.0,0.0,0.0
8.32,440.8532712,-9.813645600000001,-29.7658536,-21.086064000000004,0.0,0.0,0.0,0.0
8.34,442.816488,-10.4640888,-29.223614400000002,-20.85594,0.0,0.0,0.0,0.0
8.36,444.86443920000005,-10.5725976,-26.1875016,-20.779130400000003,0.0,0.0,0.0,0.0
8.379999999999999,446.8145496,-6.5605152,-24.1270536,-20.242377600000005,0.0,0.0,0.0,0.0
8.4,448.76770799999997,-8.8919304,-27.651456,-21.0092544,0.0,0.0,0.0,0.0
8.42,450.7553088,-8.566404,-25.8080256,-20.165872800000002,0.0,0.0,0.0,0.0
8.44,452.59233839999996,-7.6446888,-27.271675200000004,-21.0092544,0.0,0.0,0.0,0.0
8.46,454.476612,-7.8617064,-26.4042144,-19.3224912,0.0,0.0,0.0,0.0
8.48,456.287124,-9.379915200000001,-25.1030232,-16.5622224,0.0,0.0,0.0,0.0
8.5,458.0616696,-5.1508152,-24.7778016,-17.7887376,0.0,0.0,0.0,0.0
8.52,459.8508456,-9.2714064,-23.4766104,-15.1817832,0.0,0.0,0.0,0.0
8.54,461.6415456,-7.915960800000001,-23.6390688,-15.335402400000001,0.0,0.0,0.0,0.0
8.559999999999999,463.25424239999995,-6.614769600000001,-21.470416800000002,-16.0254696,0.0,0.0,0.0,0.0
8.58,464.8776072,-11.4943128,-22.4463864,-13.264896000000002,0.0,0.0,0.0,0.0
8.6,466.56071280000003,-9.0001344,-22.9886256,-16.4086032,0.0,0.0,0.0,0.0
8.620000000000001,468.2898432,-8.024164800000001,-22.880116800000003,-15.642031200000002,0.0,0.0,0.0,0.0
8.64,470.1582672,-10.5183432,-22.4463864,-16.4086032,0.0,0.0,0.0,0.0
8.66,472.07667840000005,-10.0846128,-19.3017648,-16.715536800000002,0.0,0.0,0.0,0.0
8.68,473.99600399999997,-12.3075192,-19.464223200000003,-17.0986704,0.0,0.0,0.0,0.0
8.7,475.8327288,-5.6930544,-21.958401600000002,-15.0284688,0.0,0.0,0.0,0.0
8.719999999999999,477.66731999999996,-6.1267848,-23.04288,-16.255288800000002,0.0,0.0,0.0,0.0
8.74,479.65644480000003,-12.144756000000001,-24.6150384,-19.5523104,0.0,0.0,0.0,0.0
8.76,481.60716479999996,-8.3496912,-21.253704000000003,-16.101974400000003,0.0,0.0,0.0,0.0
8.780000000000001,483.6042144,-10.3013256,-19.952208,-16.5622224,0.0,0.0,0.0,0.0
8.8,485.43728159999995,-3.6326064,-22.2836232,-15.948660000000002,0.0,0.0,0.0,0.0
8.82,487.38739200000003,-8.837676,-23.801832,-17.2522896,0.0,0.0,0.0,0.0
8.84,489.1985136,-11.0605824,-21.687434400000004,-17.0221656,0.0,0.0,0.0,0.0
8.86,491.1800184,-5.421782400000001,-20.8199736,-16.101974400000003,0.0,0.0,0.0,0.0
8.879999999999999,493.0258872,-8.566404,-19.7354952,-15.1817832,0.0,0.0,0.0,0.0
8.9,494.9558808,-11.7110256,-21.1451952,-15.948660000000002,0.0,0.0,0.0,0.0
8.92,497.0605248,-8.7834216,-18.542508,-12.8817624,0.0,0.0,0.0,0.0
8.940000000000001,499.03623839999995,-8.94588,-20.006462400000004,-11.7314472,0.0,0.0,0.0,0.0
8.96,500.8528464,-6.9942456,-20.765719200000003,-16.8688512,0.0,0.0,0.0,0.0
8.98,502.490232,-3.4698432,-21.361908,-16.945356,0.0,0.0,0.0,0.0
9.0,504.305316,-9.6508824,-21.0366864,-15.795345600000001,0.0,0.0,0.0,0.0
9.02,506.1792264,-10.138867200000002,-20.1149712,-17.0221656,0.0,0.0,0.0,0.0
9.04,507.8970792,-7.3737216000000005,-21.904147200000004,-16.255288800000002,0.0,0.0,0.0,0.0
9.059999999999999,509.712468,-4.8795432000000005,-20.277734400000003,-15.871850400000001,0.0,0.0,0.0,0.0
9.08,511.405632,-6.2349888,-18.488558400000002,-13.571829600000001,0.0,0.0,0.0,0.0
9.1,513.0289968,-3.8496240000000004,-19.572732000000002,-12.651638400000001,0.0,0.0,0.0,0.0
9.120000000000001,514.7300855999999,-5.1508152,-20.982432000000003,-13.8016488,0.0,0.0,0.0,0.0
9.14,516.3260184000001,-6.8314824000000005,-18.434304,-14.4152112,0.0,0.0,0.0,0.0
9.16,517.9570032,-5.3132736,-20.277734400000003,-13.1883912,0.0,0.0,0.0,0.0
9.18,519.4651536,-4.3376088,-19.952208,-12.1913904,0.0,0.0,0.0,0.0
9.2,521.1997704,-5.801258400000001,-18.705271200000002,-12.498324000000002,0.0,0.0,0.0,0.0
9.219999999999999,522.9606,-6.1807343999999995,-17.1331128,-13.264896000000002,0.0,0.0,0.0,0.0
9.24,524.6132256,-9.488119200000002,-15.994380000000001,-11.271504,0.0,0.0,0.0,0.0
9.26,526.3194960000001,-4.7170848,-18.163032,-11.9615712,0.0,0.0,0.0,0.0
9.280000000000001,528.0449688,-8.4582,-17.024604,-13.0350768,0.0,0.0,0.0,0.0
9.3,529.716492,-6.506260800000001,-15.181173600000001,-11.3480088,0.0,0.0,0.0,0.0
9.32,531.2301288,-6.777228,-13.3919976,-11.5781328,0.0,0.0,0.0,0.0
9.34,532.8275856,-7.6989432,-17.024604,-12.651638400000001,0.0,0.0,0.0,0.0
9.36,534.3851136000001,-2.9818584,-18.3800496,-13.571829600000001,0.0,0.0,0.0,0.0
9.379999999999999,536.065476,-7.3737216000000005,-15.8316168,-11.501323200000002,0.0,0.0,0.0,0.0
9.4,537.711396,-4.8795432000000005,-16.0486344,-8.971178400000001,0.0,0.0,0.0,0.0
9.42,539.308548,-3.578352,-17.2413168,-14.2618968,0.0,0.0,0.0,0.0
9.440000000000001,540.9035664,-3.578352,-15.181173600000001,-10.657941600000001,0.0,0.0,0.0,0.0
9.46,542.577528,-6.343497600000001,-16.970349600000002,-13.0350768,0.0,0.0,0.0,0.0
9.48,544.2304584,-9.6508824,-16.373856,-13.111581600000001,0.0,0.0,0.0,0.0
9.5,545.7986544,-4.8795432000000005,-17.8920648,-12.5748288,0.0,0.0,0.0,0.0
9.52,547.545768,-4.7170848,-15.4521408,-11.04138,0.0,0.0,0.0,0.0
9.54,549.2431991999999,-5.3132736,-14.855952000000002,-11.04138,0.0,0.0,0.0,0.0
9.559999999999999,550.9110648,-6.614769600000001,-15.9401256,-11.8082568,0.0,0.0,0.0,0.0
9.58,552.42714,-6.2349888,-14.259458400000002,-10.274503200000002,0.0,0.0,0.0,0.0
9.6,554.0770224,-4.8252888,-14.1509496,-8.6645496,0.0,0.0,0.0,0.0
9.620000000000001,555.6119951999999,-9.2714064,-13.825728,-8.58774,0.0,0.0,0.0,0.0
9.64,557.2563912,-7.2652128,-12.9040128,-10.9645704,0.0,0.0,0.0,0.0
9.66,558.7785624,-6.4520064,-14.476171200000001,-11.7314472,0.0,0.0,0.0,0.0
9.68,560.2431264,-9.7051368,-12.7412496,-13.418210400000001,0.0,0.0,0.0,0.0
9.7,561.6936696,-7.4822304,-13.012521600000001,-9.584436,0.0,0.0,0.0,0.0
9.719999999999999,563.195724,-6.343497600000001,-13.283488800000002,-11.5781328,0.0,0.0,0.0,0.0
9.74,564.5539128,-6.397752,-16.1571432,-12.114885600000001,0.0,0.0,0.0,0.0
9.76,565.957212,-7.807452,-13.446252000000001,-14.2618968,0.0,0.0,0.0,0.0
9.780000000000001,567.5421719999999,-9.6508824,-11.7110256,-12.958267200000002,0.0,0.0,0.0,0.0
9.8,569.2463088000001,-7.753197600000001,-14.367967200000002,-11.4248184,0.0,0.0,0.0,0.0
9.82,570.7959119999999,-4.8795432000000005,-12.795504,-8.58774,0.0,0.0,0.0,0.0
9.84,572.2187184000001,-7.210958400000001,-14.0424408,-10.3513128,0.0,0.0,0.0,0.0
9.86,573.7460712,-7.8617064,-12.958267200000002,-10.888065600000001,0.0,0.0,0.0,0.0
9.879999999999999,575.3453568,-9.5423736,-13.012521600000001,-13.1883912,0.0,0.0,0.0,0.0
9.9,576.8678328,-5.638800000000001,-14.6389344,-12.498324000000002,0.0,0.0,0.0,0.0
9.92,578.3826888,-8.6749128,-11.8195344,-10.657941600000001,0.0,0.0,0.0,0.0
9.940000000000001,579.814944,-8.0784192,-11.440058400000002,-9.891369599999999,0.0,0.0,0.0,0.0
9.96,581.2959672,-8.94588,-11.76528,-9.4311216,0.0,0.0,0.0,0.0
9.98,582.8297208,-6.777228,-12.3075192,-9.891369599999999,0.0,0.0,0.0,0.0
10.0,584.3052576,-6.777228,-13.5005064,-12.7281432,0.0,0.0,0.0,0.0
10.02,585.79512,-7.156704,-11.6028216,-10.5814368,0.0,0.0,0.0,0.0
10.04,587.2240224,-9.0543888,-12.3075192,-11.1181896,0.0,0.0,0.0,0.0
10.059999999999999,588.6200064,-4.608576,-12.8497584,-11.4248184,0.0,0.0,0.0,0.0
10.08,589.9620408,-5.259324,-13.7172192,-12.421514400000001,0.0,0.0,0.0,0.0
10.1,591.3238872000001,-8.295436800000001,-12.0908064,-12.498324000000002,0.0,0.0,0.0,0.0
10.120000000000001,592.8323424,-9.108643200000001,-11.928043200000001,-12.5748288,0.0,0.0,0.0,0.0
10.14,594.3959664,-4.3376088,-12.361773600000001,-10.428122400000001,0.0,0.0,0.0,0.0
10.16,595.8888767999999,-5.421782400000001,-12.5787912,-11.501323200000002,0.0,0.0,0.0,0.0
10.18,597.3436872,-7.3737216000000005,-14.096695200000001,-12.1913904,0.0,0.0,0.0,0.0
10.2,598.7853912,-6.4520064,-12.3075192,-11.8082568,0.0,0.0,0.0,0.0
10.219999999999999,600.2164272,-9.217152,-10.952073600000002,-11.8847616,0.0,0.0,0.0,0.0
10.24,601.5962568,-5.801258400000001,-12.0908064,-9.047683200000002,0.0,0.0,0.0,0.0
10.26,602.7773568,-7.5904344,-10.626852000000001,-11.3480088,0.0,0.0,0.0,0.0
10.280000000000001,604.287336,-6.0725304,-13.1207256,-11.7314472,0.0,0.0,0.0,0.0
10.3,605.6302848,-6.343497600000001,-12.199010400000002,-10.044684,0.0,0.0,0.0,0.0
10.32,606.9293424,-6.1807343999999995,-10.952073600000002,-10.657941600000001,0.0,0.0,0.0,0.0
10.34,608.2637568,-4.988052,-11.6028216,-9.584436,0.0,0.0,0.0,0.0
10.36,609.8014727999999,-8.186928,-11.3315496,-11.5781328,0.0,0.0,0.0,0.0
10.379999999999999,611.24592,-6.343497600000001,-11.440058400000002,-10.044684,0.0,0.0,0.0,0.0
10.4,612.52608,-7.1024496,-10.8978192,-10.5814368,0.0,0.0,0.0,0.0
10.42,613.9165776,-5.096560800000001,-12.036552,-11.3480088,0.0,0.0,0.0,0.0
10.440000000000001,615.26166,-8.4582,-10.626852000000001,-11.194694400000001,0.0,0.0,0.0,0.0
10.46,616.5445632,-6.2349888,-10.681106400000001,-11.1181896,0.0,0.0,0.0,0.0
10.48,617.7372456,-7.4822304,-10.735360799999999,-10.1979984,0.0,0.0,0.0,0.0
10.5,618.9966792,-4.6628304,-11.6028216,-9.2778072,0.0,0.0,0.0,0.0
10.52,620.1488232,-4.8252888,-10.789310400000002,-9.5079312,0.0,0.0,0.0,0.0
10.54,621.3067584,-6.777228,-10.0303584,-10.044684,0.0,0.0,0.0,0.0
10.559999999999999,622.5195576,-6.2892432000000005,-9.5423736,-9.891369599999999,0.0,0.0,0.0,0.0
10.58,623.7765528,-8.295436800000001,-10.138867200000002,-10.121188800000002,0.0,0.0,0.0,0.0
10.6,625.0100784,-7.1024496,-9.813645600000001,-9.584436,0.0,0.0,0.0,0.0
10.620000000000001,626.2862760000002,-6.397752,-9.217152,-9.737750400000001,0.0,0.0,0.0,0.0
10.64,627.569484,-5.964021600000001,-9.7593912,-9.737750400000001,0.0,0.0,0.0,0.0
10.66,629.0593464000001,-6.1267848,-10.5725976,-9.6612456,0.0,0.0,0.0,0.0
10.68,630.4285080000001,-6.2892432000000005,-9.217152,-9.584436,0.0,0.0,0.0,0.0
10.7,631.6830648,-4.933797600000001,-10.355580000000002,-9.047683200000002,0.0,0.0,0.0,0.0
10.719999999999999,632.9863896000002,-6.0725304,-8.8919304,-9.047683200000002,0.0,0.0,0.0,0.0
10.74,634.2942864,-5.8555128,-9.7593912,-9.6612456,0.0,0.0,0.0,0.0
10.76,635.6649720000001,-7.3737216000000005,-9.217152,-9.2778072,0.0,0.0,0.0,0.0
10.780000000000001,637.0003008000001,-6.777228,-9.488119200000002,-8.8943688,0.0,0.0,0.0,0.0
10.8,638.3865312,-5.5302912,-9.5423736,-8.2811112,0.0,0.0,0.0,0.0
10.82,639.6883320000001,-5.9097672,-11.657076,-6.9009768,0.0,0.0,0.0,0.0
10.84,640.8877200000001,-3.6868608000000003,-9.867595200000002,-8.741054400000001,0.0,0.0,0.0,0.0
10.86,642.024624,-6.397752,-8.6749128,-9.4311216,0.0,0.0,0.0,0.0
10.879999999999999,643.1283048000001,-4.6628304,-9.7593912,-9.737750400000001,0.0,0.0,0.0,0.0
10.9,644.2402152000002,-5.638800000000001,-8.7834216,-9.814560000000002,0.0,0.0,0.0,0.0
10.92,645.4021128,-6.1807343999999995,-8.566404,-9.5079312,0.0,0.0,0.0,0.0
10.940000000000001,646.4530632000001,-5.964021600000001,-8.4582,-9.2778072,0.0,0.0,0.0,0.0
10.96,647.6478792,-4.7713392,-9.0001344,-9.2013024,0.0,0.0,0.0,0.0
10.98,648.9188952000001,-5.638800000000001,-8.1326736,-9.4311216,0.0,0.0,0.0,0.0
11.0,650.0655528,-5.638800000000001,-9.217152,-8.8943688,0.0,0.0,0.0,0.0
11.02,651.2265360000001,-6.506260800000001,-7.807452,-9.047683200000002,0.0,0.0,0.0,0.0
11.04,652.2951648000001,-3.957828,-9.596628,-8.5109304,0.0,0.0,0.0,0.0
11.059999999999999,653.3954928,-5.8555128,-8.4582,-8.6645496,0.0,0.0,0.0,0.0
11.08,654.6256656,-4.608576,-8.5121496,-8.050987200000002,0.0,0.0,0.0,0.0
11.1,655.7613504000001,-4.8252888,-7.753197600000001,-8.050987200000002,0.0,0.0,0.0,0.0
11.120000000000001,656.7790776000002,-3.9035736000000005,-8.7834216,-8.357616,0.0,0.0,0.0,0.0
11.14,657.8455728,-4.7170848,-7.753197600000001,-9.2013024,0.0,0.0,0.0,0.0
11.16,659.0016792000001,-5.5845456,-7.6446888,-9.047683200000002,0.0,0.0,0.0,0.0
11.18,660.1166376000001,-5.476036800000001,-7.3194672,-7.5142344,0.0,0.0,0.0,0.0
11.2,661.2358632,-4.445812800000001,-7.915960800000001,-7.744358400000001,0.0,0.0,0.0,0.0
11.219999999999999,662.4157440000001,-4.8252888,-7.427976000000001,-6.364224,0.0,0.0,0.0,0.0
11.24,663.6998664,-5.0423064,-7.753197600000001,-7.744358400000001,0.0,0.0,0.0,0.0
11.26,664.6886376000001,-5.0423064,-6.9942456,-7.130796,0.0,0.0,0.0,0.0
11.280000000000001,665.5582320000001,-4.988052,-7.156704,-7.591044000000001,0.0,0.0,0.0,0.0
11.3,666.5649864000001,-4.3376088,-8.1326736,-7.9744824,0.0,0.0,0.0,0.0
11.32,667.6101456000001,-4.7713392,-8.3496912,-8.357616,0.0,0.0,0.0,0.0
11.34,668.6239104000001,-3.8496240000000004,-7.1024496,-7.8208632,0.0,0.0,0.0,0.0
11.36,669.6206064,-4.0663368,-7.210958400000001,-7.6675488,0.0,0.0,0.0,0.0
11.379999999999999,670.5804216,-5.096560800000001,-6.2892432000000005,-7.0542912,0.0,0.0,0.0,0.0
11.4,671.5070136,-5.096560800000001,-6.614769600000001,-7.2076056,0.0,0.0,0.0,0.0
11.42,672.5573544000001,-4.5000672,-6.4520064,-7.36092,0.0,0.0,0.0,0.0
11.440000000000001,673.7716776000001,-4.2833544,-7.210958400000001,-5.6741568000000004,0.0,0.0,0.0,0.0
11.46,674.6555976000002,-4.2833544,-6.5605152,-7.2076056,0.0,0.0,0.0,0.0
11.48,675.6711912000001,-4.3915584,-6.885736800000001,-6.9774816,0.0,0.0,0.0,0.0
11.5,676.6486848000001,-3.4698432,-6.614769600000001,-6.1341,0.0,0.0,0.0,0.0
11.52,677.6706792000001,-4.554321600000001,-6.7229735999999995,-6.6708528000000005,0.0,0.0,0.0,0.0
11.54,678.6728616000001,-4.445812800000001,-6.614769600000001,-6.747662400000001,0.0,0.0,0.0,0.0
11.559999999999999,679.7637408,-4.933797600000001,-6.2349888,-6.6708528000000005,0.0,0.0,0.0,0.0
11.58,680.8305408,-4.608576,-6.2349888,-6.9009768,0.0,0.0,0.0,0.0
11.6,682.0293192,-5.0423064,-6.5605152,-7.2076056,0.0,0.0,0.0,0.0
11.620000000000001,683.1768912000001,-4.1748456,-6.885736800000001,-7.36092,0.0,0.0,0.0,0.0
11.64,684.2415576000001,-5.096560800000001,-6.1807343999999995,-6.594043200000001,0.0,0.0,0.0,0.0
11.66,685.3921776000001,-4.608576,-6.668719200000001,-7.0542912,0.0,0.0,0.0,0.0
11.68,686.3861304000001,-4.5000672,-6.4520064,-6.8241672,0.0,0.0,0.0,0.0
11.7,687.2947392,-4.120591200000001,-6.397752,-6.6708528000000005,0.0,0.0,0.0,0.0
11.719999999999999,688.320696,-4.608576,-6.2349888,-6.6708528000000005,0.0,0.0,0.0,0.0
11.74,689.1433512000001,-3.4158936000000004,-6.4520064,-6.594043200000001,0.0,0.0,0.0,0.0
11.76,690.0988992000001,-5.205069600000001,-6.2892432000000005,-6.9009768,0.0,0.0,0.0,0.0
11.780000000000001,691.0791360000001,-3.3073848000000003,-6.4520064,-6.6708528000000005,0.0,0.0,0.0,0.0
11.8,691.952388,-4.1748456,-6.4520064,-6.8241672,0.0,0.0,0.0,0.0
11.82,692.9487792000001,-3.8496240000000004,-6.777228,-6.8241672,0.0,0.0,0.0,0.0
11.84,693.9238344000001,-4.445812800000001,-5.7470040000000004,-6.5175384,0.0,0.0,0.0,0.0
11.86,694.9187016,-3.6868608000000003,-6.0725304,-6.2874144,0.0,0.0,0.0,0.0
11.879999999999999,695.8882704,-3.3616392,-6.0725304,-5.9807856,0.0,0.0,0.0,0.0
11.9,696.8849664,-2.3314152,-6.5605152,-5.9807856,0.0,0.0,0.0,0.0
11.92,697.7728488,-3.957828,-5.9097672,-6.8241672,0.0,0.0,0.0,0.0
11.940000000000001,698.629032,-2.2229064000000003,-4.3915584,-5.750661600000001,0.0,0.0,0.0,0.0
11.96,699.4480296,-3.9035736000000005,-5.638800000000001,-6.6708528000000005,0.0,0.0,0.0,0.0
11.98,700.372488,-4.554321600000001,-5.5302912,-6.9009768,0.0,0.0,0.0,0.0
12.0,701.2634184000001,-3.7953696000000003,-5.964021600000001,-6.364224,0.0,0.0,0.0,0.0
12.02,702.0872928000001,-2.8736544000000004,-5.9097672,-6.1341,0.0,0.0,0.0,0.0
12.04,703.0047408,-3.6326064,-6.343497600000001,-5.597347200000001,0.0,0.0,0.0,0.0
12.059999999999999,703.9776624,-3.578352,-5.096560800000001,-5.367223200000001,0.0,0.0,0.0,0.0
12.08,704.8091568,-4.933797600000001,-4.7170848,-5.5205376,0.0,0.0,0.0,0.0
12.1,705.7287384000001,-3.4158936000000004,-4.7170848,-5.2907184,0.0,0.0,0.0,0.0
12.120000000000001,706.6586832,-3.7953696000000003,-4.8795432000000005,-5.4440328000000004,0.0,0.0,0.0,0.0
12.14,707.4057480000001,-3.7411152,-4.608576,-5.137404,0.0,0.0,0.0,0.0
12.16,708.262236,-4.2291,-4.6628304,-5.5205376,0.0,0.0,0.0,0.0
12.18,709.1574336000001,-3.4158936000000004,-4.608576,-5.367223200000001,0.0,0.0,0.0,0.0
12.2,710.0693952000001,-2.6566368,-5.259324,-5.827471200000001,0.0,0.0,0.0,0.0
12.219999999999999,710.9149104,-3.6326064,-4.3915584,-5.597347200000001,0.0,0.0,0.0,0.0
12.24,711.7613400000001,-3.6868608000000003,-4.988052,-5.903976000000001,0.0,0.0,0.0,0.0
12.26,712.5894816000001,-3.3073848000000003,-4.7170848,-5.137404,0.0,0.0,0.0,0.0
12.280000000000001,713.4170136,-2.8194000000000004,-4.012082400000001,-4.7539656,0.0,0.0,0.0,0.0
12.3,714.1360368000002,-3.6868608000000003,-4.3376088,-4.7539656,0.0,0.0,0.0,0.0
12.32,715.0138608000001,-2.6566368,-4.8252888,-4.8304704,0.0,0.0,0.0,0.0
12.34,715.7252640000002,-3.3073848000000003,-4.5000672,-4.984089600000001,0.0,0.0,0.0,0.0
12.36,716.6006496000001,-3.0903671999999998,-4.5000672,-5.4440328000000004,0.0,0.0,0.0,0.0
12.379999999999999,717.5497968000001,-3.5240976,-4.933797600000001,-5.367223200000001,0.0,0.0,0.0,0.0
12.4,718.4809608,-4.3915584,-3.8496240000000004,-5.2907184,0.0,0.0,0.0,0.0
12.42,719.3999328000001,-3.7411152,-4.7170848,-5.2907184,0.0,0.0,0.0,0.0
12.440000000000001,720.2073480000001,-4.445812800000001,-4.2291,-4.907280000000001,0.0,0.0,0.0,0.0
12.46,720.9620328000001,-2.9818584,-4.3915584,-4.8304704,0.0,0.0,0.0,0.0
12.48,721.7545128000002,-3.1446216000000002,-3.0361128,-4.4473368,0.0,0.0,0.0,0.0
12.5,722.4119664,-2.6023824,-4.6628304,-4.523841600000001,0.0,0.0,0.0,0.0
12.52,723.0392448,-2.3856696,-4.8795432000000005,-4.523841600000001,0.0,0.0,0.0,0.0
12.54,723.6784104000001,-1.3554456000000001,-4.7170848,-4.4473368,0.0,0.0,0.0,0.0
12.56,724.4157216,-1.8976848000000002,-4.608576,-4.523841600000001,0.0,0.0,0.0,0.0
12.58,725.0737848000001,-2.2771608000000003,-4.120591200000001,-4.1404032,0.0,0.0,0.0,0.0
12.6,725.7406872000001,-2.4941784,-4.2291,-4.523841600000001,0.0,0.0,0.0,0.0
12.62,726.4398984000001,-2.9818584,-3.4158936000000004,-4.6006512,0.0,0.0,0.0,0.0
12.64,727.1985456000001,-3.0903671999999998,-3.4158936000000004,-4.4473368,0.0,0.0,0.0,0.0
12.66,727.8828216,-2.3856696,-3.7953696000000003,-4.2937176,0.0,0.0,0.0,0.0
12.68,728.6725584000002,-2.3856696,-3.7953696000000003,-4.1404032,0.0,0.0,0.0,0.0
12.7,729.4330344000001,-1.8976848000000002,-3.7411152,-4.370527200000001,0.0,0.0,0.0,0.0
12.72,730.2815976000002,-3.3073848000000003,-3.5240976,-4.370527200000001,0.0,0.0,0.0,0.0
12.74,731.1646032000001,-3.7953696000000003,-3.1446216000000002,-4.0638984,0.0,0.0,0.0,0.0
12.76,731.8729584000001,-2.4399240000000004,-4.2833544,-4.2937176,0.0,0.0,0.0,0.0
12.78,732.6005160000001,-2.4941784,-3.2531304000000003,-3.6036504000000003,0.0,0.0,0.0,0.0
12.8,733.2290136,-2.7108912000000003,-3.4698432,-3.450336,0.0,0.0,0.0,0.0
12.82,733.845624,-2.0061936,-3.3073848000000003,-3.2205168000000004,0.0,0.0,0.0,0.0
12.84,734.4159048000001,-1.5182088,-3.6868608000000003,-2.9903928,0.0,0.0,0.0,0.0
12.86,735.0477552000001,-1.7349216,-3.3616392,-3.6036504000000003,0.0,0.0,0.0,0.0
12.88,735.6521736000001,-1.789176,-3.0903671999999998,-3.68046,0.0,0.0,0.0,0.0
12.9,736.3315728,-1.2469368,-4.2833544,-3.68046,0.0,0.0,0.0,0.0
12.92,737.1627624,-2.548128,-3.198876,-4.1404032,0.0,0.0,0.0,0.0
12.94,737.9592048000001,-1.8434304000000001,-3.1446216000000002,-4.0638984,0.0,0.0,0.0,0.0
12.96,738.6812760000001,-2.9279088,-2.9279088,-3.8337744,0.0,0.0,0.0,0.0
12.98,739.4115768,-1.3011912,-3.6868608000000003,-3.6036504000000003,0.0,0.0,0.0,0.0
13.0,740.177844,-2.1686520000000002,-3.2531304000000003,-3.68046,0.0,0.0,0.0,0.0
13.02,740.7868344000001,-2.7651456,-2.6566368,-3.8337744,0.0,0.0,0.0,0.0
13.04,741.3738792000001,-2.548128,-2.6566368,-3.3738312000000006,0.0,0.0,0.0,0.0
13.06,742.0273704,-2.1686520000000002,-2.8194000000000004,-3.0672024,0.0,0.0,0.0,0.0
13.08,742.7131704000001,-2.1686520000000002,-2.1686520000000002,-2.683764,0.0,0.0,0.0,0.0
13.1,743.3249040000001,-2.1686520000000002,-2.8194000000000004,-2.5304496,0.0,0.0,0.0,0.0
13.12,744.0216768,-1.9519392,-2.1686520000000002,-2.8370784000000002,0.0,0.0,0.0,0.0
13.14,744.6952848000001,-1.6264128000000002,0.0,-2.4536400000000005,0.0,0.0,0.0,0.0
13.16,745.2524592000001,-1.6806672000000002,-2.4399240000000004,-2.8370784000000002,0.0,0.0,0.0,0.0
13.18,745.8425520000001,-1.4639544,-2.9818584,-2.4536400000000005,0.0,0.0,0.0,0.0
13.2,746.4835464000001,-2.3856696,-2.6023824,-3.1437072,0.0,0.0,0.0,0.0
13.22,747.0782112000002,-2.1686520000000002,-2.3856696,-3.1437072,0.0,0.0,0.0,0.0
13.24,747.7085376000001,-2.0601432,-2.4941784,-2.5304496,0.0,0.0,0.0,0.0
13.26,748.4379240000001,-2.4941784,-2.0601432,-2.8370784000000002,0.0,0.0,0.0,0.0
13.28,749.0228352,-2.1143976,-2.4399240000000004,-2.683764,0.0,0.0,0.0,0.0
13.3,749.5047240000001,-1.8434304000000001,-2.3856696,-2.7602688,0.0,0.0,0.0,0.0
13.32,750.1054848000001,-2.1143976,-1.8976848000000002,-2.5304496,0.0,0.0,0.0,0.0
13.34,750.6690600000002,-2.1143976,-2.0061936,-2.683764,0.0,0.0,0.0,0.0
13.36,751.2469608,-2.3314152,-2.0061936,-2.9903928,0.0,0.0,0.0,0.0
13.38,751.7517096,-1.5182088,-2.0601432,-2.8370784000000002,0.0,0.0,0.0,0.0
13.4,752.3643576000001,-2.2771608000000003,-2.0601432,-2.3768304000000002,0.0,0.0,0.0,0.0
13.42,752.96268,-1.7349216,-1.7349216,-2.6069544000000002,0.0,0.0,0.0,0.0
13.44,753.6094656000001,-1.4639544,-2.2229064000000003,-2.4536400000000005,0.0,0.0,0.0,0.0
13.46,754.1736504000002,-1.8976848000000002,-2.3314152,-2.683764,0.0,0.0,0.0,0.0
13.48,754.7305200000001,-1.4097000000000002,-2.1686520000000002,-2.7602688,0.0,0.0,0.0,0.0
13.5,755.2675776000001,-1.789176,-2.2229064000000003,-2.683764,0.0,0.0,0.0,0.0
13.52,755.8061592,-1.8434304000000001,-1.7349216,-2.3003256,0.0,0.0,0.0,0.0
13.54,756.2907912000001,-1.2469368,-1.6806672000000002,-2.0702016,0.0,0.0,0.0,0.0
13.56,756.8330304000001,-1.3554456000000001,-1.5724632,-2.683764,0.0,0.0,0.0,0.0
13.58,757.4148936000001,-1.6806672000000002,-1.6806672000000002,-2.8370784000000002,0.0,0.0,0.0,0.0
13.6,757.9022688,-1.6264128000000002,-1.8434304000000001,-2.3768304000000002,0.0,0.0,0.0,0.0
13.62,758.5432632000001,-0.7589520000000001,-2.0601432,-2.3003256,0.0,0.0,0.0,0.0
13.64,759.072396,-1.5724632,-1.789176,-1.9936968000000002,0.0,0.0,0.0,0.0
13.66,759.6283512,-1.5182088,-1.6264128000000002,-2.0702016,0.0,0.0,0.0,0.0
13.68,760.2007656000001,-1.7349216,-1.4097000000000002,-2.3003256,0.0,0.0,0.0,0.0
13.7,760.7936016,-1.3011912,-1.9519392,-2.0702016,0.0,0.0,0.0,0.0
13.72,761.3221248000001,-1.4639544,-1.6806672000000002,-2.1470112,0.0,0.0,0.0,0.0
13.74,761.8774704,-1.0844784,-1.7349216,-2.223516,0.0,0.0,0.0,0.0
13.76,762.4989576,-1.4097000000000002,-1.5182088,-2.3003256,0.0,0.0,0.0,0.0
13.78,763.0576560000001,-1.3011912,-1.8434304000000001,-2.5304496,0.0,0.0,0.0,0.0
13.8,763.5371064000001,-1.4097000000000002,-1.6264128000000002,-2.4536400000000005,0.0,0.0,0.0,0.0
13.82,764.0936712000001,-1.3554456000000001,-1.6806672000000002,-2.4536400000000005,0.0,0.0,0.0,0.0
13.84,764.6295096,-0.7046976,-2.0061936,-2.4536400000000005,0.0,0.0,0.0,0.0
13.86,765.2010096,-0.8674608,-1.9519392,-2.3003256,0.0,0.0,0.0,0.0
13.88,765.6917376,-1.5724632,-1.4639544,-2.1470112,0.0,0.0,0.0,0.0
13.9,766.2510456000001,-1.3011912,-1.3011912,-2.3768304000000002,0.0,0.0,0.0,0.0
13.92,766.6597824,-1.3011912,-1.3011912,-2.5304496,0.0,0.0,0.0,0.0
13.94,767.1407568000001,-1.030224,-1.4639544,-1.8400776,0.0,0.0,0.0,0.0
13.96,767.6296560000001,-1.5182088,-1.8434304000000001,-1.7635728,0.0,0.0,0.0,0.0
13.98,768.0271152000001,-1.4097000000000002,-1.4097000000000002,-1.4569440000000002,0.0,0.0,0.0,0.0
14.0,768.4151256,-1.4639544,-1.2469368,-1.6867632000000001,0.0,0.0,0.0,0.0
14.02,768.8622672000001,-1.3011912,-1.1926824,-1.4569440000000002,0.0,0.0,0.0,0.0
14.04,769.1582280000001,-1.6806672000000002,-0.8132064000000001,-1.8400776,0.0,0.0,0.0,0.0
14.06,769.6431648,-1.0844784,-1.0844784,-1.4569440000000002,0.0,0.0,0.0,0.0
14.08,769.9860648,-1.2469368,-1.1387328,-1.3036296,0.0,0.0,0.0,0.0
14.1,770.3631024000001,-1.2469368,-1.1387328,-1.3036296,0.0,0.0,0.0,0.0
14.12,770.6252304000001,-0.7046976,-1.3554456000000001,-1.3801344,0.0,0.0,0.0,0.0
14.14,771.0745056000001,-0.4337304,-1.5182088,-1.6102584000000002,0.0,0.0,0.0,0.0
14.16,771.4631256,-0.9217152000000001,-1.3554456000000001,-1.6102584000000002,0.0,0.0,0.0,0.0
14.18,771.9337368000001,-0.8132064000000001,-1.1387328,-1.4569440000000002,0.0,0.0,0.0,0.0
14.2,772.4567736000001,-0.8132064000000001,-1.4639544,-1.6867632000000001,0.0,0.0,0.0,0.0
14.22,772.9191552000001,-0.8674608,-1.3011912,-1.5334488,0.0,0.0,0.0,0.0
14.24,773.385804,-1.0844784,-1.1926824,-1.5334488,0.0,0.0,0.0,0.0
14.26,773.8320312000001,-0.8132064000000001,-1.3554456000000001,-1.6102584000000002,0.0,0.0,0.0,0.0
14.28,774.2928888000001,-1.0844784,-1.0844784,-1.4569440000000002,0.0,0.0,0.0,0.0
14.3,774.7625856000001,-1.0844784,-1.0844784,-1.4569440000000002,0.0,0.0,0.0,0.0
14.32,775.1883912000001,-0.9759696,-1.0844784,-1.5334488,0.0,0.0,0.0,0.0
14.34,775.5087360000001,-1.1387328,-1.1387328,-1.6102584000000002,0.0,0.0,0.0,0.0
14.36,775.9116816000002,-1.0844784,-1.0844784,-1.6102584000000002,0.0,0.0,0.0,0.0
14.38,776.3280384000001,-1.1387328,-1.1387328,-1.3801344,0.0,0.0,0.0,0.0
14.4,776.7703032000002,-1.1387328,-1.1387328,-1.4569440000000002,0.0,0.0,0.0,0.0
14.42,777.1787352,-0.8132064000000001,-0.8132064000000001,-1.2268200000000002,0.0,0.0,0.0,0.0
14.44,777.6005784,-0.7046976,-0.8132064000000001,-1.4569440000000002,0.0,0.0,0.0,0.0
14.46,777.8989776000001,-0.650748,-0.7589520000000001,-1.2268200000000002,0.0,0.0,0.0,0.0
14.48,778.2848544000001,-0.8132064000000001,-0.8132064000000001,-1.1500104,0.0,0.0,0.0,0.0
14.5,778.5984936000001,-0.4337304,-0.9759696,-1.4569440000000002,0.0,0.0,0.0,0.0
14.52,778.9846752000001,-0.5964936000000001,-0.9217152000000001,-1.1500104,0.0,0.0,0.0,0.0
14.54,779.2620432,-0.4337304,-0.9759696,-0.996696,0.0,0.0,0.0,0.0
14.56,779.5692816000002,-0.0542544,-1.1387328,-1.2268200000000002,0.0,0.0,0.0,0.0
14.58,779.8484784000001,-0.5964936000000001,-0.8132064000000001,-1.2268200000000002,0.0,0.0,0.0,0.0
14.6,780.1999128000001,-0.2170176,-1.0844784,-1.1500104,0.0,0.0,0.0,0.0
14.62,780.5705496,-0.2170176,-0.9759696,-1.2268200000000002,0.0,0.0,0.0,0.0
14.64,780.7753752000001,-0.16276320000000002,-1.1387328,-1.2268200000000002,0.0,0.0,0.0,0.0
14.66,781.08048,-0.37947600000000004,-1.030224,-1.3036296,0.0,0.0,0.0,0.0
14.68,781.3974720000001,-0.1085088,-1.0844784,-0.9201912000000001,0.0,0.0,0.0,0.0
14.7,781.683984,-0.2170176,-1.0844784,-1.2268200000000002,0.0,0.0,0.0,0.0
14.72,781.9421496000001,0.0,-0.9759696,-1.2268200000000002,0.0,0.0,0.0,0.0
14.74,782.2993752000001,0.0542544,-0.9217152000000001,-1.1500104,0.0,0.0,0.0,0.0
14.76,782.7099408,-0.1085088,-1.1926824,-1.3036296,0.0,0.0,0.0,0.0
14.78,783.0019392,-0.2170176,-0.9759696,-1.2268200000000002,0.0,0.0,0.0,0.0
14.8,783.278088,-0.1085088,-1.0844784,-1.3801344,0.0,0.0,0.0,0.0
14.82,783.5959944000001,-0.37947600000000004,-1.030224,-1.4569440000000002,0.0,0.0,0.0,0.0
