time,baro_altitude,accl_x,accl_y,accl_z,gps_altitude,gyro_roll,gyro_pitch,gyro_yaw
0.0,0.0,-2.548128,-3.4158936000000004,-9.1244928,0.0,0.0,0.0,0.0
0.019999999999999574,-0.0384048,-2.4399240000000004,-3.7411152,-9.047683200000002,0.0,0.0,0.0,0.0
0.040000000000000036,-0.11948160000000001,-2.6566368,-3.4158936000000004,-9.2013024,0.0,0.0,0.0,0.0
0.05999999999999961,-0.19872959999999998,-2.6023824,-3.4698432,-9.047683200000002,0.0,0.0,0.0,0.0
0.08000000000000007,-0.0633984,-2.3856696,-3.578352,-9.1244928,0.0,0.0,0.0,0.0
0.09999999999999964,-0.1167384,-2.8736544000000004,-3.4158936000000004,-9.2778072,0.0,0.0,0.0,0.0
0.1200000000000001,-0.0085344,-2.7651456,-3.3073848000000003,-9.2013024,0.0,0.0,0.0,0.0
0.13999999999999968,0.14478000000000002,-2.3856696,-3.4698432,-9.2778072,0.0,0.0,0.0,0.0
0.16000000000000014,0.17861280000000004,-2.7651456,-3.4158936000000004,-9.1244928,0.0,0.0,0.0,0.0
0.17999999999999972,0.2685288,-2.6566368,-3.4158936000000004,-9.1244928,0.0,0.0,0.0,0.0
0.20000000000000018,0.1115568,-2.3314152,-3.5240976,-9.2778072,0.0,0.0,0.0,0.0
0.21999999999999975,0.0368808,-2.6566368,-3.4158936000000004,-9.1244928,0.0,0.0,0.0,0.0
0.2400000000000002,0.1274064,-2.6566368,-3.5240976,-9.2013024,0.0,0.0,0.0,0.0
0.2599999999999998,0.14721840000000003,-2.4941784,-3.578352,-9.1244928,0.0,0.0,0.0,0.0
0.28000000000000025,0.3755136,-2.4941784,-3.3616392,-9.047683200000002,0.0,0.0,0.0,0.0
0.2999999999999998,0.3188208,-2.7108912000000003,-3.4698432,-9.2013024,0.0,0.0,0.0,0.0
0.3200000000000003,0.46939200000000003,-2.4399240000000004,-3.5240976,-9.1244928,0.0,0.0,0.0,0.0
0.33999999999999986,0.37917120000000004,-2.6566368,-3.4158936000000004,-9.1244928,0.0,0.0,0.0,0.0
0.3600000000000003,0.4166616,-2.9279088,-3.2531304000000003,-9.2013024,0.0,0.0,0.0,0.0
0.3799999999999999,0.55626,-2.4941784,-3.3616392,-9.1244928,0.0,0.0,0.0,0.0
0.40000000000000036,0.5077968,-2.6566368,-3.4158936000000004,-9.1244928,0.0,0.0,0.0,0.0
0.41999999999999993,0.4779264,-2.7651456,-3.4158936000000004,-9.2013024,0.0,0.0,0.0,0.0
0.4400000000000004,0.31516320000000003,-2.548128,-3.4158936000000004,-9.2013024,0.0,0.0,0.0,0.0
0.45999999999999996,0.0341376,-2.7651456,-3.4158936000000004,-9.2013024,0.0,0.0,0.0,0.0
0.4800000000000004,-0.0188976,-2.6566368,-3.4158936000000004,-9.047683200000002,0.0,0.0,0.0,0.0
0.5,0.0179832,-2.6023824,-3.4698432,-9.047683200000002,0.0,0.0,0.0,0.0
0.52,0.26578560000000007,-2.6023824,-3.4698432,-9.2013024,0.0,0.0,0.0,0.0
0.54,0.16946880000000003,-2.7108912000000003,-3.4698432,-9.1244928,0.0,0.0,0.0,0.0
0.56,0.2612136,-2.4399240000000004,-3.5240976,-9.1244928,0.0,0.0,0.0,0.0
0.5800000000000001,0.45079919999999996,-2.548128,-3.5240976,-9.1244928,0.0,0.0,0.0,0.0
0.6000000000000001,0.5172456,-2.7651456,-3.3073848000000003,-9.1244928,0.0,0.0,0.0,0.0
0.6200000000000001,0.6510528000000001,-2.548128,-3.4158936000000004,-9.2013024,0.0,0.0,0.0,0.0
0.6400000000000001,0.6324599999999999,-2.6566368,-3.4158936000000004,-9.1244928,0.0,0.0,0.0,0.0
0.6600000000000001,0.4407408,-2.6023824,-3.4698432,-9.1244928,0.0,0.0,0.0,0.0
0.6800000000000002,0.4224528,-2.6023824,-3.3616392,-9.2778072,0.0,0.0,0.0,0.0
0.7000000000000002,0.10088880000000001,-2.6023824,-3.3616392,-9.2778072,0.0,0.0,0.0,0.0
0.7200000000000002,0.15057120000000002,-2.7108912000000003,-3.2531304000000003,-9.1244928,0.0,0.0,0.0,0.0
0.7400000000000002,-0.0362712,-2.4399240000000004,-3.4158936000000004,-9.2013024,0.0,0.0,0.0,0.0
0.7599999999999998,-0.23073359999999998,-2.548128,-3.5240976,-9.047683200000002,0.0,0.0,0.0,0.0
0.7799999999999998,-0.18562320000000002,-2.6023824,-3.4698432,-9.1244928,0.0,0.0,0.0,0.0
0.7999999999999998,0.07924800000000001,-2.548128,-3.5240976,-9.047683200000002,0.0,0.0,0.0,0.0
0.8199999999999998,0.0783336,-2.548128,-3.4158936000000004,-9.2778072,0.0,0.0,0.0,0.0
0.8399999999999999,0.011887200000000002,-2.548128,-3.4158936000000004,-9.1244928,0.0,0.0,0.0,0.0
0.8599999999999999,0.18105120000000002,-2.3856696,-3.578352,-8.971178400000001,0.0,0.0,0.0,0.0
0.8799999999999999,0.2490216,-2.548128,-3.5240976,-9.1244928,0.0,0.0,0.0,0.0
0.8999999999999999,0.3874008,-2.6023824,-3.3616392,-9.1244928,0.0,0.0,0.0,0.0
0.9199999999999999,0.5291328000000001,-2.6023824,-3.4698432,-9.2013024,0.0,0.0,0.0,0.0
0.94,0.41056560000000003,-2.548128,-3.4158936000000004,-9.1244928,0.0,0.0,0.0,0.0
0.96,0.583692,-2.6023824,-3.3616392,-9.2013024,0.0,0.0,0.0,0.0
0.98,0.758952,-2.6023824,-3.3616392,-9.2013024,0.0,0.0,0.0,0.0
1.0,0.62484,-2.548128,-3.5240976,-9.1244928,0.0,0.0,0.0,0.0
1.02,0.5407152000000001,-2.548128,-3.4158936000000004,-9.1244928,0.0,0.0,0.0,0.0
1.04,0.5309616,-2.548128,-3.4158936000000004,-9.2013024,0.0,0.0,0.0,0.0
1.06,0.6196584,-2.6023824,-3.3616392,-9.1244928,0.0,0.0,0.0,0.0
1.08,0.6842760000000001,-2.6566368,-3.5240976,-9.1244928,0.0,0.0,0.0,0.0
1.1,0.3435096,-2.548128,-3.5240976,-9.047683200000002,0.0,0.0,0.0,0.0
1.12,0.237744,-2.6023824,-3.578352,-9.1244928,0.0,0.0,0.0,0.0
1.1400000000000001,0.22524720000000004,-2.6023824,-3.4698432,-9.2013024,0.0,0.0,0.0,0.0
1.1600000000000001,0.21976080000000003,-2.6023824,-3.3616392,-9.2778072,0.0,0.0,0.0,0.0
1.1800000000000002,0.20452080000000003,-2.6023824,-3.3616392,-9.1244928,0.0,0.0,0.0,0.0
1.2000000000000002,0.1618488,-2.6023824,-3.3616392,-9.1244928,0.0,0.0,0.0,0.0
1.2200000000000002,0.2676144,-2.7108912000000003,-3.3616392,-9.1244928,0.0,0.0,0.0,0.0
1.2400000000000002,0.28956,-2.548128,-3.4158936000000004,-9.1244928,0.0,0.0,0.0,0.0
1.2599999999999998,0.24384000000000003,-2.7108912000000003,-3.4698432,-9.1244928,0.0,0.0,0.0,0.0
1.2799999999999998,0.17678400000000002,-2.6566368,-3.3073848000000003,-9.2013024,0.0,0.0,0.0,0.0
1.2999999999999998,0.19354800000000003,-2.4399240000000004,-3.4158936000000004,-9.1244928,0.0,0.0,0.0,0.0
1.3199999999999998,0.2962656,-2.7108912000000003,-3.578352,-9.1244928,0.0,0.0,0.0,0.0
1.3399999999999999,0.4953,-2.6566368,-3.4158936000000004,-9.1244928,0.0,0.0,0.0,0.0
1.3599999999999999,0.6327648,-2.4399240000000004,-3.4158936000000004,-9.2013024,0.0,0.0,0.0,0.0
1.38,0.5522976,-2.4941784,-3.4698432,-9.2013024,0.0,0.0,0.0,0.0
1.4,0.6361176,-2.6023824,-3.3616392,-9.1244928,0.0,0.0,0.0,0.0
1.42,0.5769864,-2.3856696,-3.578352,-9.1244928,0.0,0.0,0.0,0.0
1.44,0.4943856,-2.6023824,-3.4698432,-9.1244928,0.0,0.0,0.0,0.0
1.46,0.6748272000000001,-2.6566368,-3.4158936000000004,-9.2013024,0.0,0.0,0.0,0.0
1.48,0.7269479999999999,-2.4941784,-3.3616392,-9.1244928,0.0,0.0,0.0,0.0
1.5,0.7135368,-2.6566368,-3.4158936000000004,-9.2013024,0.0,0.0,0.0,0.0
1.52,1.0137648000000001,-2.6566368,-3.3073848000000003,-9.1244928,0.0,0.0,0.0,0.0
1.54,1.0600943999999999,-2.7108912000000003,-3.2531304000000003,-9.2013024,0.0,0.0,0.0,0.0
1.56,0.7988808000000001,-2.6023824,-3.2531304000000003,-9.2013024,0.0,0.0,0.0,0.0
1.58,0.6324599999999999,-2.6023824,-3.3616392,-9.1244928,0.0,0.0,0.0,0.0
1.6,0.5498592,-2.3856696,-3.578352,-9.2013024,0.0,0.0,0.0,0.0
1.62,0.5013960000000001,-2.548128,-3.4158936000000004,-9.1244928,0.0,0.0,0.0,0.0
1.6400000000000001,0.5294376,-2.548128,-3.5240976,-9.047683200000002,0.0,0.0,0.0,0.0
1.6600000000000001,0.3709416,-2.6023824,-3.4698432,-9.047683200000002,0.0,0.0,0.0,0.0
1.6800000000000002,0.16916399999999998,-2.548128,-3.5240976,-9.2013024,0.0,0.0,0.0,0.0
1.7000000000000002,0.050292,-2.4941784,-3.4698432,-9.2013024,0.0,0.0,0.0,0.0
1.7200000000000002,-0.0332232,-2.548128,-3.5240976,-9.047683200000002,0.0,0.0,0.0,0.0
1.7400000000000002,0.2176272,-2.7108912000000003,-3.578352,-9.1244928,0.0,0.0,0.0,0.0
1.7599999999999998,0.3127248,-2.7651456,-3.3073848000000003,-9.1244928,0.0,0.0,0.0,0.0
1.7799999999999998,0.0902208,-2.6566368,-3.198876,-9.2013024,0.0,0.0,0.0,0.0
1.7999999999999998,0.23896320000000001,-2.6023824,-3.3616392,-9.1244928,0.0,0.0,0.0,0.0
1.8199999999999998,0.29657039999999996,-2.6566368,-3.4158936000000004,-9.1244928,0.0,0.0,0.0,0.0
1.8399999999999999,0.37978080000000003,-2.7651456,-3.4158936000000004,-9.2013024,0.0,0.0,0.0,0.0
1.8599999999999999,0.43037759999999997,-2.4941784,-3.3616392,-9.2013024,0.0,0.0,0.0,0.0
1.88,0.4733544,-2.548128,-3.5240976,-9.2013024,0.0,0.0,0.0,0.0
1.9,0.4489704,-2.548128,-3.4158936000000004,-9.2013024,0.0,0.0,0.0,0.0
1.92,0.3590544,-2.4941784,-3.4698432,-9.1244928,0.0,0.0,0.0,0.0
1.94,0.3700272,-2.548128,-3.4158936000000004,-9.2013024,0.0,0.0,0.0,0.0
1.96,0.43190160000000005,-2.548128,-3.5240976,-9.1244928,0.0,0.0,0.0,0.0
1.98,0.4931664,-2.548128,-3.5240976,-9.2013024,0.0,0.0,0.0,0.0
2.0,0.46817280000000006,-2.6023824,-3.4698432,-9.1244928,0.0,0.0,0.0,0.0
2.02,0.3995928,-2.6566368,-3.4158936000000004,-9.2013024,0.0,0.0,0.0,0.0
2.04,0.6626352,-2.6566368,-3.4158936000000004,-9.047683200000002,0.0,0.0,0.0,0.0
2.06,0.7461504,-2.6023824,-3.4698432,-9.1244928,0.0,0.0,0.0,0.0
2.08,0.7507224,-2.6566368,-3.4158936000000004,-9.2013024,0.0,0.0,0.0,0.0
2.1,0.7342632,-2.6566368,-3.3073848000000003,-9.2013024,0.0,0.0,0.0,0.0
2.12,0.7799832000000001,-2.4941784,-3.4698432,-9.047683200000002,0.0,0.0,0.0,0.0
2.14,0.6952488000000001,-2.548128,-3.4158936000000004,-9.1244928,0.0,0.0,0.0,0.0
2.16,0.618744,-2.548128,-3.4158936000000004,-9.2013024,0.0,0.0,0.0,0.0
2.18,0.4072128,-2.6023824,-3.4698432,-9.1244928,0.0,0.0,0.0,0.0
2.2,0.0874776,-2.548128,-3.5240976,-9.047683200000002,0.0,0.0,0.0,0.0
2.22,-0.1520952,-2.548128,-3.5240976,-9.047683200000002,0.0,0.0,0.0,0.0
2.24,0.05334,-2.548128,-3.4158936000000004,-9.2013024,0.0,0.0,0.0,0.0
2.26,0.262128,-2.548128,-3.5240976,-9.2013024,0.0,0.0,0.0,0.0
2.28,-0.0185928,-2.7108912000000003,-3.3616392,-9.2778072,0.0,0.0,0.0,0.0
2.3,0.0694944,-2.6566368,-3.4158936000000004,-9.1244928,0.0,0.0,0.0,0.0
2.32,-0.0192024,-2.7108912000000003,-3.3616392,-9.2013024,0.0,0.0,0.0,0.0
2.34,-0.0112776,-2.6566368,-3.198876,-9.2013024,0.0,0.0,0.0,0.0
2.36,0.0356616,-2.7108912000000003,-3.2531304000000003,-9.1244928,0.0,0.0,0.0,0.0
2.38,0.013716,-2.7108912000000003,-3.3616392,-9.1244928,0.0,0.0,0.0,0.0
2.4,0.18348960000000003,-2.4941784,-3.3616392,-9.2013024,0.0,0.0,0.0,0.0
2.42,0.202692,-2.4941784,-3.4698432,-9.1244928,0.0,0.0,0.0,0.0
2.44,0.28620720000000005,-2.548128,-3.6326064,-9.047683200000002,0.0,0.0,0.0,0.0
2.46,0.400812,-2.548128,-3.5240976,-9.2013024,0.0,0.0,0.0,0.0
2.48,0.41696639999999996,-2.548128,-3.5240976,-9.047683200000002,0.0,0.0,0.0,0.0
2.5,0.42641520000000005,-2.4941784,-3.578352,-9.047683200000002,0.0,0.0,0.0,0.0
2.52,0.3243072,-2.6023824,-3.578352,-9.1244928,0.0,0.0,0.0,0.0
2.54,0.5407152000000001,-2.6023824,-3.4698432,-9.1244928,0.0,0.0,0.0,0.0
2.56,0.33832799999999996,-2.6023824,-3.3616392,-9.1244928,0.0,0.0,0.0,0.0
2.58,0.17556480000000002,-2.7108912000000003,-3.3616392,-9.2778072,0.0,0.0,0.0,0.0
2.6,-0.005486399999999999,-2.548128,-3.4158936000000004,-9.2778072,0.0,0.0,0.0,0.0
2.62,0.0265176,-2.7651456,-3.198876,-9.2013024,0.0,0.0,0.0,0.0
2.6399999999999997,0.0027432000000000025,-2.7651456,-3.198876,-9.1244928,0.0,0.0,0.0,0.0
2.66,0.010668000000000002,-2.6023824,-3.3616392,-9.1244928,0.0,0.0,0.0,0.0
2.6799999999999997,-0.0816864,-2.548128,-3.5240976,-9.2013024,0.0,0.0,0.0,0.0
2.7,0.134112,-2.548128,-3.4158936000000004,-9.2013024,0.0,0.0,0.0,0.0
2.7199999999999998,0.12435840000000002,-2.6023824,-3.578352,-9.1244928,0.0,0.0,0.0,0.0
2.74,0.011887200000000002,-2.6023824,-3.578352,-9.047683200000002,0.0,0.0,0.0,0.0
2.76,0.20299679999999998,-2.548128,-3.5240976,-9.1244928,0.0,0.0,0.0,0.0
2.7800000000000002,0.20086320000000002,-2.4399240000000004,-3.5240976,-9.1244928,0.0,0.0,0.0,0.0
2.8,0.3294888,-2.6023824,-3.578352,-9.047683200000002,0.0,0.0,0.0,0.0
2.8200000000000003,0.4660392,-2.7651456,-3.5240976,-9.047683200000002,0.0,0.0,0.0,0.0
2.84,0.44988480000000003,-2.6566368,-3.3073848000000003,-9.1244928,0.0,0.0,0.0,0.0
2.8600000000000003,0.4062984,-2.6023824,-3.2531304000000003,-9.2013024,0.0,0.0,0.0,0.0
2.88,0.352044,-2.6566368,-3.3073848000000003,-9.2013024,0.0,0.0,0.0,0.0
2.9,0.374904,-2.6566368,-3.4158936000000004,-9.2778072,0.0,0.0,0.0,0.0
2.92,0.406908,-2.6023824,-3.2531304000000003,-9.2013024,0.0,0.0,0.0,0.0
2.94,0.4645152,-2.6566368,-3.3073848000000003,-9.2778072,0.0,0.0,0.0,0.0
2.96,0.4852416,-2.6023824,-3.3616392,-9.1244928,0.0,0.0,0.0,0.0
2.98,0.4812792,-2.4399240000000004,-3.5240976,-9.2013024,0.0,0.0,0.0,0.0
3.0,0.3081528,-2.4941784,-3.3616392,-9.2778072,0.0,0.0,0.0,0.0
3.02,0.25146,-2.548128,-3.6326064,-9.047683200000002,0.0,0.0,0.0,0.0
3.04,0.2557272,-2.4941784,-3.6868608000000003,-8.971178400000001,0.0,0.0,0.0,0.0
3.06,0.28072080000000005,-2.6023824,-3.4698432,-9.1244928,0.0,0.0,0.0,0.0
3.08,0.1807464,-2.7108912000000003,-3.3616392,-9.047683200000002,0.0,0.0,0.0,0.0
3.1,-0.029260800000000003,-2.548128,-3.6326064,-9.1244928,0.0,0.0,0.0,0.0
3.12,-0.08900160000000001,-2.6566368,-3.4158936000000004,-9.1244928,0.0,0.0,0.0,0.0
3.1399999999999997,-0.009448799999999999,-2.7108912000000003,-3.2531304000000003,-9.2013024,0.0,0.0,0.0,0.0
3.16,0.0454152,-2.548128,-3.4158936000000004,-9.2013024,0.0,0.0,0.0,0.0
3.1799999999999997,0.19659600000000002,-2.548128,-3.4158936000000004,-9.2013024,0.0,0.0,0.0,0.0
3.2,0.10119360000000001,-2.7108912000000003,-3.2531304000000003,-9.1244928,0.0,0.0,0.0,0.0
3.2199999999999998,0.19202399999999997,-2.548128,-3.3073848000000003,-9.2013024,0.0,0.0,0.0,0.0
3.24,0.3371088,-2.4941784,-3.578352,-9.2013024,0.0,0.0,0.0,0.0
3.26,0.43007280000000003,-2.6023824,-3.578352,-9.047683200000002,0.0,0.0,0.0,0.0
3.2800000000000002,0.3675888,-2.548128,-3.4158936000000004,-9.2013024,0.0,0.0,0.0,0.0
3.3,0.5111496000000001,-2.6023824,-3.4698432,-9.1244928,0.0,0.0,0.0,0.0
3.3200000000000003,0.3675888,-2.6566368,-3.6326064,-9.2013024,0.0,0.0,0.0,0.0
3.34,0.5169408,-2.7108912000000003,-3.578352,-9.047683200000002,0.0,0.0,0.0,0.0
3.3600000000000003,0.5657088,-2.4941784,-3.578352,-9.2013024,0.0,0.0,0.0,0.0
3.38,0.765048,-2.4941784,-3.4698432,-9.2013024,0.0,0.0,0.0,0.0
3.4,0.8177784,-2.6566368,-3.3073848000000003,-9.1244928,0.0,0.0,0.0,0.0
3.42,0.8281416,-2.548128,-3.4158936000000004,-9.2013024,0.0,0.0,0.0,0.0
3.44,0.7299960000000001,-2.4941784,-3.3616392,-9.2013024,0.0,0.0,0.0,0.0
3.46,0.673608,-2.548128,-3.3073848000000003,-9.2013024,0.0,0.0,0.0,0.0
3.48,0.7406640000000001,-2.4941784,-3.3616392,-9.2013024,0.0,0.0,0.0,0.0
3.5,0.5007864000000001,-2.548128,-3.3073848000000003,-9.1244928,0.0,0.0,0.0,0.0
3.52,0.4428744,-2.6566368,-3.198876,-9.2013024,0.0,0.0,0.0,0.0
3.54,0.3325368,-2.548128,-3.4158936000000004,-9.1244928,0.0,0.0,0.0,0.0
3.56,0.2993136,-2.6023824,-3.578352,-9.047683200000002,0.0,0.0,0.0,0.0
3.58,0.14478000000000002,-2.6023824,-3.4698432,-9.1244928,0.0,0.0,0.0,0.0
3.6,0.38221920000000004,-2.6023824,-3.578352,-9.1244928,0.0,0.0,0.0,0.0
3.62,0.7293864,-2.7108912000000003,-3.6868608000000003,-9.047683200000002,0.0,0.0,0.0,0.0
3.64,0.7275576,-2.7108912000000003,-3.6868608000000003,-9.1244928,0.0,0.0,0.0,0.0
3.66,0.8278367999999999,-2.4941784,-3.3616392,-9.2013024,0.0,0.0,0.0,0.0
3.68,0.8497823999999999,-2.548128,-3.4158936000000004,-9.2778072,0.0,0.0,0.0,0.0
3.7,0.7964424,-2.6023824,-3.3616392,-9.2013024,0.0,0.0,0.0,0.0
3.7199999999999998,0.7290816,-2.4399240000000004,-3.3073848000000003,-9.2013024,0.0,0.0,0.0,0.0
3.74,0.7037832,-2.548128,-3.3073848000000003,-9.1244928,0.0,0.0,0.0,0.0
3.76,0.6013704,-2.4941784,-3.4698432,-9.2013024,0.0,0.0,0.0,0.0
3.7800000000000002,0.32004000000000005,-2.4941784,-3.3616392,-9.2013024,0.0,0.0,0.0,0.0
3.8,0.23591520000000002,-2.6023824,-3.3616392,-9.3546168,0.0,0.0,0.0,0.0
3.82,0.42672,-2.6566368,-3.5240976,-9.047683200000002,0.0,0.0,0.0,0.0
3.84,0.3502152,-2.7651456,-3.5240976,-9.1244928,0.0,0.0,0.0,0.0
3.86,0.3285744,-2.548128,-3.6326064,-9.047683200000002,0.0,0.0,0.0,0.0
3.88,0.21732240000000003,-2.4399240000000004,-3.4158936000000004,-9.1244928,0.0,0.0,0.0,0.0
3.9,0.1862328,-2.548128,-3.6326064,-9.2013024,0.0,0.0,0.0,0.0
3.92,0.18105120000000002,-2.7108912000000003,-3.578352,-9.1244928,0.0,0.0,0.0,0.0
3.94,0.3221736,-2.6023824,-3.4698432,-9.1244928,0.0,0.0,0.0,0.0
3.96,0.3227832,-2.4399240000000004,-3.3073848000000003,-9.2013024,0.0,0.0,0.0,0.0
3.98,0.27614879999999997,-2.548128,-3.3073848000000003,-9.3546168,0.0,0.0,0.0,0.0
4.0,0.06461760000000001,-2.6023824,-3.4698432,-9.047683200000002,0.0,0.0,0.0,0.0
4.02,0.1466088,-2.3856696,-3.4698432,-9.2013024,0.0,0.0,0.0,0.0
4.04,0.18105120000000002,-2.6566368,-3.3073848000000003,-9.2013024,0.0,0.0,0.0,0.0
4.06,0.26395680000000005,-2.6566368,-3.4158936000000004,-9.2013024,0.0,0.0,0.0,0.0
4.08,0.2776728,-2.6023824,-3.4698432,-9.1244928,0.0,0.0,0.0,0.0
4.1,0.4407408,-2.8194000000000004,-3.3616392,-9.047683200000002,0.0,0.0,0.0,0.0
4.12,0.2319528,-2.6023824,-3.4698432,-9.047683200000002,0.0,0.0,0.0,0.0
4.14,0.13776960000000002,-2.548128,-3.5240976,-9.2013024,0.0,0.0,0.0,0.0
4.16,0.1109472,-2.6023824,-3.6868608000000003,-9.047683200000002,0.0,0.0,0.0,0.0
4.18,0.04297680000000001,-2.4941784,-3.4698432,-9.1244928,0.0,0.0,0.0,0.0
4.2,-0.0252984,-2.4399240000000004,-3.4158936000000004,-9.2013024,0.0,0.0,0.0,0.0
4.22,0.029260800000000003,-2.548128,-3.4158936000000004,-9.2013024,0.0,0.0,0.0,0.0
4.24,-0.0627888,-2.4399240000000004,-3.5240976,-9.1244928,0.0,0.0,0.0,0.0
4.26,-0.24444960000000002,-2.4941784,-3.3616392,-9.2013024,0.0,0.0,0.0,0.0
4.28,-0.045720000000000004,-2.548128,-3.3073848000000003,-9.2013024,0.0,0.0,0.0,0.0
4.3,0.1993392,-2.548128,-3.3073848000000003,-9.047683200000002,0.0,0.0,0.0,0.0
4.32,0.35935920000000005,-2.7108912000000003,-3.3616392,-9.1244928,0.0,0.0,0.0,0.0
4.34,0.4672584,-2.8194000000000004,-3.1446216000000002,-9.2778072,0.0,0.0,0.0,0.0
4.36,0.5971032000000001,-2.6023824,-3.4698432,-9.2013024,0.0,0.0,0.0,0.0
4.38,0.5681472,-2.7108912000000003,-3.6868608000000003,-9.047683200000002,0.0,0.0,0.0,0.0
4.4,0.4666488,-2.6023824,-3.3616392,-9.2013024,0.0,0.0,0.0,0.0
4.42,0.24444960000000002,-2.548128,-3.5240976,-9.1244928,0.0,0.0,0.0,0.0
4.44,0.1850136,-3.3073848000000003,-3.957828,-10.657941600000001,0.0,0.0,0.0,0.0
4.46,0.2551176,-2.8194000000000004,-3.4698432,-9.2013024,0.0,0.0,0.0,0.0
4.48,0.29413199999999995,-2.4399240000000004,-3.3073848000000003,-8.971178400000001,0.0,0.0,0.0,0.0
4.5,0.5394960000000001,-2.4941784,-3.4698432,-8.971178400000001,0.0,0.0,0.0,0.0
4.52,0.7089648000000001,-2.3856696,-3.6868608000000003,-9.2013024,0.0,0.0,0.0,0.0
4.54,0.6031992,-2.7108912000000003,-3.4698432,-9.2013024,0.0,0.0,0.0,0.0
4.56,0.6132576000000001,-2.548128,-3.3073848000000003,-9.2013024,0.0,0.0,0.0,0.0
4.58,0.5812536,-2.4941784,-3.2531304000000003,-9.2778072,0.0,0.0,0.0,0.0
4.6,0.38465760000000004,-8.8919304,-7.2652128,-39.7949928,0.0,0.0,0.0,0.0
4.62,0.0557784,-4.7713392,-1.8434304000000001,-11.7314472,0.0,0.0,0.0,0.0
4.64,0.1395984,-6.018276,-3.7411152,-10.811256,0.0,0.0,0.0,0.0
4.66,-0.0225552,-6.7229735999999995,-6.0725304,-15.488716800000002,0.0,0.0,0.0,0.0
4.68,-0.1825752,-4.5000672,-2.4399240000000004,-5.137404,0.0,0.0,0.0,0.0
4.7,-0.07589520000000001,-3.3616392,-2.6023824,-11.1181896,0.0,0.0,0.0,0.0
4.72,-0.0326136,-2.4399240000000004,-3.3073848000000003,-12.804952800000002,0.0,0.0,0.0,0.0
4.74,0.11430000000000001,-2.1143976,-4.1748456,-10.1979984,0.0,0.0,0.0,0.0
4.76,0.23804879999999998,-0.7589520000000001,-3.4698432,-7.0542912,0.0,0.0,0.0,0.0
4.78,0.23408640000000003,-2.0601432,-3.7953696000000003,-7.9744824,0.0,0.0,0.0,0.0
4.8,0.16520160000000003,-3.3073848000000003,-4.8252888,-7.130796,0.0,0.0,0.0,0.0
4.82,-0.0399288,-3.4698432,-2.8194000000000004,-9.6612456,0.0,0.0,0.0,0.0
4.84,-0.0987552,-2.6023824,-2.6023824,-8.8943688,0.0,0.0,0.0,0.0
4.86,0.3575304,-2.8194000000000004,-3.9035736000000005,-8.4344256,0.0,0.0,0.0,0.0
4.88,0.35874960000000006,-2.3314152,-4.0663368,-8.8943688,0.0,0.0,0.0,0.0
4.9,0.15148560000000003,-28.247644800000003,-60.670135200000004,-157.03296000000003,0.0,0.0,0.0,0.0
4.92,1.0375392,-35.6213664,-186.456828,-157.03296000000003,0.0,0.0,0.0,0.0
4.94,1.2649200000000003,-51.561492,-170.5167024,-157.03296000000003,0.0,0.0,0.0,0.0
4.96,1.5182088000000002,-29.603090400000003,-192.47479920000004,-157.03296000000003,0.0,0.0,0.0,0.0
4.98,1.7974056000000003,-64.4112504,-157.666944,-157.03296000000003,0.0,0.0,0.0,0.0
5.0,2.68986,-33.6694272,-188.40846240000002,-157.03296000000003,0.0,0.0,0.0,0.0
5.02,4.5302424,-45.109485600000006,-176.96840400000002,-157.03296000000003,0.0,0.0,0.0,0.0
5.04,6.9131688,-47.603664,-174.47453040000002,-157.03296000000003,0.0,0.0,0.0,0.0
5.0600000000000005,9.578035200000002,-47.3866464,-174.6912432,-157.03296000000003,0.0,0.0,0.0,0.0
5.08,12.5751336,-48.90485520000001,-173.17333920000002,-157.03296000000003,0.0,0.0,0.0,0.0
5.1,16.0175448,-50.097842400000005,-171.980352,-157.03296000000003,0.0,0.0,0.0,0.0
5.12,19.941235199999998,-49.2300768,-172.8478128,-157.03296000000003,0.0,0.0,0.0,0.0
5.14,24.1672872,-43.80829440000001,-178.2699,-157.03296000000003,0.0,0.0,0.0,0.0
5.16,28.724961600000004,-51.6157464,-170.462448,-157.03296000000003,0.0,0.0,0.0,0.0
5.18,33.4935576,-46.193964,-175.8842304,-157.03296000000003,0.0,0.0,0.0,0.0
5.2,38.94582,-43.645836,-178.43235840000003,-157.03296000000003,0.0,0.0,0.0,0.0
5.22,44.3188344,-33.0732384,-189.00495600000002,-157.03296000000003,0.0,0.0,0.0,0.0
5.24,50.012498400000005,-38.820242400000005,-183.25795200000002,-157.03296000000003,0.0,0.0,0.0,0.0
5.26,55.711344000000004,-52.971192,-169.1070024,-157.03296000000003,0.0,0.0,0.0,0.0
5.28,61.7530896,-54.7061136,-167.371776,-157.03296000000003,0.0,0.0,0.0,0.0
5.3,68.4202848,-48.7423968,-173.3357976,-157.03296000000003,0.0,0.0,0.0,0.0
5.32,74.79243360000001,-45.4892664,-176.588928,-157.03296000000003,0.0,0.0,0.0,0.0
5.34,81.17098320000001,-44.025312,-178.05288240000002,-157.03296000000003,0.0,0.0,0.0,0.0
5.36,87.7394232,-56.06186400000001,-166.01633040000002,-157.03296000000003,0.0,0.0,0.0,0.0
5.38,94.5035448,-63.001550400000006,-159.0763392,-157.03296000000003,0.0,0.0,0.0,0.0
5.4,101.79192240000002,-64.4112504,-157.666944,-157.03296000000003,0.0,0.0,0.0,0.0
5.42,109.20039120000001,-44.6218056,-160.1065632,-157.03296000000003,0.0,0.0,0.0,0.0
5.4399999999999995,116.7137112,-42.8323248,-131.3166792,-157.03296000000003,0.0,0.0,0.0,0.0
5.46,124.37790720000001,-37.7900184,-136.1422728,-157.03296000000003,0.0,0.0,0.0,0.0
5.48,132.1469544,-6.777228,-125.6239296,-157.03296000000003,0.0,0.0,0.0,0.0
5.5,139.9355088,-54.380892,-73.7911656,-157.03296000000003,0.0,0.0,0.0,0.0
5.52,148.058124,-26.8921992,-78.61645440000001,-157.03296000000003,0.0,0.0,0.0,0.0
5.54,156.19354080000002,-29.9825664,-102.8520168,-157.03296000000003,0.0,0.0,0.0,0.0
5.5600000000000005,164.17747200000005,29.223614400000002,-40.3927056,-5.5205376,0.0,0.0,0.0,0.0
5.58,171.60240000000002,-17.2413168,-34.2659208,-69.698616,0.0,0.0,0.0,0.0
5.6,179.1916152,-37.7900184,-31.0670448,-65.6347176,0.0,0.0,0.0,0.0
5.62,186.69670560000003,26.458468800000002,-25.591008,-51.909878400000004,0.0,0.0,0.0,0.0
5.64,194.44350240000003,-5.964021600000001,-10.3013256,-31.9741296,0.0,0.0,0.0,0.0
5.66,201.59380560000002,6.7229735999999995,-14.421916800000002,-36.8814096,0.0,0.0,0.0,0.0
5.68,208.53318720000004,9.379915200000001,-11.3315496,-13.111581600000001,0.0,0.0,0.0,0.0
5.7,215.35857360000003,-52.1579856,-4.012082400000001,-54.976776,0.0,0.0,0.0,0.0
5.72,222.1830456,19.193256,-10.4098344,-4.370527200000001,0.0,0.0,0.0,0.0
5.74,229.03830240000005,-7.3194672,-17.729301600000003,-39.7949928,0.0,0.0,0.0,0.0
5.76,235.41075600000002,6.1267848,-14.476171200000001,-22.9261416,0.0,0.0,0.0,0.0
5.78,241.44762480000003,-3.578352,-4.3376088,-5.367223200000001,0.0,0.0,0.0,0.0
5.8,247.32477840000004,1.9519392,-3.9035736000000005,-48.536047200000006,0.0,0.0,0.0,0.0
5.82,253.10470080000005,-11.3315496,-17.729301600000003,26.683411200000002,0.0,0.0,0.0,0.0
5.84,258.63529680000005,-17.5668432,7.6989432,7.5142344,0.0,0.0,0.0,0.0
5.86,263.98301280000004,7.5364848,-5.1508152,12.038076,0.0,0.0,0.0,0.0
5.88,269.02318560000003,12.8497584,-1.1387328,-6.0572904,0.0,0.0,0.0,0.0
5.9,273.8588376,21.0366864,7.6989432,15.0284688,0.0,0.0,0.0,0.0
5.92,278.61158400000005,30.850332,-1.030224,25.533096,0.0,0.0,0.0,0.0
5.9399999999999995,283.2210744,-20.8199736,2.0601432,26.453287200000002,0.0,0.0,0.0,0.0
5.96,287.67024000000004,28.5731712,3.3073848000000003,35.2711512,0.0,0.0,0.0,0.0
5.98,292.19347200000004,22.771608,10.4098344,17.482108800000002,0.0,0.0,0.0,0.0
6.0,296.3527728,12.361773600000001,-4.8795432000000005,36.6512856,0.0,0.0,0.0,0.0
6.02,300.23744880000004,4.445812800000001,29.2778688,24.5364,0.0,0.0,0.0,0.0
6.04,303.62530080000005,-10.355580000000002,45.814488000000004,45.0089016,0.0,0.0,0.0,0.0
6.0600000000000005,306.4279368,3.7411152,29.6573448,36.574476000000004,0.0,0.0,0.0,0.0
6.08,307.79069760000004,33.181747200000004,34.6996512,72.4591896,0.0,0.0,0.0,0.0
6.1,310.72317840000005,45.814488000000004,47.00717040000001,80.4333672,0.0,0.0,0.0,0.0
6.12,301.7599248,104.3159712,117.6537144,132.34324560000002,0.0,0.0,0.0,0.0
6.14,302.34117840000005,36.326368800000004,80.7854112,74.0691432,0.0,0.0,0.0,0.0
6.16,302.5618536,23.04288,45.7059792,85.95420960000001,0.0,0.0,0.0,0.0
6.18,302.42225520000005,9.3256608,35.458908,77.28966,0.0,0.0,0.0,0.0
6.2,301.92207840000003,13.229234400000001,46.085455200000006,85.34064719999999,0.0,0.0,0.0,0.0
6.22,314.459112,13.608710400000001,39.633448800000004,96.07539840000001,0.0,0.0,0.0,0.0
6.24,315.4445304,15.614904,44.350533600000006,85.4174568,0.0,0.0,0.0,0.0
6.26,316.23762000000005,-1.8976848000000002,44.187770400000005,77.1363456,0.0,0.0,0.0,0.0
6.28,315.9492792,9.0001344,27.2177256,77.44297440000001,0.0,0.0,0.0,0.0
6.3,312.4858368000001,8.6206584,32.260032,76.90622160000001,0.0,0.0,0.0,0.0
6.32,306.8595336,12.9040128,32.3139816,74.2992672,0.0,0.0,0.0,0.0
6.34,300.0448152,9.6508824,31.988760000000003,72.53569440000001,0.0,0.0,0.0,0.0
6.36,294.308784,20.494447200000003,34.2659208,47.5393512,0.0,0.0,0.0,0.0
6.38,290.6414304,29.006901600000003,55.8991008,108.5734176,0.0,0.0,0.0,0.0
6.4,286.55832960000004,21.958401600000002,31.609284000000002,64.9446504,0.0,0.0,0.0,0.0
6.42,282.0597864,15.3978864,24.181307999999998,65.7115272,0.0,0.0,0.0,0.0
6.4399999999999995,300.08200080000006,-19.193256,44.025312,55.666843199999995,0.0,0.0,0.0,0.0
6.46,311.8039992,-5.367528,46.8989664,60.03737040000001,0.0,0.0,0.0,0.0
6.48,318.5605008,2.3856696,50.856794400000005,66.1714704,0.0,0.0,0.0,0.0
6.5,321.22750080000003,4.012082400000001,51.72425520000001,64.5615168,0.0,0.0,0.0,0.0
6.52,321.08302560000004,0.1085088,41.205912,60.1909896,0.0,0.0,0.0,0.0
6.54,318.4105392,-3.0361128,44.675755200000005,62.4145056,0.0,0.0,0.0,0.0
6.5600000000000005,314.076588,20.982432000000003,45.27224880000001,53.29001280000001,0.0,0.0,0.0,0.0
6.58,308.6676072,2.0601432,25.265786400000003,60.267494400000004,0.0,0.0,0.0,0.0
6.6,302.7142536,-6.5605152,36.597336,48.076104,0.0,0.0,0.0,0.0
6.62,296.70115920000006,16.590873600000002,13.3377432,64.3313928,0.0,0.0,0.0,0.0
6.640000000000001,290.5265208,6.2349888,27.9224232,54.210204,0.0,0.0,0.0,0.0
6.66,284.6758848,-5.9097672,37.4647968,47.2324176,0.0,0.0,0.0,0.0
6.68,279.1504704,3.5240976,45.163740000000004,61.724438400000004,0.0,0.0,0.0,0.0
6.7,274.2608688,5.8555128,33.0732384,44.855587199999995,0.0,0.0,0.0,0.0
6.720000000000001,270.04030320000004,0.0542544,38.549275200000004,52.0631928,0.0,0.0,0.0,0.0
6.74,266.7042672,-9.596628,31.609284000000002,54.363518400000004,0.0,0.0,0.0,0.0
6.76,264.5026968,6.2892432000000005,31.229808,51.449630400000004,0.0,0.0,0.0,0.0
6.779999999999999,262.7723472,4.2833544,44.9470272,48.9959904,0.0,0.0,0.0,0.0
6.8,261.8698344,2.1686520000000002,15.9401256,51.909878400000004,0.0,0.0,0.0,0.0
6.82,261.91311600000006,12.8497584,30.7418232,42.708576,0.0,0.0,0.0,0.0
6.84,262.54283280000004,11.928043200000001,27.651456,50.299620000000004,0.0,0.0,0.0,0.0
6.859999999999999,264.17869440000004,21.958401600000002,23.4766104,37.801296,0.0,0.0,0.0,0.0
6.88,266.1150888,0.8132064000000001,27.9224232,44.3188344,0.0,0.0,0.0,0.0
6.9,268.60652400000004,11.3315496,29.9825664,44.5489584,0.0,0.0,0.0,0.0
6.92,271.55973120000004,2.3856696,27.000708,44.2423296,0.0,0.0,0.0,0.0
6.9399999999999995,274.8165192,-2.9279088,35.567112,44.0122056,0.0,0.0,0.0,0.0
6.96,278.8014744,7.427976000000001,25.3200408,40.791688799999996,0.0,0.0,0.0,0.0
6.98,282.55417200000005,-4.3915584,27.5972016,41.5585656,0.0,0.0,0.0,0.0
7.0,286.56442560000005,9.379915200000001,34.9709232,45.085711200000006,0.0,0.0,0.0,0.0
7.02,290.6959896,1.1926824,25.9162296,37.1112288,0.0,0.0,0.0,0.0
7.04,295.0101288,4.933797600000001,28.1394408,39.1049256,0.0,0.0,0.0,0.0
7.0600000000000005,299.43856800000003,6.1267848,22.392132000000004,32.9708256,0.0,0.0,0.0,0.0
7.08,303.65334240000004,17.9463192,20.6572104,34.7343984,0.0,0.0,0.0,0.0
7.1,308.0223456,1.0844784,26.8921992,38.1082296,0.0,0.0,0.0,0.0
7.12,312.2703432,5.0423064,27.8139144,32.894016,0.0,0.0,0.0,0.0
7.140000000000001,316.5716808,4.8795432000000005,18.542508,42.0185088,0.0,0.0,0.0,0.0
7.16,320.69806320000004,0.5422392,24.9405648,37.6479816,0.0,0.0,0.0,0.0
7.18,324.8238360000001,2.9818584,17.729301600000003,37.3413528,0.0,0.0,0.0,0.0
7.2,329.0767104000001,-13.554456,33.8321904,34.0443312,0.0,0.0,0.0,0.0
7.220000000000001,333.16926,-3.5240976,26.0789928,31.744005600000005,0.0,0.0,0.0,0.0
7.24,336.9676776,-2.548128,18.163032,37.3413528,0.0,0.0,0.0,0.0
7.26,340.72342320000007,1.9519392,19.7354952,35.1178368,0.0,0.0,0.0,0.0
7.279999999999999,344.474292,3.1446216000000002,26.241756000000002,31.8205104,0.0,0.0,0.0,0.0
7.3,348.42876720000004,0.37947600000000004,17.1870624,36.267847200000006,0.0,0.0,0.0,0.0
7.32,352.0333320000001,-6.1807343999999995,21.253704000000003,34.581084000000004,0.0,0.0,0.0,0.0
7.34,355.63576320000004,16.102888800000002,19.572732000000002,27.910231200000002,0.0,0.0,0.0,0.0
7.359999999999999,359.212896,9.976104,10.626852000000001,36.1913424,0.0,0.0,0.0,0.0
7.38,362.7208392,3.198876,22.609149600000002,30.977128800000003,0.0,0.0,0.0,0.0
7.4,366.34186320000003,-4.6628304,16.590873600000002,22.312884,0.0,0.0,0.0,0.0
7.42,369.62791200000004,1.1387328,13.7172192,34.581084000000004,0.0,0.0,0.0,0.0
7.4399999999999995,373.1154336,2.3314152,19.0304928,28.446984,0.0,0.0,0.0,0.0
7.46,376.29846000000003,8.241182400000001,16.2653472,23.999647200000002,0.0,0.0,0.0,0.0
7.48,379.57993680000004,1.6806672000000002,16.753332,30.900624,0.0,0.0,0.0,0.0
7.5,383.13542880000006,-1.3554456000000001,19.247510400000003,31.2072528,0.0,0.0,0.0,0.0
7.52,386.3346096,3.7953696000000003,18.1087776,31.2072528,0.0,0.0,0.0,0.0
7.54,389.74623600000007,10.4098344,12.361773600000001,31.2837576,0.0,0.0,0.0,0.0
7.5600000000000005,393.0258840000001,-8.024164800000001,19.6269864,30.133747200000002,0.0,0.0,0.0,0.0
7.58,396.1842216,-6.1807343999999995,21.687434400000004,21.699321599999998,0.0,0.0,0.0,0.0
7.6,399.2492904,-2.9279088,20.711464799999998,33.124140000000004,0.0,0.0,0.0,0.0
7.62,402.3856824,4.608576,14.476171200000001,24.6132096,0.0,0.0,0.0,0.0
7.640000000000001,405.7305576,4.988052,19.952208,28.1400504,0.0,0.0,0.0,0.0
7.66,408.89316240000005,10.789310400000002,17.512588800000003,23.0029512,0.0,0.0,0.0,0.0
7.68,412.10514480000006,2.7651456,20.5487016,22.1595696,0.0,0.0,0.0,0.0
7.7,415.37991600000004,5.259324,20.765719200000003,23.7695232,0.0,0.0,0.0,0.0
7.720000000000001,418.6382280000001,2.2771608000000003,17.3498256,22.6963224,0.0,0.0,0.0,0.0
7.74,422.09679360000007,5.9097672,10.8978192,21.392692800000003,0.0,0.0,0.0,0.0
7.76,425.322492,-8.0784192,15.994380000000001,22.6195128,0.0,0.0,0.0,0.0
7.779999999999999,428.65608960000003,-3.198876,14.909901600000001,19.1691768,0.0,0.0,0.0,0.0
7.8,431.8485648,-0.4879848,18.488558400000002,25.0731528,0.0,0.0,0.0,0.0
7.82,434.9191200000001,2.6023824,19.193256,24.6897144,0.0,0.0,0.0,0.0
7.84,438.23869680000007,2.1686520000000002,13.8799824,25.8400296,0.0,0.0,0.0,0.0
7.859999999999999,441.4381824,1.3011912,18.8680344,25.6864104,0.0,0.0,0.0,0.0
7.88,444.66662400000007,-0.5422392,18.8680344,21.315883200000002,0.0,0.0,0.0,0.0
7.9,447.65366400000005,-2.3314152,13.174980000000001,21.852636,0.0,0.0,0.0,0.0
7.92,450.61692960000005,3.3616392,12.361773600000001,20.319187200000002,0.0,0.0,0.0,0.0
7.9399999999999995,453.7338144000001,7.4822304,10.626852000000001,20.165872800000002,0.0,0.0,0.0,0.0
7.96,456.71201520000005,6.614769600000001,9.5423736,25.303276800000003,0.0,0.0,0.0,0.0
7.98,459.73410720000004,8.837676,18.2715408,19.0158624,0.0,0.0,0.0,0.0
8.0,462.63702240000003,-1.4639544,11.982297599999999,21.086064000000004,0.0,0.0,0.0,0.0
8.02,465.3915,1.030224,17.0788584,17.0986704,0.0,0.0,0.0,0.0
8.04,468.25143840000004,6.0725304,7.156704,18.4023,0.0,0.0,0.0,0.0
8.06,471.14338080000005,4.6628304,16.9160952,20.165872800000002,0.0,0.0,0.0,0.0
8.08,474.0728136,3.7411152,12.0908064,21.239378400000003,0.0,0.0,0.0,0.0
8.1,476.94342000000006,1.9519392,15.614904,21.0092544,0.0,0.0,0.0,0.0
8.120000000000001,479.6796096,1.3011912,18.000573600000003,18.785738400000003,0.0,0.0,0.0,0.0
8.14,482.32984560000006,1.1926824,14.313712800000001,20.165872800000002,0.0,0.0,0.0,0.0
8.16,485.0017224,-5.421782400000001,11.277295200000001,15.0284688,0.0,0.0,0.0,0.0
8.18,487.89031200000005,3.7411152,12.6327408,20.165872800000002,0.0,0.0,0.0,0.0
8.2,490.47318720000004,2.3314152,7.427976000000001,17.405604,0.0,0.0,0.0,0.0
8.22,493.2130344,2.6023824,15.2896824,16.255288800000002,0.0,0.0,0.0,0.0
8.24,495.6669792,5.7470040000000004,9.5423736,18.708928800000002,0.0,0.0,0.0,0.0
8.26,498.15536640000005,1.4097000000000002,15.2896824,16.945356,0.0,0.0,0.0,0.0
8.28,500.7489096,-3.8496240000000004,11.006328,17.5589184,0.0,0.0,0.0,0.0
8.3,503.07819120000005,0.37947600000000004,11.1148368,19.0923672,0.0,0.0,0.0,0.0
8.32,505.58059920000005,4.608576,11.873788800000002,15.565221600000001,0.0,0.0,0.0,0.0
8.34,507.76235760000003,1.5724632,15.6691584,18.2489856,0.0,0.0,0.0,0.0
8.36,509.99136000000004,3.6326064,8.94588,16.178784,0.0,0.0,0.0,0.0
8.379999999999999,512.5949616,5.7470040000000004,9.5423736,16.4854128,0.0,0.0,0.0,0.0
8.4,514.9477128,-0.9759696,9.867595200000002,17.0986704,0.0,0.0,0.0,0.0
8.42,517.4656656,3.6868608000000003,11.6028216,17.0986704,0.0,0.0,0.0,0.0
8.44,519.6248688000001,-1.2469368,11.3315496,14.645030400000001,0.0,0.0,0.0,0.0
8.46,521.7697464,0.8132064000000001,12.958267200000002,15.2585928,0.0,0.0,0.0,0.0
8.48,524.1121344000001,5.421782400000001,10.843564800000001,14.8751544,0.0,0.0,0.0,0.0
8.5,526.3417464,2.3856696,9.7593912,13.418210400000001,0.0,0.0,0.0,0.0
8.52,528.7344264000001,2.0061936,8.5121496,16.4854128,0.0,0.0,0.0,0.0
8.54,531.0384096,6.1267848,7.427976000000001,15.718536,0.0,0.0,0.0,0.0
8.559999999999999,533.3899416,2.4941784,8.3496912,13.341705600000001,0.0,0.0,0.0,0.0
8.58,535.6628352,-3.6868608000000003,9.3256608,14.491716000000002,0.0,0.0,0.0,0.0
8.6,537.7613832000001,-0.9217152000000001,8.0784192,13.9549632,0.0,0.0,0.0,0.0
8.620000000000001,540.1522344,1.2469368,11.1148368,13.49502,0.0,0.0,0.0,0.0
8.64,542.1742776,1.2469368,10.355580000000002,13.341705600000001,0.0,0.0,0.0,0.0
8.66,544.3776768,-4.445812800000001,14.6389344,12.804952800000002,0.0,0.0,0.0,0.0
8.68,546.3914904000001,5.205069600000001,10.0846128,13.264896000000002,0.0,0.0,0.0,0.0
8.7,548.3117304,5.5302912,6.1807343999999995,12.114885600000001,0.0,0.0,0.0,0.0
8.719999999999999,550.4995848000001,-1.5724632,8.0784192,14.338401600000001,0.0,0.0,0.0,0.0
8.74,552.4219584000001,-1.3011912,9.3256608,11.7314472,0.0,0.0,0.0,0.0
8.76,554.3571336,-0.9759696,9.0001344,12.958267200000002,0.0,0.0,0.0,0.0
8.780000000000001,556.2347016000001,-3.0361128,11.4943128,11.654637600000001,0.0,0.0,0.0,0.0
8.8,557.9885208000001,-0.7589520000000001,11.277295200000001,12.5748288,0.0,0.0,0.0,0.0
8.82,560.0334240000001,2.4399240000000004,7.8617064,14.72184,0.0,0.0,0.0,0.0
8.84,561.848508,1.3554456000000001,5.801258400000001,13.49502,0.0,0.0,0.0,0.0
8.86,563.8778664000001,5.5845456,7.1024496,10.5046272,0.0,0.0,0.0,0.0
8.879999999999999,565.5996816,-1.3011912,10.626852000000001,10.657941600000001,0.0,0.0,0.0,0.0
8.9,567.5580216000001,0.8132064000000001,9.0543888,10.657941600000001,0.0,0.0,0.0,0.0
8.92,569.4602784,1.3554456000000001,9.813645600000001,11.194694400000001,0.0,0.0,0.0,0.0
8.940000000000001,571.3939296000001,3.957828,6.343497600000001,12.345009600000001,0.0,0.0,0.0,0.0
8.96,573.4473672,0.2170176,8.241182400000001,11.194694400000001,0.0,0.0,0.0,0.0
8.98,575.2911024000001,0.4879848,9.7051368,10.888065600000001,0.0,0.0,0.0,0.0
9.0,577.323204,0.5422392,9.0001344,12.8817624,0.0,0.0,0.0,0.0
9.02,579.1358496,-0.16276320000000002,9.7051368,12.5748288,0.0,0.0,0.0,0.0
9.04,580.8351096,0.2170176,6.614769600000001,10.428122400000001,0.0,0.0,0.0,0.0
9.059999999999999,582.7815624000001,2.2229064000000003,6.668719200000001,10.428122400000001,0.0,0.0,0.0,0.0
9.08,584.5384296000001,-0.4337304,8.024164800000001,12.421514400000001,0.0,0.0,0.0,0.0
9.1,586.3084032,1.1387328,8.729167200000001,11.501323200000002,0.0,0.0,0.0,0.0
9.120000000000001,587.9741352,2.1143976,11.006328,10.888065600000001,0.0,0.0,0.0,0.0
9.14,589.6804056000001,-0.7046976,9.1628976,11.7314472,0.0,0.0,0.0,0.0
9.16,591.2723760000001,-0.7589520000000001,7.915960800000001,10.9645704,0.0,0.0,0.0,0.0
9.18,593.0222328000001,2.7651456,7.1024496,10.5046272,0.0,0.0,0.0,0.0
9.2,594.6928416000001,0.7589520000000001,8.3496912,11.3480088,0.0,0.0,0.0,0.0
9.219999999999999,596.4777504000001,-1.3011912,11.385804,10.044684,0.0,0.0,0.0,0.0
9.24,598.1550648,-2.1686520000000002,9.0001344,9.737750400000001,0.0,0.0,0.0,0.0
9.26,599.7930600000001,2.8736544000000004,6.018276,8.741054400000001,0.0,0.0,0.0,0.0
9.280000000000001,601.417644,1.789176,6.885736800000001,10.888065600000001,0.0,0.0,0.0,0.0
9.3,602.9602368000001,3.0361128,8.241182400000001,9.814560000000002,0.0,0.0,0.0,0.0
9.32,604.6082904000001,-0.5964936000000001,8.186928,10.5046272,0.0,0.0,0.0,0.0
9.34,606.1935552000001,-2.0061936,7.970215200000001,8.971178400000001,0.0,0.0,0.0,0.0
9.36,607.9290864000001,3.3073848000000003,4.7170848,8.6645496,0.0,0.0,0.0,0.0
9.379999999999999,609.7277112,0.1085088,7.048500000000001,10.5814368,0.0,0.0,0.0,0.0
9.4,611.3306544000001,2.2229064000000003,6.5605152,10.5814368,0.0,0.0,0.0,0.0
9.42,612.9183576,1.5182088,7.3737216000000005,9.1244928,0.0,0.0,0.0,0.0
9.440000000000001,614.4511968,1.3011912,5.964021600000001,8.4344256,0.0,0.0,0.0,0.0
9.46,616.0212216,-1.0844784,6.8314824000000005,9.4311216,0.0,0.0,0.0,0.0
9.48,617.6064864,-0.3252216,7.2652128,9.5079312,0.0,0.0,0.0,0.0
9.5,619.257588,2.1143976,7.6446888,8.2043016,0.0,0.0,0.0,0.0
9.52,620.8440720000001,1.1926824,6.397752,7.2076056,0.0,0.0,0.0,0.0
9.54,622.5549144,-0.16276320000000002,7.970215200000001,8.2043016,0.0,0.0,0.0,0.0
9.559999999999999,624.0926304000001,-2.2229064000000003,6.1267848,8.741054400000001,0.0,0.0,0.0,0.0
9.58,625.6556448,0.2170176,5.8555128,6.9774816,0.0,0.0,0.0,0.0
9.6,627.2521872000001,1.4097000000000002,7.3737216000000005,7.2841104,0.0,0.0,0.0,0.0
9.620000000000001,628.6884048000001,0.4337304,6.614769600000001,7.591044000000001,0.0,0.0,0.0,0.0
9.64,630.0752448000001,-0.0542544,6.018276,7.2841104,0.0,0.0,0.0,0.0
9.66,631.5465144000001,1.030224,6.343497600000001,8.8943688,0.0,0.0,0.0,0.0
9.68,633.0241848000001,-0.9217152000000001,7.6446888,7.36092,0.0,0.0,0.0,0.0
9.7,634.4988072,0.2170176,4.012082400000001,6.9009768,0.0,0.0,0.0,0.0
9.719999999999999,635.9042400000001,-0.9217152000000001,4.0663368,6.1341,0.0,0.0,0.0,0.0
9.74,637.3538688000001,-2.1143976,5.1508152,8.1277968,0.0,0.0,0.0,0.0
9.76,638.8324536000001,-1.6264128000000002,6.614769600000001,7.5142344,0.0,0.0,0.0,0.0
9.780000000000001,640.2744624000001,-2.2771608000000003,4.988052,7.591044000000001,0.0,0.0,0.0,0.0
9.8,641.6829432000001,1.6806672000000002,6.018276,6.8241672,0.0,0.0,0.0,0.0
9.82,643.062468,1.4639544,6.343497600000001,7.2076056,0.0,0.0,0.0,0.0
9.84,644.4550992000001,0.9217152000000001,5.476036800000001,7.6675488,0.0,0.0,0.0,0.0
9.86,645.7383072,-0.0542544,6.1267848,7.0542912,0.0,0.0,0.0,0.0
9.879999999999999,647.0184672,-0.2709672,5.0423064,6.6708528000000005,0.0,0.0,0.0,0.0
9.9,648.3678168000001,1.3011912,6.1807343999999995,6.2874144,0.0,0.0,0.0,0.0
9.92,649.7656296,-1.6806672000000002,6.9942456,5.2907184,0.0,0.0,0.0,0.0
9.940000000000001,651.0473136,-0.2170176,5.8555128,6.9774816,0.0,0.0,0.0,0.0
9.96,652.3561248,-1.2469368,5.9097672,6.594043200000001,0.0,0.0,0.0,0.0
9.98,653.7161424,-0.4337304,3.2531304000000003,6.2874144,0.0,0.0,0.0,0.0
10.0,654.9420480000001,-0.7589520000000001,5.8555128,5.4440328000000004,0.0,0.0,0.0,0.0
10.02,656.2615272,-1.3011912,4.7713392,6.6708528000000005,0.0,0.0,0.0,0.0
10.04,657.5776536000001,0.37947600000000004,5.259324,5.6741568000000004,0.0,0.0,0.0,0.0
10.059999999999999,658.8882936,-0.1085088,5.5302912,6.594043200000001,0.0,0.0,0.0,0.0
10.08,660.2248416000001,1.6806672000000002,6.018276,6.747662400000001,0.0,0.0,0.0,0.0
10.1,661.6406376000001,2.6566368,5.476036800000001,6.2874144,0.0,0.0,0.0,0.0
10.120000000000001,662.9302464,1.6806672000000002,3.957828,6.4407288000000005,0.0,0.0,0.0,0.0
10.14,664.3247064000001,2.1686520000000002,5.7470040000000004,6.4407288000000005,0.0,0.0,0.0,0.0
10.16,665.6499768000001,1.8434304000000001,3.7953696000000003,6.364224,0.0,0.0,0.0,0.0
10.18,666.9712848,-0.16276320000000002,4.2833544,5.827471200000001,0.0,0.0,0.0,0.0
10.2,668.2871064000001,0.4337304,5.096560800000001,5.9807856,0.0,0.0,0.0,0.0
10.219999999999999,669.4294968,-0.0542544,5.801258400000001,5.367223200000001,0.0,0.0,0.0,0.0
10.24,670.762692,-2.6566368,4.5000672,5.137404,0.0,0.0,0.0,0.0
10.26,672.0437664,-0.8132064000000001,4.2833544,4.523841600000001,0.0,0.0,0.0,0.0
10.280000000000001,673.3102104000001,0.5422392,4.120591200000001,5.2907184,0.0,0.0,0.0,0.0
10.3,674.4160248,-0.4337304,4.120591200000001,4.1404032,0.0,0.0,0.0,0.0
10.32,675.7361136000001,-2.4399240000000004,4.933797600000001,5.137404,0.0,0.0,0.0,0.0
10.34,676.8812472000001,1.8976848000000002,4.7170848,5.4440328000000004,0.0,0.0,0.0,0.0
10.36,678.0897792000001,-0.650748,3.9035736000000005,5.137404,0.0,0.0,0.0,0.0
10.379999999999999,679.3479936,0.8674608,5.5302912,5.750661600000001,0.0,0.0,0.0,0.0
10.4,680.5437240000001,0.2170176,5.421782400000001,4.8304704,0.0,0.0,0.0,0.0
10.42,681.6967824000001,1.7349216,6.506260800000001,5.5205376,0.0,0.0,0.0,0.0
10.440000000000001,682.8870264000001,-0.37947600000000004,4.5000672,3.910584,0.0,0.0,0.0,0.0
10.46,684.0973872000001,2.0061936,3.957828,4.8304704,0.0,0.0,0.0,0.0
10.48,685.2477024000001,2.1686520000000002,3.7953696000000003,5.060594400000001,0.0,0.0,0.0,0.0
10.5,686.3163312,-1.5724632,5.367528,5.2139088000000005,0.0,0.0,0.0,0.0
10.52,687.3843504,-1.1926824,4.7713392,4.523841600000001,0.0,0.0,0.0,0.0
10.54,688.5395424,0.4337304,4.120591200000001,4.2937176,0.0,0.0,0.0,0.0
10.559999999999999,689.5761672000001,-1.3011912,5.096560800000001,4.8304704,0.0,0.0,0.0,0.0
10.58,690.7152048000002,0.9759696,3.7953696000000003,4.677156,0.0,0.0,0.0,0.0
10.6,691.7637168000001,-0.5422392,5.3132736,4.7539656,0.0,0.0,0.0,0.0
10.620000000000001,692.8920864,-2.3314152,4.8252888,5.137404,0.0,0.0,0.0,0.0
10.64,693.9622392,-0.9759696,4.988052,5.597347200000001,0.0,0.0,0.0,0.0
10.66,695.0933520000001,-0.5422392,3.3616392,3.7572696000000003,0.0,0.0,0.0,0.0
10.68,696.2518968,-0.8674608,4.2291,3.6036504000000003,0.0,0.0,0.0,0.0
10.7,697.2955320000001,1.1387328,4.8252888,4.7539656,0.0,0.0,0.0,0.0
10.719999999999999,698.3300232,0.8132064000000001,2.7651456,3.7572696000000003,0.0,0.0,0.0,0.0
10.74,699.3194040000001,0.4337304,3.7953696000000003,4.2172128,0.0,0.0,0.0,0.0
10.76,700.3676111999999,-0.5964936000000001,5.0423064,4.7539656,0.0,0.0,0.0,0.0
10.780000000000001,701.4499560000002,0.8674608,4.554321600000001,3.3738312000000006,0.0,0.0,0.0,0.0
10.8,702.4365936,0.4337304,3.2531304000000003,4.2172128,0.0,0.0,0.0,0.0
10.82,703.5140616000001,-1.2469368,2.7651456,3.7572696000000003,0.0,0.0,0.0,0.0
10.84,704.5168536000001,-1.030224,5.0423064,3.7572696000000003,0.0,0.0,0.0,0.0
10.86,705.6903336,-1.3011912,4.445812800000001,3.450336,0.0,0.0,0.0,0.0
10.879999999999999,706.7135472,1.7349216,4.445812800000001,3.910584,0.0,0.0,0.0,0.0
10.9,707.8373448,-0.1085088,3.4698432,4.1404032,0.0,0.0,0.0,0.0
10.92,708.8876855999999,1.1387328,3.198876,4.523841600000001,0.0,0.0,0.0,0.0
10.940000000000001,709.9535712,-0.9217152000000001,4.1748456,3.1437072,0.0,0.0,0.0,0.0
10.96,710.9874528,-0.7046976,3.6326064,3.68046,0.0,0.0,0.0,0.0
10.98,711.9097776000001,0.0542544,2.3314152,3.9870888,0.0,0.0,0.0,0.0
11.0,712.8269208000002,0.2709672,3.957828,3.2205168000000004,0.0,0.0,0.0,0.0
11.02,713.9443176,-3.0361128,4.012082400000001,3.1437072,0.0,0.0,0.0,0.0
11.04,714.9285168000001,-0.37947600000000004,3.3073848000000003,3.1437072,0.0,0.0,0.0,0.0
11.059999999999999,715.981296,0.7589520000000001,3.3616392,3.910584,0.0,0.0,0.0,0.0
11.08,717.0359040000001,0.8674608,3.3616392,2.9135831999999997,0.0,0.0,0.0,0.0
11.1,717.9637152,-0.3252216,3.7953696000000003,2.7602688,0.0,0.0,0.0,0.0
11.120000000000001,719.0140560000001,-0.5422392,3.3616392,2.7602688,0.0,0.0,0.0,0.0
11.14,719.9860632000001,0.8132064000000001,3.5240976,3.7572696000000003,0.0,0.0,0.0,0.0
11.16,720.9602040000001,-1.5182088,4.120591200000001,2.8370784000000002,0.0,0.0,0.0,0.0
11.18,721.9154472,-2.1143976,3.5240976,2.9903928,0.0,0.0,0.0,0.0
11.2,722.8996463999999,-0.8674608,3.3616392,3.0672024,0.0,0.0,0.0,0.0
11.219999999999999,723.8417832000001,0.1085088,2.4941784,3.6036504000000003,0.0,0.0,0.0,0.0
11.24,724.6650480000001,0.9759696,2.4941784,2.9135831999999997,0.0,0.0,0.0,0.0
11.26,725.4563088000001,-1.1926824,2.7108912000000003,3.0672024,0.0,0.0,0.0,0.0
11.280000000000001,726.3603456000001,-0.8132064000000001,3.4158936000000004,2.7602688,0.0,0.0,0.0,0.0
11.3,727.16898,-0.9759696,3.3616392,2.4536400000000005,0.0,0.0,0.0,0.0
11.32,728.1510456000001,-0.4879848,3.6326064,2.5304496,0.0,0.0,0.0,0.0
11.34,729.0242976,0.7589520000000001,2.6023824,2.7602688,0.0,0.0,0.0,0.0
11.36,729.9902088000001,-1.4097000000000002,2.8194000000000004,2.4536400000000005,0.0,0.0,0.0,0.0
11.379999999999999,730.812864,-0.8674608,3.578352,3.2205168000000004,0.0,0.0,0.0,0.0
11.4,731.7525624,0.2170176,3.0361128,3.2205168000000004,0.0,0.0,0.0,0.0
11.42,732.5797896,0.5964936000000001,2.7651456,3.450336,0.0,0.0,0.0,0.0
11.440000000000001,733.4573088000001,-0.5422392,2.6023824,3.1437072,0.0,0.0,0.0,0.0
11.46,734.3778048000001,0.7589520000000001,2.4941784,2.5304496,0.0,0.0,0.0,0.0
11.48,735.2632488,-0.4879848,2.7651456,2.1470112,0.0,0.0,0.0,0.0
11.5,736.0901712000001,-0.2709672,2.2229064000000003,2.223516,0.0,0.0,0.0,0.0
11.52,736.9295904,-0.5422392,2.6023824,2.6069544000000002,0.0,0.0,0.0,0.0
11.54,737.826312,-1.4097000000000002,3.3616392,2.683764,0.0,0.0,0.0,0.0
11.559999999999999,738.7178520000001,0.16276320000000002,2.9818584,1.6867632000000001,0.0,0.0,0.0,0.0
11.58,739.4883864000001,0.9759696,3.1446216000000002,2.6069544000000002,0.0,0.0,0.0,0.0
11.6,740.2967160000001,0.4879848,3.6326064,2.9135831999999997,0.0,0.0,0.0,0.0
11.620000000000001,740.9828208000001,-1.3554456000000001,1.8976848000000002,1.7635728,0.0,0.0,0.0,0.0
11.64,741.8515008,0.0,2.2771608000000003,1.8400776,0.0,0.0,0.0,0.0
11.66,742.7073792000001,0.37947600000000004,3.198876,2.223516,0.0,0.0,0.0,0.0
11.68,743.5477128000001,0.9217152000000001,2.8736544000000004,2.5304496,0.0,0.0,0.0,0.0
11.7,744.3560424,-0.7589520000000001,2.6023824,2.4536400000000005,0.0,0.0,0.0,0.0
11.719999999999999,745.1844888,0.0,2.9279088,1.6102584000000002,0.0,0.0,0.0,0.0
11.74,745.9714824,0.8674608,2.3856696,1.9168872,0.0,0.0,0.0,0.0
11.76,746.82858,-0.7589520000000001,2.7108912000000003,1.6102584000000002,0.0,0.0,0.0,0.0
11.780000000000001,747.4741464,0.7589520000000001,2.0601432,2.223516,0.0,0.0,0.0,0.0
11.8,748.2349272,0.2170176,2.1686520000000002,2.1470112,0.0,0.0,0.0,0.0
11.82,749.0213112,-0.4337304,3.2531304000000003,1.9936968000000002,0.0,0.0,0.0,0.0
11.84,749.7080256,-1.1926824,2.3856696,1.3801344,0.0,0.0,0.0,0.0
11.86,750.4855704,-0.3252216,2.2771608000000003,1.8400776,0.0,0.0,0.0,0.0
11.879999999999999,751.1430240000001,-0.8674608,2.0601432,1.9168872,0.0,0.0,0.0,0.0
11.9,751.8199848,-1.3554456000000001,2.1143976,1.9936968000000002,0.0,0.0,0.0,0.0
11.92,752.4695136,-0.9759696,2.1686520000000002,1.9936968000000002,0.0,0.0,0.0,0.0
11.940000000000001,753.1857936,0.0542544,2.0061936,1.6867632000000001,0.0,0.0,0.0,0.0
11.96,753.9325536000001,-0.2170176,2.4941784,1.8400776,0.0,0.0,0.0,0.0
11.98,754.7658768000001,0.2170176,1.6264128000000002,1.9168872,0.0,0.0,0.0,0.0
12.0,755.4867288,-1.4639544,2.7651456,1.3801344,0.0,0.0,0.0,0.0
12.02,756.1697856,0.2709672,3.0903671999999998,2.0702016,0.0,0.0,0.0,0.0
12.04,756.8470512,0.5964936000000001,2.548128,1.3036296,0.0,0.0,0.0,0.0
12.059999999999999,757.6715352,-1.1387328,2.0061936,1.6867632000000001,0.0,0.0,0.0,0.0
12.08,758.3737944000001,-0.4337304,2.2771608000000003,1.1500104,0.0,0.0,0.0,0.0
12.1,759.0815400000001,-0.3252216,2.4941784,1.2268200000000002,0.0,0.0,0.0,0.0
12.120000000000001,759.7548432000001,-1.3554456000000001,2.2229064000000003,0.9201912000000001,0.0,0.0,0.0,0.0
12.14,760.4430816000001,-0.9759696,1.8434304000000001,1.6867632000000001,0.0,0.0,0.0,0.0
12.16,761.1505224000001,-0.3252216,2.3856696,1.3036296,0.0,0.0,0.0,0.0
12.18,761.8332744,-1.3554456000000001,2.4399240000000004,1.3036296,0.0,0.0,0.0,0.0
12.2,762.5952744,-1.5724632,1.5724632,1.1500104,0.0,0.0,0.0,0.0
12.219999999999999,763.3505688,-1.4097000000000002,2.2771608000000003,1.5334488,0.0,0.0,0.0,0.0
12.24,764.0174712,-1.0844784,1.7349216,1.1500104,0.0,0.0,0.0,0.0
12.26,764.6782776000001,0.5964936000000001,2.1143976,1.0735056,0.0,0.0,0.0,0.0
12.280000000000001,765.4189416,0.0542544,1.8976848000000002,1.3801344,0.0,0.0,0.0,0.0
12.3,766.0550592000001,-1.3011912,2.3856696,0.996696,0.0,0.0,0.0,0.0
12.32,766.7271432,0.1085088,1.9519392,1.3801344,0.0,0.0,0.0,0.0
12.34,767.452872,-0.9759696,1.9519392,1.4569440000000002,0.0,0.0,0.0,0.0
12.36,768.1627512,0.0,2.3856696,1.3801344,0.0,0.0,0.0,0.0
12.379999999999999,768.8515992000001,-0.4879848,3.0903671999999998,1.3036296,0.0,0.0,0.0,0.0
12.4,769.4794872000001,-0.7589520000000001,1.8434304000000001,1.1500104,0.0,0.0,0.0,0.0
12.42,770.1954624,-1.2469368,1.6806672000000002,1.5334488,0.0,0.0,0.0,0.0
12.440000000000001,770.9455752000001,0.0542544,2.2229064000000003,0.7668768,0.0,0.0,0.0,0.0
12.46,771.617964,-0.5964936000000001,2.1143976,1.1500104,0.0,0.0,0.0,0.0
12.48,772.3217472,-0.5422392,2.0601432,1.0735056,0.0,0.0,0.0,0.0
12.5,772.8841032,-0.4337304,2.0601432,0.996696,0.0,0.0,0.0,0.0
12.52,773.5436904000001,-0.2709672,1.2469368,0.9201912000000001,0.0,0.0,0.0,0.0
12.54,774.2276616000001,-1.4639544,2.6566368,1.0735056,0.0,0.0,0.0,0.0
12.56,774.7686816000001,-0.8132064000000001,2.1143976,0.996696,0.0,0.0,0.0,0.0
12.58,775.4398512,-1.2469368,2.548128,1.2268200000000002,0.0,0.0,0.0,0.0
12.6,776.0268960000001,-1.1387328,2.1143976,0.996696,0.0,0.0,0.0,0.0
12.62,776.5996152,-0.4879848,1.789176,1.1500104,0.0,0.0,0.0,0.0
12.64,777.0760176,0.37947600000000004,1.1387328,1.0735056,0.0,0.0,0.0,0.0
12.66,777.5993592000001,-0.5422392,1.4097000000000002,0.996696,0.0,0.0,0.0,0.0
12.68,778.1519616,-0.4879848,1.030224,1.1500104,0.0,0.0,0.0,0.0
12.7,778.6743888000001,-1.4097000000000002,1.4097000000000002,1.3036296,0.0,0.0,0.0,0.0
12.72,779.2778928000001,-0.9759696,1.6264128000000002,0.996696,0.0,0.0,0.0,0.0
12.74,779.8759104000001,-0.5964936000000001,1.4639544,0.996696,0.0,0.0,0.0,0.0
12.76,780.3108600000002,-1.030224,1.030224,0.9201912000000001,0.0,0.0,0.0,0.0
12.78,780.9649608000001,-1.1387328,1.8976848000000002,0.996696,0.0,0.0,0.0,0.0
12.8,781.5684648,-1.1926824,1.6264128000000002,0.6135624,0.0,0.0,0.0,0.0
12.82,782.1296016,-0.8132064000000001,1.2469368,0.9201912000000001,0.0,0.0,0.0,0.0
12.84,782.618196,-1.2469368,1.6806672000000002,0.996696,0.0,0.0,0.0,0.0
12.86,783.2360256000001,-1.1926824,1.5182088,0.9201912000000001,0.0,0.0,0.0,0.0
12.88,783.692616,-0.9217152000000001,1.3554456000000001,0.9201912000000001,0.0,0.0,0.0,0.0
12.9,784.2025464,-1.1926824,1.8434304000000001,0.996696,0.0,0.0,0.0,0.0
12.92,784.6865688,-0.5964936000000001,2.0061936,1.0735056,0.0,0.0,0.0,0.0
12.94,785.0965248,-1.4639544,1.789176,0.6900672,0.0,0.0,0.0,0.0
12.96,785.597616,-0.8674608,1.6264128000000002,0.7668768,0.0,0.0,0.0,0.0
12.98,786.0968784,-1.1387328,2.0061936,0.8433816000000001,0.0,0.0,0.0,0.0
13.0,786.7454928000001,-0.7046976,1.789176,0.7668768,0.0,0.0,0.0,0.0
13.02,787.3316232,-0.1085088,1.5182088,1.0735056,0.0,0.0,0.0,0.0
13.04,787.994868,-1.1926824,1.7349216,0.7668768,0.0,0.0,0.0,0.0
13.06,788.4584688000001,-0.650748,1.3011912,0.4599432,0.0,0.0,0.0,0.0
13.08,789.0604488,-0.2170176,1.8434304000000001,0.23012400000000002,0.0,0.0,0.0,0.0
13.1,789.6545040000001,-0.5422392,2.1686520000000002,0.4599432,0.0,0.0,0.0,0.0
13.12,790.1278584,-0.650748,1.5182088,0.30662880000000003,0.0,0.0,0.0,0.0
13.14,790.5356808,-0.0542544,2.1143976,0.8433816000000001,0.0,0.0,0.0,0.0
13.16,791.1538152,-0.4879848,2.0061936,0.6900672,0.0,0.0,0.0,0.0
13.18,791.6872152,-0.37947600000000004,1.8976848000000002,0.5367528,0.0,0.0,0.0,0.0
13.2,792.2075088000001,-0.2709672,1.8976848000000002,0.30662880000000003,0.0,0.0,0.0,0.0
13.22,792.7948584000001,-0.2709672,2.0061936,0.4599432,0.0,0.0,0.0,0.0
13.24,793.2895488,-0.4879848,1.6806672000000002,0.4599432,0.0,0.0,0.0,0.0
13.26,793.8086232,-0.7589520000000001,1.4097000000000002,0.4599432,0.0,0.0,0.0,0.0
13.28,794.2615560000002,-0.37947600000000004,1.8976848000000002,0.6135624,0.0,0.0,0.0,0.0
13.3,794.7367392,-0.7046976,1.6806672000000002,0.30662880000000003,0.0,0.0,0.0,0.0
13.32,795.1491336,-0.8674608,1.5182088,0.30662880000000003,0.0,0.0,0.0,0.0
13.34,795.4368648000001,-0.8132064000000001,1.6806672000000002,0.30662880000000003,0.0,0.0,0.0,0.0
13.36,795.8142071999999,0.0542544,2.1143976,0.8433816000000001,0.0,0.0,0.0,0.0
13.38,796.1220552000001,-0.8674608,1.7349216,0.3834384,0.0,0.0,0.0,0.0
13.4,796.4808048000001,-1.0844784,1.6264128000000002,0.3834384,0.0,0.0,0.0,0.0
13.42,796.9709232,-0.7046976,1.4639544,0.6900672,0.0,0.0,0.0,0.0
13.44,797.3656392,-0.8674608,1.3011912,0.6135624,0.0,0.0,0.0,0.0
13.46,797.7795576000001,-0.5422392,1.4097000000000002,0.4599432,0.0,0.0,0.0,0.0
13.48,798.2227368,-0.8132064000000001,1.2469368,0.5367528,0.0,0.0,0.0,0.0
13.5,798.6884712000001,-1.4097000000000002,0.9759696,0.30662880000000003,0.0,0.0,0.0,0.0
13.52,799.0911120000001,-0.5422392,1.1926824,0.3834384,0.0,0.0,0.0,0.0
13.54,799.3809768000001,-0.9759696,0.9759696,0.30662880000000003,0.0,0.0,0.0,0.0
13.56,799.7598432000001,-0.8132064000000001,0.8132064000000001,0.3834384,0.0,0.0,0.0,0.0
13.58,800.1240792000001,-0.4337304,1.3011912,0.5367528,0.0,0.0,0.0,0.0
13.6,800.4508248,-1.0844784,1.0844784,0.4599432,0.0,0.0,0.0,0.0
13.62,800.8476744000001,-1.3554456000000001,1.1387328,0.3834384,0.0,0.0,0.0,0.0
13.64,801.2259312,-1.1926824,0.8674608,0.6135624,0.0,0.0,0.0,0.0
13.66,801.5810232,-0.7589520000000001,0.9759696,0.30662880000000003,0.0,0.0,0.0,0.0
13.68,802.0101816000001,-1.030224,1.2469368,0.3834384,0.0,0.0,0.0,0.0
13.7,802.358568,-0.7589520000000001,0.9759696,0.30662880000000003,0.0,0.0,0.0,0.0
13.72,802.7234136000001,-0.650748,0.7589520000000001,0.30662880000000003,0.0,0.0,0.0,0.0
13.74,803.0538168000002,-0.37947600000000004,1.1387328,0.30662880000000003,0.0,0.0,0.0,0.0
13.76,803.5232088000001,-0.3252216,1.1926824,0.30662880000000003,0.0,0.0,0.0,0.0
13.78,803.8106352,-1.3011912,1.0844784,0.15331440000000002,0.0,0.0,0.0,0.0
13.8,804.2080944,-0.7046976,1.030224,0.30662880000000003,0.0,0.0,0.0,0.0
13.82,804.6463968,-1.1926824,1.0844784,0.23012400000000002,0.0,0.0,0.0,0.0
13.84,804.9771048000001,-0.9217152000000001,1.1387328,0.30662880000000003,0.0,0.0,0.0,0.0
13.86,805.3349400000001,-0.7589520000000001,0.9759696,0.23012400000000002,0.0,0.0,0.0,0.0
13.88,805.6970424,-0.7046976,1.030224,0.15331440000000002,0.0,0.0,0.0,0.0
13.9,805.9963560000001,-1.0844784,0.9759696,0.15331440000000002,0.0,0.0,0.0,0.0
13.92,806.3252352000001,-1.030224,1.2469368,0.15331440000000002,0.0,0.0,0.0,0.0
13.94,806.6800224000001,-1.030224,1.1387328,0.15331440000000002,0.0,0.0,0.0,0.0
13.96,806.9479416,-1.030224,1.2469368,0.15331440000000002,0.0,0.0,0.0,0.0
13.98,807.1954392,-0.9217152000000001,1.030224,0.30662880000000003,0.0,0.0,0.0,0.0
14.0,807.4664064000001,-1.0844784,1.3011912,0.0,0.0,0.0,0.0,0.0
14.02,807.8343,-1.030224,1.1387328,0.23012400000000002,0.0,0.0,0.0,0.0
14.04,808.0116936000001,-0.9217152000000001,1.3554456000000001,0.15331440000000002,0.0,0.0,0.0,0.0
14.06,808.3137504,-0.9759696,1.5182088,0.0768096,0.0,0.0,0.0,0.0
14.08,808.5521040000001,-1.0844784,1.1926824,-0.0768096,0.0,0.0,0.0,0.0
14.1,808.8422736000001,-0.8674608,1.1926824,0.30662880000000003,0.0,0.0,0.0,0.0
14.12,809.1348816000001,-0.8674608,1.1926824,0.0,0.0,0.0,0.0,0.0
14.14,809.3604336000001,-1.0844784,1.1926824,0.0768096,0.0,0.0,0.0,0.0
14.16,809.6451168000001,-0.8674608,1.0844784,0.15331440000000002,0.0,0.0,0.0,0.0
14.18,809.8917,-0.650748,1.1926824,0.15331440000000002,0.0,0.0,0.0,0.0
14.2,810.2315520000001,-1.030224,1.1387328,0.0,0.0,0.0,0.0,0.0
14.22,810.4827072,-0.7589520000000001,1.4097000000000002,0.0,0.0,0.0,0.0,0.0
14.24,810.7247184000001,-0.9759696,1.3011912,0.0,0.0,0.0,0.0,0.0
14.26,810.9362496000001,-1.030224,1.1387328,0.0,0.0,0.0,0.0,0.0
14.28,811.2209328,-1.030224,1.1387328,-0.0768096,0.0,0.0,0.0,0.0
14.3,811.4912904,-0.8132064000000001,1.2469368,-0.0768096,0.0,0.0,0.0,0.0
14.32,811.7275104,-0.7046976,1.1387328,0.0,0.0,0.0,0.0,0.0
14.34,811.9948200000001,-0.9759696,1.0844784,-0.0768096,0.0,0.0,0.0,0.0
14.36,812.2106184,-0.7046976,1.030224,0.0,0.0,0.0,0.0,0.0
14.38,812.4611639999999,-0.8674608,1.1926824,0.0,0.0,0.0,0.0,0.0
14.4,812.7424944,-1.0844784,1.0844784,-0.0768096,0.0,0.0,0.0,0.0
14.42,812.9119632000001,-0.8674608,1.3011912,0.23012400000000002,0.0,0.0,0.0,0.0
14.44,813.1204464,-0.650748,1.0844784,0.0,0.0,0.0,0.0,0.0
14.46,813.3664200000001,-0.650748,0.8674608,-0.15331440000000002,0.0,0.0,0.0,0.0
14.48,813.6556752000001,-0.7589520000000001,1.0844784,-0.0768096,0.0,0.0,0.0,0.0
14.5,813.8851896,-0.7046976,1.030224,-0.15331440000000002,0.0,0.0,0.0,0.0
14.52,814.1201904000001,-0.7589520000000001,1.0844784,-0.15331440000000002,0.0,0.0,0.0,0.0
14.54,814.277772,-0.650748,0.9759696,-0.23012400000000002,0.0,0.0,0.0,0.0
14.56,814.5179544,-0.8132064000000001,1.030224,-0.15331440000000002,0.0,0.0,0.0,0.0
14.58,814.6545048000002,-0.8674608,1.0844784,-0.23012400000000002,0.0,0.0,0.0,0.0
14.6,814.8919440000001,-0.8674608,0.9759696,-0.15331440000000002,0.0,0.0,0.0,0.0
14.62,815.056536,-0.8132064000000001,1.1387328,0.0,0.0,0.0,0.0,0.0
14.64,815.2647144000001,-0.9217152000000001,0.9217152000000001,-0.0768096,0.0,0.0,0.0,0.0
14.66,815.4030936,-0.7589520000000001,0.9759696,-0.23012400000000002,0.0,0.0,0.0,0.0
14.68,815.6728416000001,-0.8132064000000001,1.030224,-0.15331440000000002,0.0,0.0,0.0,0.0
14.7,815.8804104000001,-0.8132064000000001,1.030224,-0.15331440000000002,0.0,0.0,0.0,0.0
14.72,816.1635696000001,-0.8674608,0.9759696,-0.23012400000000002,0.0,0.0,0.0,0.0
14.74,816.4186872000001,-0.8132064000000001,1.030224,-0.15331440000000002,0.0,0.0,0.0,0.0
14.76,816.5893752000001,-0.7046976,0.9217152000000001,-0.23012400000000002,0.0,0.0,0.0,0.0
14.78,816.7018464,-0.8674608,0.9759696,-0.23012400000000002,0.0,0.0,0.0,0.0
14.8,816.8115744,-0.8132064000000001,1.030224,-0.15331440000000002,0.0,0.0,0.0,0.0
14.82,816.8606472,-0.9217152000000001,1.030224,-0.15331440000000002,0.0,0.0,0.0,0.0
14.84,817.0514520000002,-0.9217152000000001,1.030224,-0.23012400000000002,0.0,0.0,0.0,0.0
14.86,817.2507912000001,-0.9217152000000001,1.2469368,-0.23012400000000002,0.0,0.0,0.0,0.0
14.88,817.2959016,-0.7589520000000001,0.9759696,-0.23012400000000002,0.0,0.0,0.0,0.0
14.9,817.4617128000001,-0.8674608,1.0844784,-0.30662880000000003,0.0,0.0,0.0,0.0
14.92,817.5894240000001,-0.9217152000000001,1.030224,-0.15331440000000002,0.0,0.0,0.0,0.0
14.94,817.8204624,-0.9217152000000001,1.030224,-0.3834384,0.0,0.0,0.0,0.0
14.96,817.9868832000001,-0.8132064000000001,1.030224,-0.23012400000000002,0.0,0.0,0.0,0.0
14.98,818.1124608,-0.9217152000000001,1.030224,-0.30662880000000003,0.0,0.0,0.0,0.0
15.0,818.2986936,-0.8132064000000001,1.030224,-0.30662880000000003,0.0,0.0,0.0,0.0
15.02,818.4678576000001,-0.9217152000000001,1.1387328,-0.3834384,0.0,0.0,0.0,0.0
15.04,818.6720736000001,-0.9759696,0.9759696,-0.23012400000000002,0.0,0.0,0.0,0.0
15.06,818.7790584,-0.9217152000000001,1.030224,-0.15331440000000002,0.0,0.0,0.0,0.0
15.08,818.8637928,-0.9217152000000001,1.030224,-0.3834384,0.0,0.0,0.0,0.0
