time,baro_altitude,accl_x,accl_y,accl_z,gps_altitude,gyro_roll,gyro_pitch,gyro_yaw
0.0,0.0,-10.4640888,-2.9818584,-1.8400776,0.0,0.0,0.0,0.0
0.019999999999999574,-0.0009143999999999924,-10.4640888,-2.8736544000000004,-1.9168872,0.0,0.0,0.0,0.0
0.040000000000000036,0.0006096000000000006,-10.4640888,-2.9818584,-1.9936968000000002,0.0,0.0,0.0,0.0
0.05999999999999961,0.13350240000000002,-10.4640888,-2.9818584,-1.9168872,0.0,0.0,0.0,0.0
0.08000000000000007,0.09113520000000001,-10.4640888,-2.9818584,-1.6867632000000001,0.0,0.0,0.0,0.0
0.09999999999999964,0.156972,-10.4098344,-2.9279088,-1.8400776,0.0,0.0,0.0,0.0
0.1200000000000001,0.09418320000000002,-10.5183432,-2.9279088,-1.8400776,0.0,0.0,0.0,0.0
0.13999999999999968,0.17190720000000004,-10.5183432,-2.9279088,-1.9168872,0.0,0.0,0.0,0.0
0.16000000000000014,0.21793200000000004,-10.4640888,-2.8736544000000004,-1.8400776,0.0,0.0,0.0,0.0
0.17999999999999972,0.16855440000000002,-10.5183432,-2.9279088,-1.7635728,0.0,0.0,0.0,0.0
0.20000000000000018,0.19507200000000002,-10.4640888,-2.9818584,-1.9936968000000002,0.0,0.0,0.0,0.0
0.21999999999999975,0.03291840000000001,-10.4640888,-2.8736544000000004,-1.9168872,0.0,0.0,0.0,0.0
0.2400000000000002,0.036576000000000004,-10.4640888,-2.9818584,-1.8400776,0.0,0.0,0.0,0.0
0.2599999999999998,-0.10424159999999999,-10.4098344,-3.0361128,-1.9936968000000002,0.0,0.0,0.0,0.0
0.28000000000000025,0.06522720000000001,-10.5183432,-2.9279088,-1.8400776,0.0,0.0,0.0,0.0
0.2999999999999998,-0.011582399999999994,-10.4098344,-3.0361128,-1.9168872,0.0,0.0,0.0,0.0
0.3200000000000003,-0.006400799999999997,-10.4098344,-3.0361128,-1.9168872,0.0,0.0,0.0,0.0
0.33999999999999986,-0.064008,-10.4098344,-2.9279088,-1.7635728,0.0,0.0,0.0,0.0
0.3600000000000003,0.18684240000000002,-10.355580000000002,-3.0903671999999998,-1.8400776,0.0,0.0,0.0,0.0
0.3799999999999999,0.25328880000000004,-10.4640888,-2.9818584,-1.7635728,0.0,0.0,0.0,0.0
0.40000000000000036,0.1886712,-10.4098344,-2.9279088,-1.7635728,0.0,0.0,0.0,0.0
0.41999999999999993,0.13655040000000002,-10.5183432,-3.0361128,-1.9168872,0.0,0.0,0.0,0.0
0.43999999999999995,0.1414272,-10.5183432,-2.9279088,-1.7635728,0.0,0.0,0.0,0.0
0.45999999999999996,0.06400800000000001,-10.4640888,-2.8736544000000004,-1.8400776,0.0,0.0,0.0,0.0
0.48,-0.051206400000000006,-10.4640888,-2.8736544000000004,-1.9936968000000002,0.0,0.0,0.0,0.0
0.5,0.025603200000000003,-10.5183432,-2.9279088,-1.9168872,0.0,0.0,0.0,0.0
0.52,0.08808720000000002,-10.4098344,-2.9279088,-1.8400776,0.0,0.0,0.0,0.0
0.54,0.25206960000000006,-10.4640888,-2.8736544000000004,-1.9168872,0.0,0.0,0.0,0.0
0.56,0.3313176,-10.5183432,-3.0361128,-1.7635728,0.0,0.0,0.0,0.0
0.5800000000000001,0.179832,-10.4098344,-2.9279088,-1.8400776,0.0,0.0,0.0,0.0
0.6000000000000001,0.07101840000000001,-10.4640888,-2.9818584,-1.9168872,0.0,0.0,0.0,0.0
0.6200000000000001,0.1502664,-10.4640888,-2.9818584,-1.9168872,0.0,0.0,0.0,0.0
0.6400000000000001,0.06309360000000001,-10.4098344,-2.9279088,-1.9168872,0.0,0.0,0.0,0.0
0.6600000000000001,0.1420368,-10.4098344,-3.0361128,-1.9168872,0.0,0.0,0.0,0.0
0.6799999999999997,0.041452800000000005,-10.355580000000002,-3.0903671999999998,-1.8400776,0.0,0.0,0.0,0.0
0.6999999999999997,0.1581912,-10.4640888,-2.8736544000000004,-1.8400776,0.0,0.0,0.0,0.0
0.7199999999999998,0.1850136,-10.4098344,-2.9279088,-1.9936968000000002,0.0,0.0,0.0,0.0
0.7399999999999998,-0.022555199999999997,-10.4098344,-3.0361128,-1.9936968000000002,0.0,0.0,0.0,0.0
0.7599999999999998,0.0743712,-10.4640888,-2.9818584,-1.8400776,0.0,0.0,0.0,0.0
0.7799999999999998,0.025298400000000006,-10.5183432,-2.9279088,-1.9168872,0.0,0.0,0.0,0.0
0.7999999999999998,0.08595360000000002,-10.5183432,-2.9279088,-1.9168872,0.0,0.0,0.0,0.0
0.8199999999999998,0.11734800000000001,-10.4098344,-2.9279088,-1.9168872,0.0,0.0,0.0,0.0
0.8399999999999999,0.1441704,-10.4098344,-2.9279088,-1.7635728,0.0,0.0,0.0,0.0
0.8599999999999999,0.0810768,-10.4098344,-2.9279088,-1.9168872,0.0,0.0,0.0,0.0
0.8799999999999999,-0.048768000000000006,-10.4640888,-2.9818584,-1.9936968000000002,0.0,0.0,0.0,0.0
0.8999999999999999,-0.05333999999999999,-10.355580000000002,-2.9818584,-1.9936968000000002,0.0,0.0,0.0,0.0
0.9199999999999999,0.060045600000000005,-10.355580000000002,-2.9818584,-1.8400776,0.0,0.0,0.0,0.0
0.94,0.1057656,-10.4098344,-2.9279088,-1.8400776,0.0,0.0,0.0,0.0
0.96,0.17160240000000002,-10.4098344,-2.9279088,-1.9168872,0.0,0.0,0.0,0.0
0.98,0.010363200000000001,-10.5183432,-3.0361128,-1.9168872,0.0,0.0,0.0,0.0
1.0,-0.0188976,-10.4098344,-3.0361128,-1.9168872,0.0,0.0,0.0,0.0
1.02,-0.09052560000000001,-10.5725976,-2.8736544000000004,-1.8400776,0.0,0.0,0.0,0.0
1.04,-0.0783336,-10.4640888,-2.9818584,-1.9168872,0.0,0.0,0.0,0.0
1.06,-0.03352800000000001,-10.355580000000002,-2.9818584,-2.0702016,0.0,0.0,0.0,0.0
1.08,-0.12374879999999998,-10.4098344,-3.0361128,-1.9168872,0.0,0.0,0.0,0.0
1.1,-0.126492,-10.5725976,-2.8736544000000004,-1.8400776,0.0,0.0,0.0,0.0
1.12,0.05455920000000001,-10.4098344,-2.9279088,-1.9936968000000002,0.0,0.0,0.0,0.0
1.1400000000000001,0.034747200000000006,-10.4640888,-2.9818584,-1.9168872,0.0,0.0,0.0,0.0
1.1600000000000001,0.016154400000000003,-10.4640888,-2.8736544000000004,-1.7635728,0.0,0.0,0.0,0.0
1.1799999999999997,0.08260080000000002,-10.4640888,-2.8736544000000004,-1.8400776,0.0,0.0,0.0,0.0
1.1999999999999997,0.11978640000000002,-10.4098344,-2.9279088,-1.9168872,0.0,0.0,0.0,0.0
1.2199999999999998,-0.10088879999999999,-10.5725976,-2.8736544000000004,-1.7635728,0.0,0.0,0.0,0.0
1.2399999999999998,-0.09540239999999998,-10.4640888,-2.8736544000000004,-1.9168872,0.0,0.0,0.0,0.0
1.2599999999999998,0.04236720000000001,-10.4640888,-2.9818584,-1.8400776,0.0,0.0,0.0,0.0
1.2799999999999998,0.08564880000000001,-10.5183432,-2.9279088,-1.9168872,0.0,0.0,0.0,0.0
1.2999999999999998,-0.0295656,-10.5183432,-2.9279088,-1.8400776,0.0,0.0,0.0,0.0
1.3199999999999998,-0.007315199999999998,-10.4640888,-2.9818584,-1.9168872,0.0,0.0,0.0,0.0
1.3399999999999999,0.028041600000000007,-10.4098344,-2.9279088,-1.8400776,0.0,0.0,0.0,0.0
1.3599999999999999,0.0719328,-10.4640888,-2.9818584,-1.9168872,0.0,0.0,0.0,0.0
1.38,-0.07254239999999999,-10.4098344,-2.9279088,-1.9936968000000002,0.0,0.0,0.0,0.0
1.4,0.009144,-10.4098344,-2.9279088,-1.7635728,0.0,0.0,0.0,0.0
1.42,-0.1072896,-10.4640888,-2.9818584,-1.8400776,0.0,0.0,0.0,0.0
1.44,0.03322320000000001,-10.4098344,-2.9279088,-1.9168872,0.0,0.0,0.0,0.0
1.46,0.1429512,-10.355580000000002,-2.9818584,-1.7635728,0.0,0.0,0.0,0.0
1.48,0.0798576,-10.5183432,-2.9279088,-1.8400776,0.0,0.0,0.0,0.0
1.5,0.027432000000000005,-10.5183432,-2.8194000000000004,-2.0702016,0.0,0.0,0.0,0.0
1.52,0.06888480000000001,-10.355580000000002,-2.9818584,-1.9936968000000002,0.0,0.0,0.0,0.0
1.54,0.050901600000000005,-10.355580000000002,-2.9818584,-1.8400776,0.0,0.0,0.0,0.0
1.56,0.13350240000000002,-10.4640888,-2.8736544000000004,-1.8400776,0.0,0.0,0.0,0.0
1.58,0.16520160000000003,-10.4640888,-2.8736544000000004,-1.9168872,0.0,0.0,0.0,0.0
1.6,0.155448,-10.4640888,-2.9818584,-1.8400776,0.0,0.0,0.0,0.0
1.62,0.0950976,-10.4640888,-2.8736544000000004,-1.6867632000000001,0.0,0.0,0.0,0.0
1.6400000000000001,0.20939760000000002,-10.4640888,-2.8736544000000004,-1.7635728,0.0,0.0,0.0,0.0
1.6600000000000001,0.13350240000000002,-10.4640888,-2.9818584,-1.8400776,0.0,0.0,0.0,0.0
1.6799999999999997,0.039624000000000006,-10.5183432,-3.0361128,-1.9936968000000002,0.0,0.0,0.0,0.0
1.6999999999999997,0.04541520000000001,-10.4640888,-2.9818584,-1.9168872,0.0,0.0,0.0,0.0
1.7199999999999998,0.1804416,-10.4640888,-2.8736544000000004,-1.9936968000000002,0.0,0.0,0.0,0.0
1.7399999999999998,0.17282160000000002,-10.355580000000002,-2.9818584,-1.8400776,0.0,0.0,0.0,0.0
1.7599999999999998,0.1987296,-10.4640888,-2.9818584,-1.9936968000000002,0.0,0.0,0.0,0.0
1.7799999999999998,0.21549360000000004,-10.4098344,-3.0361128,-1.8400776,0.0,0.0,0.0,0.0
1.7999999999999998,0.14478,-10.4640888,-2.9818584,-1.9168872,0.0,0.0,0.0,0.0
1.8199999999999998,0.08778240000000001,-10.5183432,-3.0361128,-1.9936968000000002,0.0,0.0,0.0,0.0
1.8399999999999999,0.026822400000000003,-10.4098344,-2.9279088,-1.9168872,0.0,0.0,0.0,0.0
1.8599999999999999,0.014630400000000005,-10.5183432,-2.9279088,-1.9168872,0.0,0.0,0.0,0.0
1.88,0.1072896,-10.3013256,-2.9279088,-1.9936968000000002,0.0,0.0,0.0,0.0
1.9,-0.0475488,-10.4640888,-2.9818584,-1.9936968000000002,0.0,0.0,0.0,0.0
1.92,0.007924800000000008,-10.4098344,-3.0361128,-1.8400776,0.0,0.0,0.0,0.0
1.94,-0.056692799999999995,-10.4098344,-2.9279088,-1.7635728,0.0,0.0,0.0,0.0
1.96,-0.007010399999999998,-10.5183432,-2.9279088,-1.7635728,0.0,0.0,0.0,0.0
1.98,-0.032613600000000006,-10.4098344,-2.9279088,-1.9168872,0.0,0.0,0.0,0.0
2.0,-0.13014959999999998,-10.4640888,-2.9818584,-1.8400776,0.0,0.0,0.0,0.0
2.02,-0.0719328,-10.4640888,-2.8736544000000004,-1.9168872,0.0,0.0,0.0,0.0
2.04,-0.1542288,-10.4098344,-2.8194000000000004,-1.9936968000000002,0.0,0.0,0.0,0.0
2.06,-0.0176784,-10.4098344,-3.0361128,-1.8400776,0.0,0.0,0.0,0.0
2.08,0.0743712,-10.4640888,-2.8736544000000004,-1.9168872,0.0,0.0,0.0,0.0
2.1,0.13045440000000003,-10.4098344,-2.9279088,-1.9936968000000002,0.0,0.0,0.0,0.0
2.12,0.1408176,-10.4098344,-2.9279088,-1.9168872,0.0,0.0,0.0,0.0
2.14,0.04602480000000001,-10.4640888,-2.9818584,-1.9168872,0.0,0.0,0.0,0.0
2.16,-0.014630399999999997,-10.4098344,-3.0361128,-1.9168872,0.0,0.0,0.0,0.0
2.1799999999999997,0.0027432000000000025,-10.4640888,-2.9818584,-1.8400776,0.0,0.0,0.0,0.0
2.1999999999999997,0.034747200000000006,-10.355580000000002,-2.9818584,-1.9936968000000002,0.0,0.0,0.0,0.0
2.2199999999999998,0.3410712,-10.5183432,-2.9279088,-1.9936968000000002,0.0,0.0,0.0,0.0
2.2399999999999998,0.16550640000000003,-10.5183432,-3.0361128,-1.9168872,0.0,0.0,0.0,0.0
2.26,0.1871472,-10.4098344,-3.0361128,-1.9936968000000002,0.0,0.0,0.0,0.0
2.28,0.1511808,-10.4098344,-2.9279088,-1.9168872,0.0,0.0,0.0,0.0
2.3,-0.077724,-10.4098344,-2.9279088,-1.9168872,0.0,0.0,0.0,0.0
2.32,-0.09204959999999998,-10.355580000000002,-2.9818584,-1.9168872,0.0,0.0,0.0,0.0
2.34,-0.020421599999999995,-10.5183432,-2.9279088,-1.9168872,0.0,0.0,0.0,0.0
2.36,-0.0749808,-10.4098344,-2.9279088,-1.8400776,0.0,0.0,0.0,0.0
2.38,-0.0176784,-10.5183432,-2.9279088,-1.9168872,0.0,0.0,0.0,0.0
2.4,0.12740640000000003,-10.4640888,-2.9818584,-1.8400776,0.0,0.0,0.0,0.0
2.42,0.04632960000000001,-10.4640888,-2.9818584,-1.9168872,0.0,0.0,0.0,0.0
2.44,-0.020421599999999995,-10.355580000000002,-2.9818584,-1.7635728,0.0,0.0,0.0,0.0
2.46,-0.0865632,-10.4098344,-2.9279088,-1.8400776,0.0,0.0,0.0,0.0
2.48,-0.038404799999999996,-10.4098344,-2.9279088,-1.8400776,0.0,0.0,0.0,0.0
2.5,-0.014325599999999997,-10.355580000000002,-2.9818584,-1.8400776,0.0,0.0,0.0,0.0
2.52,0.005791200000000005,-10.4098344,-3.0361128,-1.9168872,0.0,0.0,0.0,0.0
2.54,-0.2410968,-10.5183432,-2.9279088,-1.9168872,0.0,0.0,0.0,0.0
2.5599999999999996,-0.1033272,-10.4640888,-2.9818584,-1.9168872,0.0,0.0,0.0,0.0
2.58,-0.0088392,-10.4640888,-2.8736544000000004,-1.7635728,0.0,0.0,0.0,0.0
2.5999999999999996,-0.112776,-10.5183432,-2.9279088,-1.8400776,0.0,0.0,0.0,0.0
2.62,0.017983200000000005,-10.4098344,-2.9279088,-1.8400776,0.0,0.0,0.0,0.0
2.6399999999999997,0.0734568,-10.4640888,-2.9818584,-1.9168872,0.0,0.0,0.0,0.0
2.66,-0.014020799999999996,-10.4640888,-2.9818584,-1.8400776,0.0,0.0,0.0,0.0
2.6799999999999997,0.11308080000000001,-10.4098344,-2.9279088,-1.9168872,0.0,0.0,0.0,0.0
2.7,0.1594104,-10.4098344,-2.9279088,-1.8400776,0.0,0.0,0.0,0.0
2.7199999999999998,-0.005181599999999996,-10.4098344,-2.9279088,-1.9936968000000002,0.0,0.0,0.0,0.0
2.74,-0.0713232,-10.355580000000002,-2.9818584,-1.6867632000000001,0.0,0.0,0.0,0.0
2.76,0.008534400000000008,-10.355580000000002,-2.9818584,-1.7635728,0.0,0.0,0.0,0.0
2.7800000000000002,0.08778240000000001,-10.355580000000002,-2.8736544000000004,-1.9168872,0.0,0.0,0.0,0.0
2.8,0.08717280000000001,-10.4640888,-2.9818584,-1.9168872,0.0,0.0,0.0,0.0
2.82,-0.0649224,-10.4098344,-2.9279088,-1.9936968000000002,0.0,0.0,0.0,0.0
2.84,0.012496800000000004,-10.4098344,-2.9279088,-1.9168872,0.0,0.0,0.0,0.0
2.86,0.026212800000000005,-10.4098344,-2.9279088,-1.8400776,0.0,0.0,0.0,0.0
2.88,-0.013106399999999995,-10.4098344,-3.0361128,-1.7635728,0.0,0.0,0.0,0.0
2.9,-0.029870400000000002,-10.4640888,-2.9818584,-1.9168872,0.0,0.0,0.0,0.0
2.92,-0.09052560000000001,-10.4640888,-2.9818584,-1.9168872,0.0,0.0,0.0,0.0
2.94,-0.08869680000000002,-10.3013256,-2.9279088,-1.9936968000000002,0.0,0.0,0.0,0.0
2.96,-0.18288000000000001,-10.355580000000002,-2.9818584,-1.9168872,0.0,0.0,0.0,0.0
2.98,-0.12222479999999998,-10.5183432,-2.9279088,-1.8400776,0.0,0.0,0.0,0.0
3.0,0.026517600000000002,-10.5183432,-2.9279088,-1.7635728,0.0,0.0,0.0,0.0
3.02,0.07863840000000001,-10.4640888,-2.9818584,-1.9936968000000002,0.0,0.0,0.0,0.0
3.04,-0.0454152,-10.4098344,-2.9279088,-1.8400776,0.0,0.0,0.0,0.0
3.0599999999999996,-0.25786079999999995,-10.4640888,-2.8736544000000004,-1.9168872,0.0,0.0,0.0,0.0
3.08,-0.19537680000000002,-10.247376,-2.8736544000000004,-1.9168872,0.0,0.0,0.0,0.0
3.0999999999999996,-0.0438912,-10.4640888,-2.9818584,-1.8400776,0.0,0.0,0.0,0.0
3.12,-0.05242560000000001,-10.5183432,-2.9279088,-1.7635728,0.0,0.0,0.0,0.0
3.1399999999999997,-0.0414528,-10.4098344,-2.9279088,-1.9168872,0.0,0.0,0.0,0.0
3.16,-0.16489679999999998,-10.4098344,-3.0361128,-1.9168872,0.0,0.0,0.0,0.0
3.1799999999999997,-0.0637032,-10.355580000000002,-2.9818584,-1.8400776,0.0,0.0,0.0,0.0
3.2,-0.0667512,-10.4098344,-2.9279088,-1.8400776,0.0,0.0,0.0,0.0
3.2199999999999998,-0.11948160000000001,-10.4640888,-2.9818584,-1.7635728,0.0,0.0,0.0,0.0
3.24,0.10088880000000001,-10.4098344,-2.9279088,-1.9168872,0.0,0.0,0.0,0.0
3.26,0.029260800000000007,-10.4640888,-2.9818584,-2.0702016,0.0,0.0,0.0,0.0
3.2800000000000002,-0.0463296,-10.4640888,-2.9818584,-1.9168872,0.0,0.0,0.0,0.0
3.3,0.185928,-10.4098344,-2.9279088,-1.8400776,0.0,0.0,0.0,0.0
3.32,0.23622,-10.4098344,-2.9279088,-1.9168872,0.0,0.0,0.0,0.0
3.34,0.1880616,-10.4640888,-2.8736544000000004,-1.9936968000000002,0.0,0.0,0.0,0.0
3.36,0.15849600000000003,-10.4098344,-3.0361128,-1.8400776,0.0,0.0,0.0,0.0
3.38,0.1167384,-10.4640888,-2.9818584,-1.9168872,0.0,0.0,0.0,0.0
3.4,0.0804672,-10.4640888,-2.9818584,-1.8400776,0.0,0.0,0.0,0.0
3.42,0.06614160000000001,-10.355580000000002,-2.9818584,-1.8400776,0.0,0.0,0.0,0.0
3.44,0.16733520000000002,-10.5183432,-2.9279088,-1.9168872,0.0,0.0,0.0,0.0
3.46,0.09814560000000001,-10.4640888,-2.9818584,-1.9168872,0.0,0.0,0.0,0.0
3.48,0.0755904,-10.355580000000002,-2.9818584,-1.9168872,0.0,0.0,0.0,0.0
3.5,-0.173736,-10.4640888,-2.9818584,-1.9168872,0.0,0.0,0.0,0.0
3.52,-0.1362456,-10.5725976,-2.9818584,-1.9168872,0.0,0.0,0.0,0.0
3.54,-0.08534400000000002,-10.4640888,-2.9818584,-1.9168872,0.0,0.0,0.0,0.0
3.56,-0.1709928,-10.4640888,-2.9818584,-1.8400776,0.0,0.0,0.0,0.0
3.58,-0.2520696,-10.4640888,-2.9818584,-1.9936968000000002,0.0,0.0,0.0,0.0
3.6,-0.2779776,-10.4098344,-3.0361128,-1.9168872,0.0,0.0,0.0,0.0
3.62,-0.2901696,-10.355580000000002,-2.9818584,-1.9168872,0.0,0.0,0.0,0.0
3.6399999999999997,-0.19720559999999998,-10.4098344,-2.9279088,-1.9936968000000002,0.0,0.0,0.0,0.0
3.66,-0.11704320000000001,-10.4640888,-2.9818584,-1.9168872,0.0,0.0,0.0,0.0
3.6799999999999997,-0.1167384,-10.4098344,-3.0361128,-1.8400776,0.0,0.0,0.0,0.0
3.7,-0.0816864,-10.4640888,-2.9818584,-1.9168872,0.0,0.0,0.0,0.0
3.7199999999999998,-0.03962399999999999,-10.5183432,-2.9279088,-1.9168872,0.0,0.0,0.0,0.0
3.7399999999999998,-0.08717280000000001,-10.4098344,-3.0361128,-1.8400776,0.0,0.0,0.0,0.0
3.76,-0.07741920000000001,-10.4098344,-2.9279088,-1.9168872,0.0,0.0,0.0,0.0
3.78,-0.1344168,-10.5183432,-2.9279088,-1.9168872,0.0,0.0,0.0,0.0
3.8,0.0816864,-10.4098344,-3.0361128,-1.9168872,0.0,0.0,0.0,0.0
3.82,0.1840992,-10.5183432,-2.9279088,-1.7635728,0.0,0.0,0.0,0.0
3.84,0.12771120000000002,-10.5183432,-2.8194000000000004,-1.9168872,0.0,0.0,0.0,0.0
3.86,0.09326880000000003,-10.355580000000002,-2.8736544000000004,-1.8400776,0.0,0.0,0.0,0.0
3.88,0.1115568,-10.4098344,-3.0361128,-1.9168872,0.0,0.0,0.0,0.0
3.9,0.153924,-10.4640888,-2.8736544000000004,-1.8400776,0.0,0.0,0.0,0.0
3.92,0.08503920000000001,-10.4640888,-2.9818584,-1.8400776,0.0,0.0,0.0,0.0
3.94,0.20695920000000004,-10.355580000000002,-2.9818584,-1.8400776,0.0,0.0,0.0,0.0
3.96,0.1377696,-10.4098344,-2.9279088,-1.9936968000000002,0.0,0.0,0.0,0.0
3.98,0.04541520000000001,-10.5183432,-2.9279088,-1.9936968000000002,0.0,0.0,0.0,0.0
4.0,0.13472160000000002,-10.3013256,-3.0361128,-1.8400776,0.0,0.0,0.0,0.0
4.02,0.23591520000000002,-10.4640888,-2.9818584,-1.9936968000000002,0.0,0.0,0.0,0.0
4.04,0.18288000000000001,-10.4640888,-2.8736544000000004,-1.9936968000000002,0.0,0.0,0.0,0.0
4.06,0.12222480000000001,-10.4098344,-3.0361128,-1.7635728,0.0,0.0,0.0,0.0
4.08,0.138684,-10.4098344,-2.9279088,-1.7635728,0.0,0.0,0.0,0.0
4.1,0.09906000000000001,-10.4098344,-2.9279088,-1.9936968000000002,0.0,0.0,0.0,0.0
4.12,0.003962400000000004,-10.4098344,-3.0361128,-1.9936968000000002,0.0,0.0,0.0,0.0
4.14,-0.003657599999999995,-10.5183432,-2.9279088,-1.9168872,0.0,0.0,0.0,0.0
4.16,-0.007010399999999998,-10.5183432,-2.9279088,-1.9168872,0.0,0.0,0.0,0.0
4.18,0.08900160000000001,-10.4640888,-2.9818584,-1.7635728,0.0,0.0,0.0,0.0
4.2,-0.09296399999999999,-10.355580000000002,-3.0903671999999998,-1.8400776,0.0,0.0,0.0,0.0
4.22,-0.038404799999999996,-10.4640888,-2.8736544000000004,-1.9168872,0.0,0.0,0.0,0.0
4.24,-0.0094488,-10.4640888,-2.8736544000000004,-1.9936968000000002,0.0,0.0,0.0,0.0
4.26,-0.013715999999999996,-10.4640888,-3.0903671999999998,-1.8400776,0.0,0.0,0.0,0.0
4.28,0.16459200000000002,-10.5725976,-2.9818584,-1.9936968000000002,0.0,0.0,0.0,0.0
4.3,0.1072896,-10.4640888,-2.9818584,-1.9168872,0.0,0.0,0.0,0.0
4.32,0.028956000000000006,-10.4098344,-2.9279088,-2.0702016,0.0,0.0,0.0,0.0
4.34,0.014935200000000006,-10.5183432,-2.9279088,-1.8400776,0.0,0.0,0.0,0.0
4.36,-0.1411224,-10.4098344,-2.9279088,-1.8400776,0.0,0.0,0.0,0.0
4.38,-0.048158400000000004,-10.4640888,-2.9818584,-1.9168872,0.0,0.0,0.0,0.0
4.4,0.04450080000000001,-10.4640888,-2.9818584,-1.9168872,0.0,0.0,0.0,0.0
4.42,0.034442400000000005,-10.5183432,-2.9279088,-1.8400776,0.0,0.0,0.0,0.0
4.4399999999999995,0.0100584,-10.5183432,-3.0361128,-1.8400776,0.0,0.0,0.0,0.0
4.46,0.007010400000000007,-10.952073600000002,-3.3616392,-1.7635728,0.0,0.0,0.0,0.0
4.4799999999999995,-0.1426464,-20.440192800000002,-5.5845456,-1.1500104,0.0,0.0,0.0,0.0
4.5,0.034137600000000004,-32.8562208,-9.6508824,-4.2937176,0.0,0.0,0.0,0.0
4.52,0.0795528,-40.7179272,-20.22348,-2.8370784000000002,0.0,0.0,0.0,0.0
4.54,0.32552640000000005,-52.70022480000001,-17.5668432,-12.804952800000002,0.0,0.0,0.0,0.0
4.56,0.3172968,-58.1220072,-35.1333816,-13.1883912,0.0,0.0,0.0,0.0
4.58,0.713232,-62.2968528,-29.006901600000003,2.7602688,0.0,0.0,0.0,0.0
4.6,0.9826752000000001,-54.2723832,-49.5013488,-16.4854128,0.0,0.0,0.0,0.0
4.62,1.2752831999999998,-70.10430480000001,-40.284196800000004,-4.0638984,0.0,0.0,0.0,0.0
4.64,1.4831568,-72.5442288,-47.603664,-6.0572904,0.0,0.0,0.0,0.0
4.66,1.6846295999999998,-70.10430480000001,-33.5612232,-14.2618968,0.0,0.0,0.0,0.0
4.68,1.8638519999999998,-69.12833520000001,-52.21224000000001,-13.49502,0.0,0.0,0.0,0.0
4.7,2.0702016,-95.15307360000001,-28.1394408,-14.951964,0.0,0.0,0.0,0.0
4.72,2.479548,-77.09855040000001,-50.74828560000001,-18.8622432,0.0,0.0,0.0,0.0
4.74,2.7684984000000004,-87.399876,-37.7360688,-19.7059296,0.0,0.0,0.0,0.0
4.76,3.1836360000000004,-81.00212400000001,-47.603664,-6.9009768,0.0,0.0,0.0,0.0
4.78,3.5963352000000004,-83.170776,-42.39859440000001,-15.335402400000001,0.0,0.0,0.0,0.0
4.8,4.084929600000001,-84.1467456,-44.8927728,-12.8817624,0.0,0.0,0.0,0.0
4.82,4.464100800000001,-87.5083848,-39.4709904,-17.405604,0.0,0.0,0.0,0.0
4.84,5.016398400000001,-85.1227152,-47.603664,-14.491716000000002,0.0,0.0,0.0,0.0
4.86,5.58546,-85.990176,-44.2420248,-16.5622224,0.0,0.0,0.0,0.0
4.88,6.306921600000001,-85.1227152,-46.736203200000006,-13.0350768,0.0,0.0,0.0,0.0
4.9,6.8506848,-89.460324,-44.78426400000001,-18.4023,0.0,0.0,0.0,0.0
4.92,7.7211936,-86.74912800000001,-44.5675512,-11.9615712,0.0,0.0,0.0,0.0
4.9399999999999995,8.562136800000001,-84.7974936,-44.5675512,-15.642031200000002,0.0,0.0,0.0,0.0
4.96,9.223248000000002,-86.261448,-46.0312008,-14.108277600000001,0.0,0.0,0.0,0.0
4.98,9.9675696,-84.580476,-45.326503200000005,-12.345009600000001,0.0,0.0,0.0,0.0
5.0,10.968228,-83.6045064,-45.435012,-13.571829600000001,0.0,0.0,0.0,0.0
5.02,11.722608,-83.170776,-45.76023360000001,-12.651638400000001,0.0,0.0,0.0,0.0
5.04,12.583668,-81.5986176,-43.3203096,-11.3480088,0.0,0.0,0.0,0.0
5.06,13.5303768,-80.02615440000001,-45.109485600000006,-10.044684,0.0,0.0,0.0,0.0
5.08,14.419173599999999,-78.7792176,-44.6218056,-12.958267200000002,0.0,0.0,0.0,0.0
5.1,15.454884,-79.4839152,-43.5915816,-13.8016488,0.0,0.0,0.0,0.0
5.12,16.66494,-78.7792176,-44.838518400000005,-10.121188800000002,0.0,0.0,0.0,0.0
5.14,17.7783744,-75.9055632,-41.531133600000004,-10.1979984,0.0,0.0,0.0,0.0
5.16,18.969228,-74.0078784,-38.332257600000005,-6.2109096,0.0,0.0,0.0,0.0
5.18,20.150328000000002,-70.5922896,-40.555164000000005,-11.501323200000002,0.0,0.0,0.0,0.0
5.2,21.314664,-77.20675440000001,-46.085455200000006,-9.4311216,0.0,0.0,0.0,0.0
5.22,22.300387200000003,-67.3934136,-36.7058448,-8.741054400000001,0.0,0.0,0.0,0.0
5.24,23.481792,-67.61012640000001,-37.356288,-10.428122400000001,0.0,0.0,0.0,0.0
5.26,24.423928800000002,-68.7488592,-35.7841296,-10.9645704,0.0,0.0,0.0,0.0
5.28,25.5699768,-68.69460480000001,-36.2721144,-11.9615712,0.0,0.0,0.0,0.0
5.3,26.891894399999998,-69.01982640000001,-36.597336,-12.7281432,0.0,0.0,0.0,0.0
5.32,28.233014400000002,-69.61632,-36.8683032,-16.3320984,0.0,0.0,0.0,0.0
5.34,29.7173904,-70.97176560000001,-38.2237488,-13.418210400000001,0.0,0.0,0.0,0.0
5.359999999999999,31.206033599999998,-79.1586936,-40.555164000000005,-18.939052800000002,0.0,0.0,0.0,0.0
5.38,32.8394568,-71.18847840000001,-36.814353600000004,-13.418210400000001,0.0,0.0,0.0,0.0
5.4,34.5948,-68.5318416,-35.7841296,-13.571829600000001,0.0,0.0,0.0,0.0
5.42,36.2236512,-68.0981112,-37.5190512,-14.0317728,0.0,0.0,0.0,0.0
5.4399999999999995,37.8384816,-68.5318416,-37.5190512,-12.114885600000001,0.0,0.0,0.0,0.0
5.46,39.438986400000005,-68.85736800000001,-36.0008424,-10.811256,0.0,0.0,0.0,0.0
5.48,40.691104800000005,-70.0500504,-38.061290400000004,-9.2013024,0.0,0.0,0.0,0.0
5.5,42.128541600000005,-69.236844,-37.898527200000004,-7.2841104,0.0,0.0,0.0,0.0
5.52,43.72935120000001,-69.94154160000001,-35.2418904,-6.2874144,0.0,0.0,0.0,0.0
5.54,45.293584800000005,-70.2128136,-33.452714400000005,-6.364224,0.0,0.0,0.0,0.0
5.56,46.873972800000004,-70.2667632,-34.80816,-7.36092,0.0,0.0,0.0,0.0
5.58,48.46472400000001,-71.2427328,-34.2659208,-7.2841104,0.0,0.0,0.0,0.0
5.6,50.11216800000001,-70.2667632,-35.675620800000004,-9.814560000000002,0.0,0.0,0.0,0.0
5.62,51.753516000000005,-70.2667632,-36.976812,-10.5046272,0.0,0.0,0.0,0.0
5.64,53.436012000000005,-69.8872872,-38.1155448,-16.0254696,0.0,0.0,0.0,0.0
5.66,55.31144640000001,-66.63415680000001,-36.163605600000004,-9.6612456,0.0,0.0,0.0,0.0
5.68,57.27100560000001,-65.4414744,-37.248084,-13.6483344,0.0,0.0,0.0,0.0
5.7,59.22324960000001,-67.5019224,-36.4888272,-13.6483344,0.0,0.0,0.0,0.0
5.72,61.07856720000001,-65.06199840000001,-38.386512,-7.8976728000000005,0.0,0.0,0.0,0.0
5.74,63.001245600000004,-68.0981112,-37.410542400000004,-11.8847616,0.0,0.0,0.0,0.0
5.76,64.8404088,-67.827144,-35.946588000000006,-9.5079312,0.0,0.0,0.0,0.0
5.78,66.8255712,-68.4775872,-36.814353600000004,-9.967874400000001,0.0,0.0,0.0,0.0
5.8,68.86986480000002,-68.3693832,-35.2961448,-7.2841104,0.0,0.0,0.0,0.0
5.82,70.6934832,-66.79692,-29.603090400000003,-8.58774,0.0,0.0,0.0,0.0
5.84,72.9145608,-67.5019224,-31.717792800000005,-11.7314472,0.0,0.0,0.0,0.0
5.859999999999999,75.18135840000001,-65.06199840000001,-28.3018992,-6.9009768,0.0,0.0,0.0,0.0
5.88,77.329284,-59.1522312,-28.4646624,-8.050987200000002,0.0,0.0,0.0,0.0
5.9,79.50586080000001,-48.959109600000005,-23.151084,-6.1341,0.0,0.0,0.0,0.0
5.92,81.6519576,-35.1333816,-15.7234128,-6.594043200000001,0.0,0.0,0.0,0.0
5.9399999999999995,83.8986384,-25.3742952,-11.8195344,-0.5367528,0.0,0.0,0.0,0.0
5.96,86.2059744,-14.855952000000002,-5.421782400000001,-0.9201912000000001,0.0,0.0,0.0,0.0
5.98,88.5370848,-9.976104,-1.7349216,1.1500104,0.0,0.0,0.0,0.0
6.0,90.5201136,-5.476036800000001,-0.2709672,-0.5367528,0.0,0.0,0.0,0.0
6.02,92.2931352,-4.3915584,2.0061936,-1.3801344,0.0,0.0,0.0,0.0
6.04,93.72447600000001,0.0542544,2.2229064000000003,-3.0672024,0.0,0.0,0.0,0.0
6.06,95.14332,0.1085088,5.5302912,-2.9135831999999997,0.0,0.0,0.0,0.0
6.08,96.48718319999999,1.7349216,4.2291,-1.6102584000000002,0.0,0.0,0.0,0.0
6.1,97.8706704,-0.7589520000000001,8.566404,-3.2205168000000004,0.0,0.0,0.0,0.0
6.12,99.22489680000001,0.9217152000000001,6.885736800000001,-0.30662880000000003,0.0,0.0,0.0,0.0
6.14,100.6086888,1.2469368,6.5605152,-0.0768096,0.0,0.0,0.0,0.0
6.16,101.8830576,0.8674608,8.024164800000001,1.6867632000000001,0.0,0.0,0.0,0.0
6.18,103.0476984,0.8132064000000001,9.379915200000001,7.2076056,0.0,0.0,0.0,0.0
6.2,104.1739344,1.789176,8.4039456,2.4536400000000005,0.0,0.0,0.0,0.0
6.22,105.2401248,2.4399240000000004,7.1024496,4.370527200000001,0.0,0.0,0.0,0.0
6.24,106.4657256,1.7349216,5.8555128,5.6741568000000004,0.0,0.0,0.0,0.0
6.26,107.8812168,2.1686520000000002,7.156704,3.0672024,0.0,0.0,0.0,0.0
6.28,109.1312016,3.3073848000000003,4.2833544,2.1470112,0.0,0.0,0.0,0.0
6.3,110.4104472,4.445812800000001,3.578352,1.3036296,0.0,0.0,0.0,0.0
6.32,111.74333759999999,3.9035736000000005,5.5302912,3.0672024,0.0,0.0,0.0,0.0
6.34,113.1484656,4.0663368,5.476036800000001,2.8370784000000002,0.0,0.0,0.0,0.0
6.359999999999999,114.73738800000001,2.9818584,5.476036800000001,5.367223200000001,0.0,0.0,0.0,0.0
6.38,116.459508,3.4158936000000004,5.801258400000001,1.9936968000000002,0.0,0.0,0.0,0.0
6.4,118.329456,3.4698432,6.2892432000000005,2.8370784000000002,0.0,0.0,0.0,0.0
6.42,120.3579,3.578352,5.7470040000000004,1.3036296,0.0,0.0,0.0,0.0
6.4399999999999995,122.3150208,3.3073848000000003,6.343497600000001,1.6102584000000002,0.0,0.0,0.0,0.0
6.46,124.25263439999999,2.9279088,7.3737216000000005,1.1500104,0.0,0.0,0.0,0.0
6.48,126.1457472,3.6326064,6.018276,-0.4599432,0.0,0.0,0.0,0.0
6.5,127.9955784,2.8736544000000004,6.777228,4.0638984,0.0,0.0,0.0,0.0
6.52,130.0548072,3.5240976,5.0423064,-0.15331440000000002,0.0,0.0,0.0,0.0
6.54,132.0503328,4.012082400000001,3.7953696000000003,3.0672024,0.0,0.0,0.0,0.0
6.5600000000000005,133.9013832,3.2531304000000003,4.6628304,5.750661600000001,0.0,0.0,0.0,0.0
6.58,135.75792,2.3314152,6.1267848,2.4536400000000005,0.0,0.0,0.0,0.0
6.6,137.591292,2.7651456,6.5605152,3.1437072,0.0,0.0,0.0,0.0
6.62,139.3304808,2.8736544000000004,6.1267848,3.1437072,0.0,0.0,0.0,0.0
6.640000000000001,140.9885928,3.3073848000000003,5.0423064,2.3768304000000002,0.0,0.0,0.0,0.0
6.66,142.7186376,2.7108912000000003,5.096560800000001,5.9807856,0.0,0.0,0.0,0.0
6.68,144.379188,3.4698432,4.7713392,0.7668768,0.0,0.0,0.0,0.0
6.699999999999999,146.02785120000001,3.3616392,4.7713392,3.0672024,0.0,0.0,0.0,0.0
6.72,147.6789528,3.2531304000000003,5.7470040000000004,2.0702016,0.0,0.0,0.0,0.0
6.74,149.1892368,3.2531304000000003,4.988052,2.0702016,0.0,0.0,0.0,0.0
6.76,150.7827312,3.198876,5.367528,-0.3834384,0.0,0.0,0.0,0.0
6.779999999999999,152.31861840000002,3.6326064,4.7170848,-0.30662880000000003,0.0,0.0,0.0,0.0
6.8,153.87828,2.4941784,5.8555128,0.4599432,0.0,0.0,0.0,0.0
6.82,155.4010608,2.6023824,5.8555128,1.2268200000000002,0.0,0.0,0.0,0.0
6.84,156.94121520000002,2.3314152,5.9097672,-0.30662880000000003,0.0,0.0,0.0,0.0
6.859999999999999,158.4859416,1.9519392,6.506260800000001,3.2970216000000003,0.0,0.0,0.0,0.0
6.88,159.952944,2.9279088,5.421782400000001,1.7635728,0.0,0.0,0.0,0.0
6.9,161.40318240000002,2.8194000000000004,4.7713392,3.3738312000000006,0.0,0.0,0.0,0.0
6.92,162.89030160000002,3.198876,3.7411152,2.5304496,0.0,0.0,0.0,0.0
6.9399999999999995,164.5054368,1.8434304000000001,6.0725304,2.3768304000000002,0.0,0.0,0.0,0.0
6.96,166.1004552,2.4941784,4.8795432000000005,5.5205376,0.0,0.0,0.0,0.0
6.98,167.5945848,2.8736544000000004,3.5240976,0.23012400000000002,0.0,0.0,0.0,0.0
7.0,169.0762176,1.5182088,7.156704,2.1470112,0.0,0.0,0.0,0.0
7.02,170.5490112,2.1686520000000002,5.3132736,2.6069544000000002,0.0,0.0,0.0,0.0
7.04,171.99162959999998,2.9818584,3.198876,0.7668768,0.0,0.0,0.0,0.0
7.0600000000000005,173.38669919999998,3.0903671999999998,4.2833544,-0.5367528,0.0,0.0,0.0,0.0
7.08,174.75403200000002,2.9279088,4.445812800000001,2.3768304000000002,0.0,0.0,0.0,0.0
7.1,176.4356136,3.2531304000000003,3.7953696000000003,0.0,0.0,0.0,0.0,0.0
7.12,178.07482800000002,3.0361128,4.120591200000001,1.9168872,0.0,0.0,0.0,0.0
7.140000000000001,179.56956720000002,2.1686520000000002,4.554321600000001,4.2172128,0.0,0.0,0.0,0.0
7.16,181.1088072,1.8976848000000002,5.5845456,0.8433816000000001,0.0,0.0,0.0,0.0
7.18,182.5788576,1.5724632,6.4520064,2.9135831999999997,0.0,0.0,0.0,0.0
7.199999999999999,184.1927736,1.030224,6.885736800000001,1.3801344,0.0,0.0,0.0,0.0
7.22,185.73871920000002,1.5724632,5.9097672,2.0702016,0.0,0.0,0.0,0.0
7.24,187.2502224,1.4639544,5.5845456,2.3768304000000002,0.0,0.0,0.0,0.0
7.26,188.7324648,1.3554456000000001,6.018276,0.0768096,0.0,0.0,0.0,0.0
7.279999999999999,190.11869520000002,1.1387328,5.801258400000001,1.5334488,0.0,0.0,0.0,0.0
7.3,191.5549128,1.8434304000000001,5.205069600000001,-0.0768096,0.0,0.0,0.0,0.0
7.32,192.93992400000002,3.198876,2.7651456,0.15331440000000002,0.0,0.0,0.0,0.0
7.34,194.438016,2.2771608000000003,3.1446216000000002,-0.23012400000000002,0.0,0.0,0.0,0.0
7.359999999999999,195.80626320000002,2.6566368,3.7411152,0.7668768,0.0,0.0,0.0,0.0
7.38,197.12452320000003,2.6566368,3.198876,3.1437072,0.0,0.0,0.0,0.0
7.4,198.5205072,2.0061936,3.7411152,3.7572696000000003,0.0,0.0,0.0,0.0
7.42,199.96038240000001,1.3011912,5.096560800000001,3.2970216000000003,0.0,0.0,0.0,0.0
7.4399999999999995,201.4746288,1.8434304000000001,4.2291,3.1437072,0.0,0.0,0.0,0.0
7.46,202.9458984,1.3011912,5.638800000000001,4.8304704,0.0,0.0,0.0,0.0
7.48,204.42692160000001,0.0542544,6.885736800000001,3.9870888,0.0,0.0,0.0,0.0
7.5,205.92928080000002,1.6264128000000002,4.120591200000001,1.9168872,0.0,0.0,0.0,0.0
7.52,207.4121328,1.0844784,6.0725304,0.5367528,0.0,0.0,0.0,0.0
7.54,208.7477664,0.8132064000000001,6.343497600000001,0.6135624,0.0,0.0,0.0,0.0
7.5600000000000005,210.14893200000003,2.3314152,3.957828,-1.4569440000000002,0.0,0.0,0.0,0.0
7.58,211.4050128,2.4941784,3.4698432,-0.3834384,0.0,0.0,0.0,0.0
7.6,212.89670400000003,2.2771608000000003,2.8194000000000004,-0.6900672,0.0,0.0,0.0,0.0
7.62,214.33871280000002,2.2771608000000003,3.578352,0.6900672,0.0,0.0,0.0,0.0
7.640000000000001,215.78651280000003,2.8736544000000004,1.6806672000000002,-0.23012400000000002,0.0,0.0,0.0,0.0
7.66,217.1428728,1.3554456000000001,4.2833544,0.8433816000000001,0.0,0.0,0.0,0.0
7.68,218.43431040000002,1.030224,5.1508152,1.7635728,0.0,0.0,0.0,0.0
7.699999999999999,219.7909752,0.650748,4.8795432000000005,4.0638984,0.0,0.0,0.0,0.0
7.72,221.12020800000002,1.030224,4.608576,2.3768304000000002,0.0,0.0,0.0,0.0
7.74,222.41560800000002,0.5422392,6.1807343999999995,1.4569440000000002,0.0,0.0,0.0,0.0
7.76,223.8030576,1.3554456000000001,4.7170848,0.996696,0.0,0.0,0.0,0.0
7.779999999999999,225.14996879999998,0.9759696,4.8795432000000005,-0.9201912000000001,0.0,0.0,0.0,0.0
7.8,226.414584,1.3554456000000001,4.608576,1.7635728,0.0,0.0,0.0,0.0
7.82,227.7179088,1.5182088,4.445812800000001,-0.6900672,0.0,0.0,0.0,0.0
7.84,228.9358896,1.8976848000000002,3.6326064,-0.15331440000000002,0.0,0.0,0.0,0.0
7.859999999999999,230.203248,2.2229064000000003,2.6566368,0.23012400000000002,0.0,0.0,0.0,0.0
7.88,231.44104080000002,2.6023824,2.3856696,1.1500104,0.0,0.0,0.0,0.0
7.9,232.7873424,2.1686520000000002,3.0361128,0.4599432,0.0,0.0,0.0,0.0
7.92,234.1668672,1.7349216,3.2531304000000003,3.6036504000000003,0.0,0.0,0.0,0.0
7.9399999999999995,235.52658000000002,1.5182088,4.6628304,2.683764,0.0,0.0,0.0,0.0
7.96,236.8576416,0.7589520000000001,4.6628304,4.370527200000001,0.0,0.0,0.0,0.0
7.98,238.16431920000002,1.0844784,4.8795432000000005,-0.15331440000000002,0.0,0.0,0.0,0.0
8.0,239.52250800000002,0.0542544,5.6930544,0.8433816000000001,0.0,0.0,0.0,0.0
8.02,240.81699360000002,0.7046976,5.0423064,1.6867632000000001,0.0,0.0,0.0,0.0
8.04,241.948716,1.4639544,4.2833544,1.1500104,0.0,0.0,0.0,0.0
8.06,243.1828512,1.3011912,4.2291,0.30662880000000003,0.0,0.0,0.0,0.0
8.08,244.3865064,0.9217152000000001,4.8252888,1.0735056,0.0,0.0,0.0,0.0
8.1,245.6005248,1.7349216,3.6868608000000003,-0.23012400000000002,0.0,0.0,0.0,0.0
8.120000000000001,246.897144,1.4097000000000002,3.578352,-0.15331440000000002,0.0,0.0,0.0,0.0
8.14,248.1919344,0.9759696,4.120591200000001,0.8433816000000001,0.0,0.0,0.0,0.0
8.16,249.4266792,0.9759696,4.445812800000001,0.6135624,0.0,0.0,0.0,0.0
8.18,250.6342968,1.030224,3.7411152,2.4536400000000005,0.0,0.0,0.0,0.0
8.2,251.8437432,0.9217152000000001,4.2833544,0.4599432,0.0,0.0,0.0,0.0
8.219999999999999,253.0909848,0.5422392,4.445812800000001,2.4536400000000005,0.0,0.0,0.0,0.0
8.24,254.3110992,0.9759696,4.012082400000001,0.6135624,0.0,0.0,0.0,0.0
8.26,255.46050000000002,0.8132064000000001,4.2833544,0.8433816000000001,0.0,0.0,0.0,0.0
8.28,256.7190192,0.650748,4.554321600000001,1.5334488,0.0,0.0,0.0,0.0
8.3,258.1067736,0.9217152000000001,3.8496240000000004,2.0702016,0.0,0.0,0.0,0.0
8.32,259.412232,0.8674608,4.120591200000001,0.6135624,0.0,0.0,0.0,0.0
8.34,260.73110160000004,0.3252216,4.7713392,1.2268200000000002,0.0,0.0,0.0,0.0
8.36,261.9524352,1.2469368,2.9818584,1.3036296,0.0,0.0,0.0,0.0
8.379999999999999,263.1146376,1.1387328,3.198876,0.6135624,0.0,0.0,0.0,0.0
8.4,264.2628192,1.0844784,3.1446216000000002,0.0,0.0,0.0,0.0,0.0
8.42,265.3518696,1.1926824,3.1446216000000002,2.223516,0.0,0.0,0.0,0.0
8.44,266.596368,1.5182088,3.1446216000000002,1.0735056,0.0,0.0,0.0,0.0
8.46,267.8664696,0.7046976,3.5240976,1.3801344,0.0,0.0,0.0,0.0
8.48,269.1225504,0.8674608,3.3616392,0.6135624,0.0,0.0,0.0,0.0
8.5,270.24604320000003,1.3011912,3.1446216000000002,0.8433816000000001,0.0,0.0,0.0,0.0
8.52,271.316196,0.7589520000000001,3.9035736000000005,1.2268200000000002,0.0,0.0,0.0,0.0
8.54,272.4037224,0.8674608,3.6868608000000003,0.0768096,0.0,0.0,0.0,0.0
8.559999999999999,273.54276,0.4879848,3.957828,-0.0768096,0.0,0.0,0.0,0.0
8.58,274.87199280000004,0.2170176,4.7713392,-0.30662880000000003,0.0,0.0,0.0,0.0
8.6,276.0622368,0.2709672,4.8252888,1.3036296,0.0,0.0,0.0,0.0
8.620000000000001,277.2418128,0.4337304,3.4698432,-0.4599432,0.0,0.0,0.0,0.0
8.64,278.3884704,-0.4337304,5.7470040000000004,2.683764,0.0,0.0,0.0,0.0
8.66,279.47112,0.7589520000000001,3.0361128,0.15331440000000002,0.0,0.0,0.0,0.0
8.68,280.5845544,1.1387328,2.4399240000000004,0.0,0.0,0.0,0.0,0.0
8.7,281.761692,0.8132064000000001,3.0903671999999998,0.30662880000000003,0.0,0.0,0.0,0.0
8.719999999999999,282.8854896,0.0542544,3.6326064,1.7635728,0.0,0.0,0.0,0.0
8.74,283.96478640000004,0.3252216,3.4698432,3.7572696000000003,0.0,0.0,0.0,0.0
8.76,285.065724,0.3252216,3.578352,0.30662880000000003,0.0,0.0,0.0,0.0
8.780000000000001,286.2105528,-0.0542544,4.7170848,2.3768304000000002,0.0,0.0,0.0,0.0
8.8,287.20206720000004,0.4337304,3.0361128,2.3768304000000002,0.0,0.0,0.0,0.0
8.82,288.1112856,0.16276320000000002,3.3073848000000003,0.8433816000000001,0.0,0.0,0.0,0.0
8.84,289.1323656,0.8132064000000001,2.7651456,1.0735056,0.0,0.0,0.0,0.0
8.86,290.155884,0.8132064000000001,2.548128,0.0768096,0.0,0.0,0.0,0.0
8.879999999999999,291.1577616,0.2709672,3.6326064,1.6867632000000001,0.0,0.0,0.0,0.0
8.9,292.1907288,0.7046976,3.0903671999999998,0.23012400000000002,0.0,0.0,0.0,0.0
8.92,293.1798048,-0.0542544,3.7411152,1.0735056,0.0,0.0,0.0,0.0
8.94,294.14480160000005,0.5422392,2.7108912000000003,-0.8433816000000001,0.0,0.0,0.0,0.0
8.96,295.1384496,0.4337304,2.9279088,0.15331440000000002,0.0,0.0,0.0,0.0
8.98,296.2177464,0.1085088,4.012082400000001,-0.30662880000000003,0.0,0.0,0.0,0.0
9.0,297.311064,0.16276320000000002,3.4158936000000004,0.0768096,0.0,0.0,0.0,0.0
9.02,298.5000888,0.5422392,3.1446216000000002,1.0735056,0.0,0.0,0.0,0.0
9.04,299.5784712,0.0,3.6868608000000003,0.30662880000000003,0.0,0.0,0.0,0.0
9.059999999999999,300.74067360000004,-0.3252216,4.445812800000001,0.5367528,0.0,0.0,0.0,0.0
9.08,301.81905600000005,-0.0542544,3.957828,0.23012400000000002,0.0,0.0,0.0,0.0
9.1,302.9687616,-0.16276320000000002,4.1748456,0.3834384,0.0,0.0,0.0,0.0
9.120000000000001,304.0828056,-0.2170176,4.2291,0.0768096,0.0,0.0,0.0,0.0
9.14,305.1182112,-0.2170176,3.9035736000000005,1.4569440000000002,0.0,0.0,0.0,0.0
9.16,306.1932408,-0.4337304,3.6868608000000003,1.2268200000000002,0.0,0.0,0.0,0.0
9.18,307.27954800000003,-0.37947600000000004,4.1748456,0.5367528,0.0,0.0,0.0,0.0
9.2,308.3506152,0.5422392,2.4941784,1.5334488,0.0,0.0,0.0,0.0
9.219999999999999,309.3119544,0.37947600000000004,2.4399240000000004,1.0735056,0.0,0.0,0.0,0.0
9.24,310.2763416,0.7589520000000001,2.1686520000000002,0.996696,0.0,0.0,0.0,0.0
9.26,311.257188,0.7046976,1.6806672000000002,1.3036296,0.0,0.0,0.0,0.0
9.280000000000001,312.21761280000004,0.650748,1.6264128000000002,1.8400776,0.0,0.0,0.0,0.0
9.3,313.16005440000004,0.0,2.2771608000000003,0.8433816000000001,0.0,0.0,0.0,0.0
9.32,314.01623760000007,0.3252216,2.6023824,1.4569440000000002,0.0,0.0,0.0,0.0
9.34,314.8846128,0.0,2.9279088,0.6900672,0.0,0.0,0.0,0.0
9.36,315.7916976000001,-0.1085088,3.578352,-0.15331440000000002,0.0,0.0,0.0,0.0
9.379999999999999,316.7899176,-0.4879848,3.957828,-0.7668768,0.0,0.0,0.0,0.0
9.4,317.83294320000005,0.0,3.3616392,-0.9201912000000001,0.0,0.0,0.0,0.0
9.42,318.81866640000004,0.5422392,2.9279088,-1.3036296,0.0,0.0,0.0,0.0
9.44,319.8272496000001,-0.2709672,4.0663368,-1.5334488,0.0,0.0,0.0,0.0
9.46,320.67337440000006,0.1085088,3.4698432,-0.6900672,0.0,0.0,0.0,0.0
9.48,321.62465520000006,0.4337304,2.3856696,0.15331440000000002,0.0,0.0,0.0,0.0
9.5,322.5207672000001,0.16276320000000002,3.0903671999999998,-1.0735056,0.0,0.0,0.0,0.0
9.52,323.5525152000001,-0.0542544,2.9818584,0.3834384,0.0,0.0,0.0,0.0
9.54,324.48185040000004,0.0542544,2.8736544000000004,2.1470112,0.0,0.0,0.0,0.0
9.559999999999999,325.3721712000001,-0.2709672,2.7651456,0.4599432,0.0,0.0,0.0,0.0
9.58,326.1225888000001,-0.650748,3.3616392,0.6900672,0.0,0.0,0.0,0.0
9.6,326.8882464,-0.8674608,4.012082400000001,2.3003256,0.0,0.0,0.0,0.0
9.620000000000001,327.84897600000005,-0.8132064000000001,3.198876,0.30662880000000003,0.0,0.0,0.0,0.0
9.64,328.6999776,-0.8674608,3.9035736000000005,1.6102584000000002,0.0,0.0,0.0,0.0
9.66,329.5665240000001,-0.9759696,4.120591200000001,0.8433816000000001,0.0,0.0,0.0,0.0
9.68,330.47208480000006,-0.8132064000000001,4.0663368,0.15331440000000002,0.0,0.0,0.0,0.0
9.7,331.3261344,-0.7046976,3.3073848000000003,1.2268200000000002,0.0,0.0,0.0,0.0
9.719999999999999,332.18536560000007,-0.8132064000000001,3.4158936000000004,0.30662880000000003,0.0,0.0,0.0,0.0
9.74,332.97723600000006,-0.5964936000000001,3.3073848000000003,1.0735056,0.0,0.0,0.0,0.0
9.76,333.84500160000005,-0.650748,3.4698432,0.5367528,0.0,0.0,0.0,0.0
9.780000000000001,334.5265344,-0.1085088,2.4941784,0.9201912000000001,0.0,0.0,0.0,0.0
9.8,335.411064,-0.16276320000000002,2.2229064000000003,0.3834384,0.0,0.0,0.0,0.0
9.82,336.2901072,-0.0542544,2.3314152,-0.8433816000000001,0.0,0.0,0.0,0.0
9.84,337.2477888000001,0.2170176,1.5182088,0.0768096,0.0,0.0,0.0,0.0
9.86,338.07989280000004,0.0,2.0601432,1.0735056,0.0,0.0,0.0,0.0
9.879999999999999,338.92571280000004,-0.2170176,2.4941784,0.23012400000000002,0.0,0.0,0.0,0.0
9.9,339.75995040000004,-0.1085088,1.8434304000000001,-0.30662880000000003,0.0,0.0,0.0,0.0
9.92,340.59449280000007,0.1085088,1.6264128000000002,0.0,0.0,0.0,0.0,0.0
9.94,341.49212880000005,-0.37947600000000004,2.548128,-0.0768096,0.0,0.0,0.0,0.0
9.96,342.29802000000007,-0.1085088,1.7349216,0.6135624,0.0,0.0,0.0,0.0
9.98,343.20723840000005,-0.2709672,2.1143976,-0.30662880000000003,0.0,0.0,0.0,0.0
10.0,344.10792240000006,-0.9759696,4.120591200000001,-0.30662880000000003,0.0,0.0,0.0,0.0
10.02,345.0006816,-0.7046976,3.0903671999999998,-0.7668768,0.0,0.0,0.0,0.0
10.04,345.9824424,-1.0844784,3.578352,-0.30662880000000003,0.0,0.0,0.0,0.0
10.059999999999999,346.9184832000001,-1.030224,3.5240976,-0.30662880000000003,0.0,0.0,0.0,0.0
10.08,347.76674160000005,-0.7046976,3.198876,-0.23012400000000002,0.0,0.0,0.0,0.0
10.1,348.67291200000005,-0.7589520000000001,2.9279088,-0.9201912000000001,0.0,0.0,0.0,0.0
10.120000000000001,349.5543936,-0.9759696,3.4698432,-0.30662880000000003,0.0,0.0,0.0,0.0
10.14,350.4282552,-1.030224,3.3073848000000003,-0.30662880000000003,0.0,0.0,0.0,0.0
10.16,351.25761600000004,-1.0844784,3.3616392,-0.0768096,0.0,0.0,0.0,0.0
10.18,351.9290904,-0.8132064000000001,2.9818584,0.0768096,0.0,0.0,0.0,0.0
10.2,352.67249760000004,-0.7589520000000001,2.8194000000000004,0.4599432,0.0,0.0,0.0,0.0
10.219999999999999,353.3698800000001,-0.650748,2.7108912000000003,1.1500104,0.0,0.0,0.0,0.0
10.24,354.12639360000003,-0.8132064000000001,2.8736544000000004,0.6135624,0.0,0.0,0.0,0.0
10.26,354.8987568,-0.7046976,2.9818584,0.8433816000000001,0.0,0.0,0.0,0.0
10.280000000000001,355.6973328,-0.8674608,2.8194000000000004,1.2268200000000002,0.0,0.0,0.0,0.0
10.3,356.4477504,-0.5964936000000001,2.4399240000000004,0.8433816000000001,0.0,0.0,0.0,0.0
10.32,357.1448280000001,-0.9759696,2.8194000000000004,0.8433816000000001,0.0,0.0,0.0,0.0
10.34,357.9418800000001,-0.7046976,2.548128,0.5367528,0.0,0.0,0.0,0.0
10.36,358.76544960000007,-0.9217152000000001,2.7651456,0.3834384,0.0,0.0,0.0,0.0
10.379999999999999,359.57560800000005,-0.8674608,2.7108912000000003,1.9936968000000002,0.0,0.0,0.0,0.0
10.4,360.2775624000001,-0.8132064000000001,2.548128,0.23012400000000002,0.0,0.0,0.0,0.0
10.42,361.0331616000001,-0.7589520000000001,2.4941784,0.6135624,0.0,0.0,0.0,0.0
10.44,361.78601760000004,-0.8674608,2.8194000000000004,-0.15331440000000002,0.0,0.0,0.0,0.0
10.46,362.4888864,-0.5422392,2.1686520000000002,0.15331440000000002,0.0,0.0,0.0,0.0
10.48,363.21126240000007,-0.2170176,1.6264128000000002,0.0,0.0,0.0,0.0,0.0
10.5,363.92784720000003,-0.7589520000000001,2.3856696,0.5367528,0.0,0.0,0.0,0.0
10.52,364.7349576000001,-0.4879848,2.2229064000000003,-0.4599432,0.0,0.0,0.0,0.0
10.54,365.4875088,-0.4879848,1.8976848000000002,0.0,0.0,0.0,0.0,0.0
10.559999999999999,366.20622720000006,-0.7589520000000001,2.1686520000000002,-0.6900672,0.0,0.0,0.0,0.0
10.58,366.9913920000001,-0.7046976,2.548128,0.0768096,0.0,0.0,0.0,0.0
10.6,367.76314560000003,-0.8132064000000001,2.548128,-0.0768096,0.0,0.0,0.0,0.0
10.620000000000001,368.53398480000004,-0.7589520000000001,2.1686520000000002,-0.30662880000000003,0.0,0.0,0.0,0.0
10.64,369.2069832000001,-0.4879848,2.2229064000000003,-0.6135624,0.0,0.0,0.0,0.0
10.66,369.87053280000003,-0.650748,2.3856696,-0.30662880000000003,0.0,0.0,0.0,0.0
10.68,370.6105872,-0.7046976,2.3314152,-0.23012400000000002,0.0,0.0,0.0,0.0
10.7,371.32138080000004,-0.7589520000000001,2.3856696,-0.30662880000000003,0.0,0.0,0.0,0.0
10.719999999999999,372.03004080000005,-0.8674608,2.4941784,-0.4599432,0.0,0.0,0.0,0.0
10.74,372.64086000000003,-0.8674608,2.6023824,0.15331440000000002,0.0,0.0,0.0,0.0
10.76,373.27911120000005,-0.9217152000000001,2.3314152,0.23012400000000002,0.0,0.0,0.0,0.0
10.780000000000001,373.9167528000001,-0.8132064000000001,2.548128,0.15331440000000002,0.0,0.0,0.0,0.0
10.8,374.56750080000006,-1.030224,2.6566368,1.2268200000000002,0.0,0.0,0.0,0.0
10.82,375.2060568,-0.9217152000000001,2.4399240000000004,0.15331440000000002,0.0,0.0,0.0,0.0
10.84,375.95525520000007,-1.3554456000000001,3.0903671999999998,0.6900672,0.0,0.0,0.0,0.0
10.86,376.74042000000003,-1.3011912,3.0361128,1.2268200000000002,0.0,0.0,0.0,0.0
10.879999999999999,377.59050720000005,-1.3554456000000001,3.0903671999999998,0.4599432,0.0,0.0,0.0,0.0
10.9,378.32598960000007,-1.0844784,2.7108912000000003,0.8433816000000001,0.0,0.0,0.0,0.0
10.92,378.96210720000005,-1.030224,2.6566368,-0.23012400000000002,0.0,0.0,0.0,0.0
10.94,379.4909352000001,-1.1926824,2.8194000000000004,0.23012400000000002,0.0,0.0,0.0,0.0
10.96,380.0977920000001,-1.0844784,2.4941784,-0.4599432,0.0,0.0,0.0,0.0
10.98,380.63881200000003,-0.7589520000000001,2.1686520000000002,0.0768096,0.0,0.0,0.0,0.0
11.0,381.22402800000003,-0.8674608,2.2771608000000003,-0.3834384,0.0,0.0,0.0,0.0
11.02,381.8104632000001,-0.8674608,2.1686520000000002,0.4599432,0.0,0.0,0.0,0.0
11.04,382.3749528000001,-0.8132064000000001,2.1143976,-0.23012400000000002,0.0,0.0,0.0,0.0
11.059999999999999,382.9229832000001,-0.8132064000000001,1.789176,-0.0768096,0.0,0.0,0.0,0.0
11.08,383.62768080000006,-0.9759696,2.1686520000000002,-0.0768096,0.0,0.0,0.0,0.0
11.1,384.1144464,-0.9759696,2.1686520000000002,0.4599432,0.0,0.0,0.0,0.0
11.120000000000001,384.75513600000005,-0.9217152000000001,2.1143976,0.15331440000000002,0.0,0.0,0.0,0.0
11.14,385.31048160000006,-0.8132064000000001,1.8976848000000002,0.30662880000000003,0.0,0.0,0.0,0.0
11.16,385.84235760000007,-1.030224,1.8976848000000002,0.23012400000000002,0.0,0.0,0.0,0.0
11.18,386.3553360000001,-1.0844784,2.2771608000000003,0.5367528,0.0,0.0,0.0,0.0
11.2,386.92500720000004,-1.1387328,2.2229064000000003,0.3834384,0.0,0.0,0.0,0.0
11.219999999999999,387.4962024000001,-1.0844784,2.2771608000000003,0.23012400000000002,0.0,0.0,0.0,0.0
11.24,388.09422000000006,-1.0844784,2.2771608000000003,0.3834384,0.0,0.0,0.0,0.0
11.26,388.63005840000005,-0.9759696,2.2771608000000003,-0.0768096,0.0,0.0,0.0,0.0
11.280000000000001,389.25855600000006,-1.1926824,2.3856696,0.6135624,0.0,0.0,0.0,0.0
11.3,389.85657360000005,-1.2469368,2.4399240000000004,0.0,0.0,0.0,0.0,0.0
11.32,390.44209440000003,-1.1387328,2.3314152,-0.0768096,0.0,0.0,0.0,0.0
11.34,391.1004624000001,-1.3011912,2.4941784,0.15331440000000002,0.0,0.0,0.0,0.0
11.36,391.7125008000001,-1.1387328,2.3314152,0.0,0.0,0.0,0.0,0.0
11.379999999999999,392.34374160000004,-1.1926824,2.1686520000000002,-0.30662880000000003,0.0,0.0,0.0,0.0
11.4,392.8731792000001,-1.2469368,2.4399240000000004,-0.30662880000000003,0.0,0.0,0.0,0.0
11.42,393.5300232000001,-1.3011912,2.4941784,-0.23012400000000002,0.0,0.0,0.0,0.0
11.44,394.07866320000005,-1.2469368,2.2229064000000003,-0.0768096,0.0,0.0,0.0,0.0
11.46,394.717524,-1.030224,2.0061936,-0.23012400000000002,0.0,0.0,0.0,0.0
11.48,395.2152624000001,-1.2469368,2.3314152,-0.23012400000000002,0.0,0.0,0.0,0.0
11.5,395.8330920000001,-1.1926824,2.2771608000000003,-0.23012400000000002,0.0,0.0,0.0,0.0
11.52,396.28876800000006,-1.1926824,2.1686520000000002,-0.15331440000000002,0.0,0.0,0.0,0.0
11.54,396.8005272000001,-1.1926824,2.1686520000000002,0.0,0.0,0.0,0.0,0.0
11.559999999999999,397.28790240000006,-1.3011912,2.0601432,-0.15331440000000002,0.0,0.0,0.0,0.0
11.58,397.79326080000004,-1.1926824,2.1686520000000002,0.15331440000000002,0.0,0.0,0.0,0.0
11.6,398.33519520000004,-1.1387328,2.1143976,-0.0768096,0.0,0.0,0.0,0.0
11.620000000000001,398.86341360000006,-1.2469368,2.2229064000000003,0.23012400000000002,0.0,0.0,0.0,0.0
11.64,399.25752000000006,-1.3011912,2.2771608000000003,-0.0768096,0.0,0.0,0.0,0.0
11.66,399.7458096000001,-1.3554456000000001,2.2229064000000003,0.0,0.0,0.0,0.0,0.0
11.68,400.26671280000005,-1.2469368,2.0061936,0.0768096,0.0,0.0,0.0,0.0
11.7,400.7559168,-1.3011912,2.0601432,-0.15331440000000002,0.0,0.0,0.0,0.0
11.719999999999999,401.1573384,-1.4097000000000002,2.2771608000000003,0.3834384,0.0,0.0,0.0,0.0
11.74,401.61758640000005,-1.1926824,2.1686520000000002,0.0768096,0.0,0.0,0.0,0.0
11.76,402.0833208,-1.2469368,2.1143976,0.0768096,0.0,0.0,0.0,0.0
11.780000000000001,402.60056640000005,-1.4097000000000002,2.1686520000000002,0.0768096,0.0,0.0,0.0,0.0
11.8,403.0897704000001,-1.1926824,2.0601432,0.30662880000000003,0.0,0.0,0.0,0.0
11.82,403.67742480000004,-1.3554456000000001,2.2229064000000003,0.23012400000000002,0.0,0.0,0.0,0.0
11.84,404.15443680000004,-1.4639544,2.3314152,0.15331440000000002,0.0,0.0,0.0,0.0
11.86,404.72989920000003,-1.4639544,2.1143976,-0.0768096,0.0,0.0,0.0,0.0
11.879999999999999,405.19563360000006,-1.2469368,2.0061936,-0.23012400000000002,0.0,0.0,0.0,0.0
11.9,405.6653304,-1.3554456000000001,2.4399240000000004,-0.15331440000000002,0.0,0.0,0.0,0.0
11.92,406.2109224000001,-1.7349216,2.1686520000000002,-0.15331440000000002,0.0,0.0,0.0,0.0
11.94,406.444704,-34.8624144,-43.428818400000004,-20.4725016,0.0,0.0,0.0,0.0
11.96,406.8878832000001,-69.4535568,150.1304592,156.9561504,0.0,0.0,0.0,0.0
11.98,407.32618560000003,22.012656,35.2418904,77.6730984,0.0,0.0,0.0,0.0
12.0,407.7602208,7.2652128,7.4822304,8.1277968,0.0,0.0,0.0,0.0
12.02,408.18968400000006,-91.79143440000001,-130.2864552,-138.24722160000002,0.0,0.0,0.0,0.0
12.04,408.61457520000005,-0.0542544,222.02394,-157.03296000000003,0.0,0.0,0.0,0.0
12.059999999999999,410.19801120000005,171.1671456,50.80254000000001,-157.03296000000003,0.0,0.0,0.0,0.0
12.08,410.57413440000005,80.9478696,39.0915144,-1.8400776,0.0,0.0,0.0,0.0
12.1,410.9502576000001,-119.98512960000001,-47.00717040000001,-157.03296000000003,0.0,0.0,0.0,0.0
12.120000000000001,411.32638080000004,10.138867200000002,-28.4646624,50.1463056,0.0,0.0,0.0,0.0
12.14,412.46907600000003,-61.429392,16.970349600000002,156.9561504,0.0,0.0,0.0,0.0
12.16,412.8077088,-47.3326968,6.5605152,65.6347176,0.0,0.0,0.0,0.0
12.18,413.1463416,1.6264128000000002,-31.3383168,-17.0986704,0.0,0.0,0.0,0.0
12.2,413.4846696,8.566404,69.7248288,156.9561504,0.0,0.0,0.0,0.0
12.219999999999999,413.82330240000005,-53.62194000000001,17.40408,97.53203760000001,0.0,0.0,0.0,0.0
12.24,414.1619352000001,-48.633888000000006,-64.35699600000001,32.357263200000006,0.0,0.0,0.0,0.0
12.26,414.82853280000006,-16.0486344,1.0844784,-97.83897120000002,0.0,0.0,0.0,0.0
12.280000000000001,415.2522048000001,-85.2854784,6.5605152,-96.5353416,0.0,0.0,0.0,0.0
12.3,415.52652480000006,-10.247376,1.5724632,-10.888065600000001,0.0,0.0,0.0,0.0
12.32,415.80084480000005,13.0664712,-24.45258,-77.21285040000001,0.0,0.0,0.0,0.0
12.34,416.07486000000006,-63.218568000000005,-52.3750032,23.7695232,0.0,0.0,0.0,0.0
12.36,416.70457680000004,-177.239676,44.838518400000005,-29.2903656,0.0,0.0,0.0,0.0
12.379999999999999,417.2431584000001,-61.9716312,-53.0797008,155.80614,0.0,0.0,0.0,0.0
12.4,417.46535760000006,-2.4941784,54.4351464,156.9561504,0.0,0.0,0.0,0.0
12.42,417.68755680000004,-47.4409008,37.4647968,46.7724744,0.0,0.0,0.0,0.0
12.44,418.3660416000001,29.820108,-16.482364800000003,-28.9837368,0.0,0.0,0.0,0.0
12.459999999999999,418.72631520000004,-37.085320800000005,-41.964864000000006,7.437729600000001,0.0,0.0,0.0,0.0
12.48,418.9061472,-171.05863680000002,36.814353600000004,43.2453288,0.0,0.0,0.0,0.0
12.5,419.7620256,-13.8799824,-10.735360799999999,21.699321599999998,0.0,0.0,0.0,0.0
12.52,419.9238744000001,-2.4941784,-8.7834216,119.998236,0.0,0.0,0.0,0.0
12.54,420.08602800000006,-15.2896824,-33.615477600000006,-16.6387272,0.0,0.0,0.0,0.0
12.56,420.24787680000003,-59.69447040000001,54.2723832,-72.15225600000001,0.0,0.0,0.0,0.0
12.58,420.54627600000003,2.8194000000000004,8.6749128,95.99858880000001,0.0,0.0,0.0,0.0
12.6,420.69197040000006,-56.6580528,-8.0784192,46.9257888,0.0,0.0,0.0,0.0
12.62,420.8376648,-67.2849048,75.74310480000001,-157.03296000000003,0.0,0.0,0.0,0.0
12.64,420.98335920000005,9.5423736,41.3144208,8.1277968,0.0,0.0,0.0,0.0
12.66,421.5768048000001,-25.8080256,48.688142400000004,92.9316912,0.0,0.0,0.0,0.0
12.68,421.7078688,-15.018410400000002,5.367528,-22.312884,0.0,0.0,0.0,0.0
12.7,421.9937712000001,-87.8878608,37.1395752,-105.42971040000002,0.0,0.0,0.0,0.0
12.72,422.31624960000005,-74.4416088,146.2268856,90.09461280000001,0.0,0.0,0.0,0.0
12.74,422.42232000000007,-25.4282448,-46.3567272,33.9675216,0.0,0.0,0.0,0.0
12.76,422.5286952,-51.72425520000001,18.6510168,68.6251104,0.0,0.0,0.0,0.0
12.78,422.97339840000006,-15.3978864,4.554321600000001,20.242377600000005,0.0,0.0,0.0,0.0
12.8,423.35683680000005,-17.2955712,-28.4646624,18.4791096,0.0,0.0,0.0,0.0
12.82,423.62201280000005,-44.675755200000005,-35.3503992,40.331745600000005,0.0,0.0,0.0,0.0
12.84,423.8954184000001,-76.66482,7.156704,0.3834384,0.0,0.0,0.0,0.0
12.86,424.1673,-48.471124800000005,-13.554456,34.6575888,0.0,0.0,0.0,0.0
12.88,424.41723600000006,-36.922557600000005,21.3076536,14.72184,0.0,0.0,0.0,0.0
12.9,424.58670480000006,-3.3073848000000003,2.1143976,47.079103200000006,0.0,0.0,0.0,0.0
12.92,424.7659272000001,-22.6630992,-22.012656,-24.1529616,0.0,0.0,0.0,0.0
12.94,424.92228960000006,4.3376088,11.385804,15.335402400000001,0.0,0.0,0.0,0.0
12.959999999999999,425.0274456000001,-71.8392264,-14.0424408,-9.047683200000002,0.0,0.0,0.0,0.0
12.98,425.07651840000005,-10.193121600000001,5.3132736,21.469502400000003,0.0,0.0,0.0,0.0
13.0,425.3493144000001,-29.711599200000002,-9.976104,21.469502400000003,0.0,0.0,0.0,0.0
13.02,425.54347200000007,-24.1270536,2.4399240000000004,-10.5046272,0.0,0.0,0.0,0.0
13.04,425.57882880000005,-7.6989432,14.313712800000001,-61.18768560000001,0.0,0.0,0.0,0.0
13.06,425.75652720000005,-0.0542544,3.6326064,-34.120836,0.0,0.0,0.0,0.0
13.08,425.85497760000004,19.6812408,38.8744968,50.1463056,0.0,0.0,0.0,0.0
13.1,425.93087280000003,-3.7411152,2.4399240000000004,-17.2522896,0.0,0.0,0.0,0.0
13.12,425.97781200000003,-0.3252216,5.5302912,-12.2682,0.0,0.0,0.0,0.0
13.14,426.03755280000007,-1.8976848000000002,6.885736800000001,5.903976000000001,0.0,0.0,0.0,0.0
13.16,426.08814960000007,-0.5964936000000001,3.8496240000000004,0.4599432,0.0,0.0,0.0,0.0
13.18,426.1164960000001,-0.4879848,1.8976848000000002,0.4599432,0.0,0.0,0.0,0.0
13.2,425.99305200000003,0.16276320000000002,1.1387328,9.3546168,0.0,0.0,0.0,0.0
13.22,426.025056,6.1267848,2.548128,19.398996,0.0,0.0,0.0,0.0
13.24,426.159168,8.1326736,6.9399912,25.0731528,0.0,0.0,0.0,0.0
13.26,426.3216264,15.3978864,7.048500000000001,4.2172128,0.0,0.0,0.0,0.0
13.28,426.4072752000001,8.295436800000001,9.813645600000001,-13.571829600000001,0.0,0.0,0.0,0.0
13.3,426.51060240000004,-24.7778016,32.8019664,-1.1500104,0.0,0.0,0.0,0.0
13.32,426.65477280000005,-9.3256608,18.7595256,1.2268200000000002,0.0,0.0,0.0,0.0
13.34,426.7282296,-3.578352,10.626852000000001,-0.0768096,0.0,0.0,0.0,0.0
13.36,426.7742544000001,-4.012082400000001,8.7834216,2.9903928,0.0,0.0,0.0,0.0
13.38,426.85289280000006,-3.6868608000000003,9.3256608,10.9645704,0.0,0.0,0.0,0.0
13.4,426.95713440000003,-4.1748456,13.5005064,11.5781328,0.0,0.0,0.0,0.0
13.42,427.06442400000003,2.6023824,15.506395200000002,13.418210400000001,0.0,0.0,0.0,0.0
13.44,427.15403520000007,0.0542544,8.0784192,11.8847616,0.0,0.0,0.0,0.0
13.459999999999999,427.23206400000004,3.198876,10.5725976,3.68046,0.0,0.0,0.0,0.0
13.48,427.3067400000001,5.205069600000001,14.096695200000001,6.2109096,0.0,0.0,0.0,0.0
13.5,427.35063120000007,2.7651456,16.645128,0.0,0.0,0.0,0.0,0.0
13.52,427.38720720000003,0.650748,20.494447200000003,-4.1404032,0.0,0.0,0.0,0.0
13.54,427.4384136000001,-7.5904344,7.6989432,-26.376477600000005,0.0,0.0,0.0,0.0
13.56,427.49815440000003,7.8617064,0.2709672,8.8943688,0.0,0.0,0.0,0.0
13.58,427.5554568,2.6566368,3.6326064,5.597347200000001,0.0,0.0,0.0,0.0
13.6,427.63043760000005,1.7349216,1.8434304000000001,2.223516,0.0,0.0,0.0,0.0
13.62,427.66030800000004,1.7349216,-0.7589520000000001,-0.0768096,0.0,0.0,0.0,0.0
13.64,427.6587840000001,2.2771608000000003,-3.2531304000000003,0.5367528,0.0,0.0,0.0,0.0
13.66,427.663356,3.2531304000000003,-3.4698432,2.4536400000000005,0.0,0.0,0.0,0.0
13.68,427.53960720000003,2.0061936,-2.6566368,6.5175384,0.0,0.0,0.0,0.0
13.7,427.49754480000007,1.5182088,1.1926824,9.584436,0.0,0.0,0.0,0.0
13.72,427.4911440000001,-0.5422392,-0.8674608,10.811256,0.0,0.0,0.0,0.0
13.74,427.9635840000001,-6.018276,0.7046976,10.811256,0.0,0.0,0.0,0.0
13.76,428.53356,-4.3915584,3.3073848000000003,6.364224,0.0,0.0,0.0,0.0
13.78,428.4622368000001,-2.0601432,2.8194000000000004,-3.2970216000000003,0.0,0.0,0.0,0.0
13.8,428.4768672000001,4.5000672,3.6326064,-24.996343200000002,0.0,0.0,0.0,0.0
13.82,428.33361120000006,8.6206584,14.693188800000001,-30.363871200000002,0.0,0.0,0.0,0.0
13.84,428.4207840000001,4.1748456,16.319601600000002,-34.581084000000004,0.0,0.0,0.0,0.0
13.86,428.38908480000003,-5.367528,8.0784192,-0.3834384,0.0,0.0,0.0,0.0
13.88,427.95047760000006,-30.850332,2.2229064000000003,1.3801344,0.0,0.0,0.0,0.0
13.9,427.64567760000006,9.596628,-13.174980000000001,-1.7635728,0.0,0.0,0.0,0.0
13.92,427.47072240000006,-130.666236,57.2545464,133.4167512,0.0,0.0,0.0,0.0
13.94,427.67829120000005,-1.9519392,-9.3256608,-8.2043016,0.0,0.0,0.0,0.0
13.959999999999999,427.6011768,1.4097000000000002,2.3856696,-0.8433816000000001,0.0,0.0,0.0,0.0
13.98,427.3171032,0.650748,4.445812800000001,-1.3801344,0.0,0.0,0.0,0.0
14.0,427.11563040000004,1.2469368,2.2229064000000003,-6.2874144,0.0,0.0,0.0,0.0
14.02,426.80473440000003,-4.988052,-7.915960800000001,-13.725144,0.0,0.0,0.0,0.0
14.04,426.523404,-5.5302912,-0.1085088,-9.1244928,0.0,0.0,0.0,0.0
14.06,426.320712,-40.98889440000001,-16.9160952,-8.817864,0.0,0.0,0.0,0.0
14.08,426.10095120000005,-30.579060000000002,-27.2177256,-17.8655472,0.0,0.0,0.0,0.0
14.1,425.9546472,-28.030932000000004,-7.753197600000001,-10.274503200000002,0.0,0.0,0.0,0.0
14.12,425.7857880000001,-71.02602,-26.8921992,-28.446984,0.0,0.0,0.0,0.0
14.14,425.70958800000005,-14.421916800000002,-7.5904344,-8.817864,0.0,0.0,0.0,0.0
14.16,425.82236400000005,-18.81378,-1.6806672000000002,6.5175384,0.0,0.0,0.0,0.0
14.18,425.863512,-18.8680344,-17.1331128,-19.0923672,0.0,0.0,0.0,0.0
14.2,425.81687760000005,-9.2714064,-27.054962400000004,-1.7635728,0.0,0.0,0.0,0.0
14.22,425.609004,-12.958267200000002,-9.2714064,-0.996696,0.0,0.0,0.0,0.0
14.24,425.49714240000003,-29.603090400000003,1.0844784,-11.3480088,0.0,0.0,0.0,0.0
14.26,425.95373280000007,-27.380184,4.3915584,-2.683764,0.0,0.0,0.0,0.0
14.28,425.8062096000001,-16.0486344,6.0725304,-8.8943688,0.0,0.0,0.0,0.0
14.3,425.59437360000004,-14.096695200000001,14.964156000000001,-4.907280000000001,0.0,0.0,0.0,0.0
14.32,425.4242952,-22.175419200000004,-24.1270536,15.565221600000001,0.0,0.0,0.0,0.0
14.34,425.253912,-4.445812800000001,-17.1331128,-2.5304496,0.0,0.0,0.0,0.0
14.36,425.1582048000001,-21.904147200000004,-14.096695200000001,-4.8304704,0.0,0.0,0.0,0.0
14.38,425.5901064000001,-27.000708,4.7713392,8.1277968,0.0,0.0,0.0,0.0
14.4,426.40758000000005,-12.361773600000001,11.7110256,14.491716000000002,0.0,0.0,0.0,0.0
14.42,426.5334624000001,-12.2532648,4.2291,9.6612456,0.0,0.0,0.0,0.0
14.44,426.39294960000007,-13.3377432,-7.915960800000001,21.0092544,0.0,0.0,0.0,0.0
14.459999999999999,426.39051120000005,-9.7593912,-6.397752,10.3513128,0.0,0.0,0.0,0.0
14.48,426.4694544000001,-38.2780032,10.3013256,26.6066016,0.0,0.0,0.0,0.0
14.5,426.6063096000001,73.89967440000001,29.440632,-157.03296000000003,0.0,0.0,0.0,0.0
14.52,426.4484232000001,-5.7470040000000004,-11.7110256,37.4946672,0.0,0.0,0.0,0.0
14.54,426.33107520000004,-2.2771608000000003,4.554321600000001,20.0125584,0.0,0.0,0.0,0.0
14.56,426.12899280000005,-4.3376088,3.1446216000000002,9.4311216,0.0,0.0,0.0,0.0
14.58,425.95312320000005,-0.5964936000000001,4.3915584,5.9807856,0.0,0.0,0.0,0.0
14.6,425.70410160000006,0.37947600000000004,4.933797600000001,4.6006512,0.0,0.0,0.0,0.0
14.62,425.40844560000005,-1.4639544,3.3073848000000003,3.2205168000000004,0.0,0.0,0.0,0.0
14.64,424.96404720000004,-2.1686520000000002,6.7229735999999995,12.1913904,0.0,0.0,0.0,0.0
14.66,424.47027120000007,-2.0061936,7.8617064,3.7572696000000003,0.0,0.0,0.0,0.0
14.68,423.9886872,-3.4158936000000004,6.668719200000001,2.9903928,0.0,0.0,0.0,0.0
14.7,423.8271432,-2.2229064000000003,7.210958400000001,1.1500104,0.0,0.0,0.0,0.0
14.72,423.62353680000007,-3.8496240000000004,7.5364848,-4.2172128,0.0,0.0,0.0,0.0
14.74,423.3025824,-3.7411152,5.476036800000001,-12.7281432,0.0,0.0,0.0,0.0
14.76,423.0163752000001,-4.5000672,8.186928,-13.418210400000001,0.0,0.0,0.0,0.0
14.78,423.3464736,-2.0601432,4.3376088,-61.341,0.0,0.0,0.0,0.0
14.8,423.3732960000001,-1.030224,4.0663368,-9.737750400000001,0.0,0.0,0.0,0.0
14.82,423.39280320000006,-10.4640888,-15.994380000000001,-19.0923672,0.0,0.0,0.0,0.0
14.84,423.3184320000001,0.650748,1.8434304000000001,-12.114885600000001,0.0,0.0,0.0,0.0
