time,baro_altitude,accl_x,accl_y,accl_z,gps_altitude,gyro_roll,gyro_pitch,gyro_yaw
0.0,0.0,-8.4039456,-2.4399240000000004,5.367223200000001,0.0,0.0,0.0,0.0
0.020000000000000018,-0.00792479999999999,-8.4582,-2.3856696,5.367223200000001,0.0,0.0,0.0,0.0
0.040000000000000036,-0.1456944,-8.5121496,-2.3314152,5.367223200000001,0.0,0.0,0.0,0.0
0.06000000000000005,-0.08656319999999999,-8.5121496,-2.4399240000000004,5.2907184,0.0,0.0,0.0,0.0
0.08000000000000007,-0.20086320000000002,-8.4039456,-2.3314152,5.367223200000001,0.0,0.0,0.0,0.0
0.10000000000000009,-0.2740152,-8.4582,-2.3856696,5.367223200000001,0.0,0.0,0.0,0.0
0.1200000000000001,-0.39044880000000004,-8.4582,-2.3856696,5.4440328000000004,0.0,0.0,0.0,0.0
0.14000000000000012,-0.2779776,-8.4039456,-2.4399240000000004,5.2139088000000005,0.0,0.0,0.0,0.0
0.16000000000000014,-0.298704,-8.5121496,-2.3314152,5.4440328000000004,0.0,0.0,0.0,0.0
0.18000000000000016,-0.3282696,-8.4582,-2.3856696,5.367223200000001,0.0,0.0,0.0,0.0
0.20000000000000018,-0.2947416,-8.5121496,-2.3314152,5.2907184,0.0,0.0,0.0,0.0
0.2200000000000002,-0.1822704,-8.5121496,-2.3314152,5.367223200000001,0.0,0.0,0.0,0.0
0.2400000000000002,-0.15758160000000002,-8.566404,-2.2771608000000003,5.367223200000001,0.0,0.0,0.0,0.0
0.26000000000000023,-0.1240536,-8.4582,-2.3856696,5.2139088000000005,0.0,0.0,0.0,0.0
0.28000000000000025,-0.30815280000000006,-8.4039456,-2.4399240000000004,5.2907184,0.0,0.0,0.0,0.0
0.30000000000000027,-0.19507199999999997,-8.566404,-2.3856696,5.367223200000001,0.0,0.0,0.0,0.0
0.3200000000000003,-0.2965704,-8.5121496,-2.3314152,5.367223200000001,0.0,0.0,0.0,0.0
0.3400000000000003,-0.19659600000000002,-8.5121496,-2.3314152,5.367223200000001,0.0,0.0,0.0,0.0
0.3600000000000003,-0.10271759999999999,-8.5121496,-2.4399240000000004,5.2907184,0.0,0.0,0.0,0.0
0.38000000000000034,-0.012801599999999995,-8.566404,-2.4941784,5.367223200000001,0.0,0.0,0.0,0.0
0.40000000000000036,-0.02743199999999999,-8.4582,-2.3856696,5.367223200000001,0.0,0.0,0.0,0.0
0.4200000000000004,-0.027736799999999992,-8.4582,-2.3856696,5.367223200000001,0.0,0.0,0.0,0.0
0.4400000000000004,0.0,-8.4039456,-2.4399240000000004,5.367223200000001,0.0,0.0,0.0,0.0
0.4600000000000004,0.035661600000000016,-8.5121496,-2.3314152,5.2907184,0.0,0.0,0.0,0.0
0.4800000000000004,0.023164800000000006,-8.5121496,-2.3314152,5.367223200000001,0.0,0.0,0.0,0.0
0.5,0.17282160000000002,-8.5121496,-2.3314152,5.367223200000001,0.0,0.0,0.0,0.0
0.52,0.155448,-8.5121496,-2.4399240000000004,5.367223200000001,0.0,0.0,0.0,0.0
0.54,0.005486400000000005,-8.5121496,-2.548128,5.2907184,0.0,0.0,0.0,0.0
0.56,-0.1347216,-8.5121496,-2.4399240000000004,5.2907184,0.0,0.0,0.0,0.0
0.5800000000000001,0.035966400000000016,-8.4582,-2.3856696,5.367223200000001,0.0,0.0,0.0,0.0
0.6000000000000001,0.020726400000000002,-8.4582,-2.3856696,5.367223200000001,0.0,0.0,0.0,0.0
0.6200000000000001,0.0728472,-8.5121496,-2.3314152,5.367223200000001,0.0,0.0,0.0,0.0
0.6400000000000001,0.1121664,-8.5121496,-2.3314152,5.367223200000001,0.0,0.0,0.0,0.0
0.6600000000000001,0.12496800000000001,-8.5121496,-2.4399240000000004,5.2139088000000005,0.0,0.0,0.0,0.0
0.6800000000000002,0.1502664,-8.4582,-2.3856696,5.367223200000001,0.0,0.0,0.0,0.0
0.7000000000000002,-0.04602479999999999,-8.4582,-2.3856696,5.367223200000001,0.0,0.0,0.0,0.0
0.7200000000000002,-0.2694432,-8.5121496,-2.3314152,5.367223200000001,0.0,0.0,0.0,0.0
0.7400000000000002,-0.27523440000000005,-8.4039456,-2.3314152,5.2907184,0.0,0.0,0.0,0.0
0.7600000000000002,-0.3410712,-8.4039456,-2.4399240000000004,5.367223200000001,0.0,0.0,0.0,0.0
0.7800000000000002,-0.1700784,-8.4582,-2.3856696,5.367223200000001,0.0,0.0,0.0,0.0
0.8000000000000003,-0.31059120000000007,-8.4582,-2.3856696,5.4440328000000004,0.0,0.0,0.0,0.0
0.8200000000000003,-0.3645408,-8.4582,-2.3856696,5.367223200000001,0.0,0.0,0.0,0.0
0.8400000000000003,-0.33649920000000005,-8.5121496,-2.3314152,5.2907184,0.0,0.0,0.0,0.0
0.8600000000000003,-0.3895344,-8.5121496,-2.3314152,5.367223200000001,0.0,0.0,0.0,0.0
0.8800000000000003,-0.1776984,-8.5121496,-2.4399240000000004,5.2907184,0.0,0.0,0.0,0.0
0.9000000000000004,-0.3343656,-8.566404,-2.2771608000000003,5.367223200000001,0.0,0.0,0.0,0.0
0.9200000000000004,-0.1459992,-8.4582,-2.3856696,5.2139088000000005,0.0,0.0,0.0,0.0
0.9400000000000004,-0.0438912,-8.4039456,-2.4399240000000004,5.367223200000001,0.0,0.0,0.0,0.0
0.9600000000000004,0.05273040000000002,-8.5121496,-2.4399240000000004,5.367223200000001,0.0,0.0,0.0,0.0
0.9800000000000004,0.1063752,-8.5121496,-2.3314152,5.367223200000001,0.0,0.0,0.0,0.0
1.0,0.06065520000000002,-8.4582,-2.3856696,5.367223200000001,0.0,0.0,0.0,0.0
1.02,-0.111252,-8.4039456,-2.4399240000000004,5.367223200000001,0.0,0.0,0.0,0.0
1.04,-0.1365504,-8.4582,-2.3856696,5.367223200000001,0.0,0.0,0.0,0.0
1.06,-0.3051048,-8.4039456,-2.4399240000000004,5.367223200000001,0.0,0.0,0.0,0.0
1.08,-0.143256,-8.5121496,-2.4399240000000004,5.367223200000001,0.0,0.0,0.0,0.0
1.1,-0.20970239999999998,-8.5121496,-2.4399240000000004,5.2907184,0.0,0.0,0.0,0.0
1.12,-0.19568159999999998,-8.4039456,-2.4399240000000004,5.367223200000001,0.0,0.0,0.0,0.0
1.1400000000000001,0.012192000000000012,-8.4582,-2.3856696,5.2907184,0.0,0.0,0.0,0.0
1.1600000000000001,-0.020726399999999985,-8.4039456,-2.4399240000000004,5.2907184,0.0,0.0,0.0,0.0
1.1800000000000002,-0.032004,-8.4582,-2.3856696,5.2907184,0.0,0.0,0.0,0.0
1.2000000000000002,0.004572000000000004,-8.566404,-2.3856696,5.367223200000001,0.0,0.0,0.0,0.0
1.2200000000000002,-0.0691896,-8.5121496,-2.4399240000000004,5.2907184,0.0,0.0,0.0,0.0
1.2400000000000002,-0.09723119999999999,-8.4039456,-2.4399240000000004,5.367223200000001,0.0,0.0,0.0,0.0
1.2600000000000002,-0.08595359999999999,-8.5121496,-2.4399240000000004,5.4440328000000004,0.0,0.0,0.0,0.0
1.2800000000000002,-0.16123919999999997,-8.4582,-2.3856696,5.2907184,0.0,0.0,0.0,0.0
1.3000000000000003,-0.23621999999999999,-8.5121496,-2.3314152,5.2907184,0.0,0.0,0.0,0.0
1.3200000000000003,-0.3727704,-8.4582,-2.3856696,5.367223200000001,0.0,0.0,0.0,0.0
1.3400000000000003,-0.2642616,-8.4582,-2.3856696,5.367223200000001,0.0,0.0,0.0,0.0
1.3600000000000003,-0.05608319999999999,-8.4039456,-2.3314152,5.367223200000001,0.0,0.0,0.0,0.0
1.3800000000000003,0.007010400000000007,-8.5121496,-2.4399240000000004,5.367223200000001,0.0,0.0,0.0,0.0
1.4000000000000004,0.007010400000000007,-8.4039456,-2.3314152,5.367223200000001,0.0,0.0,0.0,0.0
1.4200000000000004,-0.012191999999999995,-8.5121496,-2.3314152,5.2907184,0.0,0.0,0.0,0.0
1.4400000000000004,0.13594080000000003,-8.4039456,-2.3314152,5.367223200000001,0.0,0.0,0.0,0.0
1.4600000000000004,-0.030784799999999994,-8.566404,-2.3856696,5.2907184,0.0,0.0,0.0,0.0
1.4800000000000004,-0.23164800000000002,-8.4582,-2.3856696,5.2907184,0.0,0.0,0.0,0.0
1.5,-0.22768560000000002,-8.4039456,-2.4399240000000004,5.2907184,0.0,0.0,0.0,0.0
1.52,-0.2036064,-8.5121496,-2.4399240000000004,5.367223200000001,0.0,0.0,0.0,0.0
1.54,-0.34747200000000006,-8.5121496,-2.4399240000000004,5.2907184,0.0,0.0,0.0,0.0
1.56,-0.4230624,-8.4582,-2.3856696,5.2907184,0.0,0.0,0.0,0.0
1.58,-0.47640240000000006,-8.5121496,-2.3314152,5.367223200000001,0.0,0.0,0.0,0.0
1.6,-0.29565600000000003,-8.5121496,-2.3314152,5.2907184,0.0,0.0,0.0,0.0
1.62,-0.3294888,-8.5121496,-2.3314152,5.367223200000001,0.0,0.0,0.0,0.0
1.6400000000000001,-0.336804,-8.5121496,-2.3314152,5.2907184,0.0,0.0,0.0,0.0
1.6600000000000001,-0.257556,-8.5121496,-2.4399240000000004,5.2907184,0.0,0.0,0.0,0.0
1.6800000000000002,-0.227076,-8.4582,-2.3856696,5.367223200000001,0.0,0.0,0.0,0.0
1.7000000000000002,-0.2005584,-8.566404,-2.3856696,5.367223200000001,0.0,0.0,0.0,0.0
1.7200000000000002,-0.082296,-8.4582,-2.3856696,5.367223200000001,0.0,0.0,0.0,0.0
1.7400000000000002,-0.0076199999999999905,-8.4582,-2.2771608000000003,5.367223200000001,0.0,0.0,0.0,0.0
1.7600000000000002,0.15849600000000003,-8.5121496,-2.3314152,5.367223200000001,0.0,0.0,0.0,0.0
1.7800000000000002,0.0710184,-8.566404,-2.2771608000000003,5.367223200000001,0.0,0.0,0.0,0.0
1.8000000000000003,0.1597152,-8.4582,-2.3856696,5.2907184,0.0,0.0,0.0,0.0
1.8200000000000003,0.33832799999999996,-8.4582,-2.3856696,5.2907184,0.0,0.0,0.0,0.0
1.8400000000000003,0.10424159999999999,-8.5121496,-2.3314152,5.4440328000000004,0.0,0.0,0.0,0.0
1.8600000000000003,0.02926080000000001,-8.4582,-2.3856696,5.2907184,0.0,0.0,0.0,0.0
1.8800000000000001,-0.0003048000000000003,-8.5121496,-2.3314152,5.367223200000001,0.0,0.0,0.0,0.0
1.9000000000000001,-0.109728,-8.4582,-2.4941784,5.2907184,0.0,0.0,0.0,0.0
1.9200000000000002,-0.2639568,-8.4582,-2.3856696,5.2907184,0.0,0.0,0.0,0.0
1.9400000000000002,-0.34838640000000004,-8.566404,-2.3856696,5.2907184,0.0,0.0,0.0,0.0
1.9600000000000002,-0.45476160000000004,-8.4582,-2.3856696,5.4440328000000004,0.0,0.0,0.0,0.0
1.9800000000000002,-0.48493680000000006,-8.4582,-2.3856696,5.2907184,0.0,0.0,0.0,0.0
2.0,-0.2517648,-8.5121496,-2.4399240000000004,5.367223200000001,0.0,0.0,0.0,0.0
2.0200000000000005,-0.324612,-8.4582,-2.3856696,5.2139088000000005,0.0,0.0,0.0,0.0
2.04,-0.1304544,-8.5121496,-2.3314152,5.4440328000000004,0.0,0.0,0.0,0.0
2.0600000000000005,-0.20421599999999998,-8.4039456,-2.3314152,5.367223200000001,0.0,0.0,0.0,0.0
2.08,-0.0801624,-8.4582,-2.3856696,5.2907184,0.0,0.0,0.0,0.0
2.1000000000000005,-0.1322832,-8.4582,-2.3856696,5.367223200000001,0.0,0.0,0.0,0.0
2.12,-0.1405128,-8.4582,-2.3856696,5.2907184,0.0,0.0,0.0,0.0
2.14,-0.1499616,-8.4582,-2.3856696,5.367223200000001,0.0,0.0,0.0,0.0
2.16,-0.1578864,-8.4582,-2.3856696,5.367223200000001,0.0,0.0,0.0,0.0
2.18,-0.24688800000000002,-8.4582,-2.3856696,5.367223200000001,0.0,0.0,0.0,0.0
2.2,-0.38221920000000004,-8.5121496,-2.4399240000000004,5.2907184,0.0,0.0,0.0,0.0
2.22,-0.3544824,-8.5121496,-2.4399240000000004,5.367223200000001,0.0,0.0,0.0,0.0
2.24,-0.1469136,-8.4582,-2.3856696,5.2907184,0.0,0.0,0.0,0.0
2.2600000000000002,-0.179832,-8.4582,-2.3856696,5.2907184,0.0,0.0,0.0,0.0
2.2800000000000002,-0.009448799999999992,-8.566404,-2.2771608000000003,5.4440328000000004,0.0,0.0,0.0,0.0
2.3000000000000003,0.05669280000000002,-8.4039456,-2.3314152,5.2907184,0.0,0.0,0.0,0.0
2.3200000000000003,-0.128016,-8.4582,-2.3856696,5.367223200000001,0.0,0.0,0.0,0.0
2.3400000000000003,-0.11369040000000001,-8.5121496,-2.4399240000000004,5.2907184,0.0,0.0,0.0,0.0
2.3600000000000003,-0.1179576,-8.4582,-2.3856696,5.367223200000001,0.0,0.0,0.0,0.0
2.38,-0.056997599999999995,-8.4582,-2.3856696,5.367223200000001,0.0,0.0,0.0,0.0
2.4000000000000004,-0.1588008,-8.6206584,-2.4399240000000004,5.367223200000001,0.0,0.0,0.0,0.0
2.42,0.021336000000000004,-8.566404,-2.2771608000000003,5.367223200000001,0.0,0.0,0.0,0.0
2.4400000000000004,0.013716000000000013,-8.4582,-2.3856696,5.367223200000001,0.0,0.0,0.0,0.0
2.46,0.0377952,-8.5121496,-2.3314152,5.367223200000001,0.0,0.0,0.0,0.0
2.4800000000000004,0.08564880000000001,-8.4582,-2.3856696,5.367223200000001,0.0,0.0,0.0,0.0
2.5,-0.028651199999999995,-8.4582,-2.3856696,5.367223200000001,0.0,0.0,0.0,0.0
2.5200000000000005,-0.187452,-8.4039456,-2.3314152,5.367223200000001,0.0,0.0,0.0,0.0
2.54,-0.0326136,-8.5121496,-2.3314152,5.367223200000001,0.0,0.0,0.0,0.0
2.5600000000000005,-0.15727680000000002,-8.5121496,-2.4399240000000004,5.2907184,0.0,0.0,0.0,0.0
2.58,-0.0893064,-8.4582,-2.2771608000000003,5.4440328000000004,0.0,0.0,0.0,0.0
2.6000000000000005,-0.19994879999999998,-8.4582,-2.3856696,5.367223200000001,0.0,0.0,0.0,0.0
2.62,-0.021945599999999985,-8.4582,-2.3856696,5.367223200000001,0.0,0.0,0.0,0.0
2.64,-0.1100328,-8.4039456,-2.3314152,5.367223200000001,0.0,0.0,0.0,0.0
2.66,-0.12954000000000002,-8.4582,-2.3856696,5.367223200000001,0.0,0.0,0.0,0.0
2.68,-0.09570719999999999,-8.5121496,-2.4399240000000004,5.367223200000001,0.0,0.0,0.0,0.0
2.7,-0.2657856,-8.3496912,-2.3856696,5.367223200000001,0.0,0.0,0.0,0.0
2.72,-0.19781520000000002,-8.566404,-2.3856696,5.2907184,0.0,0.0,0.0,0.0
2.74,-0.124968,-8.4582,-2.3856696,5.2907184,0.0,0.0,0.0,0.0
2.7600000000000002,-0.1655064,-8.4582,-2.3856696,5.2907184,0.0,0.0,0.0,0.0
2.7800000000000002,-0.08260079999999999,-8.566404,-2.2771608000000003,5.367223200000001,0.0,0.0,0.0,0.0
2.8000000000000003,-0.1146048,-8.4582,-2.3856696,5.2907184,0.0,0.0,0.0,0.0
2.8200000000000003,-0.2221992,-8.4582,-2.3856696,5.367223200000001,0.0,0.0,0.0,0.0
2.8400000000000003,-0.05821679999999999,-8.5121496,-2.4399240000000004,5.2907184,0.0,0.0,0.0,0.0
2.8600000000000003,-0.0920496,-8.4582,-2.3856696,5.367223200000001,0.0,0.0,0.0,0.0
2.8800000000000003,-0.0722376,-8.4582,-2.3856696,5.367223200000001,0.0,0.0,0.0,0.0
2.9000000000000004,-0.156972,-8.6206584,-2.3314152,5.367223200000001,0.0,0.0,0.0,0.0
2.9200000000000004,0.039014400000000005,-8.4582,-2.3856696,5.2907184,0.0,0.0,0.0,0.0
2.9400000000000004,-0.1033272,-8.566404,-2.3856696,5.367223200000001,0.0,0.0,0.0,0.0
2.96,0.04602480000000001,-8.4582,-2.4941784,5.367223200000001,0.0,0.0,0.0,0.0
2.9800000000000004,-0.0856488,-8.4582,-2.3856696,5.367223200000001,0.0,0.0,0.0,0.0
3.0,-0.141732,-8.4582,-2.3856696,5.2907184,0.0,0.0,0.0,0.0
3.0200000000000005,0.06156960000000002,-8.5121496,-2.3314152,5.367223200000001,0.0,0.0,0.0,0.0
3.04,0.10668,-8.4582,-2.3856696,5.2907184,0.0,0.0,0.0,0.0
3.06,-0.045110399999999995,-8.5121496,-2.3314152,5.367223200000001,0.0,0.0,0.0,0.0
3.08,-0.0015239999999999846,-8.5121496,-2.3314152,5.4440328000000004,0.0,0.0,0.0,0.0
3.1,0.16306800000000002,-8.4582,-2.3856696,5.367223200000001,0.0,0.0,0.0,0.0
3.12,0.1085088,-8.5121496,-2.3314152,5.367223200000001,0.0,0.0,0.0,0.0
3.14,0.04511040000000001,-8.4582,-2.3856696,5.367223200000001,0.0,0.0,0.0,0.0
3.16,0.074676,-8.3496912,-2.3856696,5.2907184,0.0,0.0,0.0,0.0
3.18,0.08016240000000001,-8.5121496,-2.3314152,5.367223200000001,0.0,0.0,0.0,0.0
3.2,-0.015239999999999997,-8.5121496,-2.4399240000000004,5.367223200000001,0.0,0.0,0.0,0.0
3.22,0.17251680000000003,-8.5121496,-2.4399240000000004,5.2907184,0.0,0.0,0.0,0.0
3.24,-0.07802880000000001,-8.5121496,-2.4399240000000004,5.367223200000001,0.0,0.0,0.0,0.0
3.2600000000000002,-0.010363199999999993,-8.5121496,-2.3314152,5.2907184,0.0,0.0,0.0,0.0
3.2800000000000002,-0.00731519999999999,-8.7834216,-2.6023824,6.1341,0.0,0.0,0.0,0.0
3.3000000000000003,0.04572000000000001,-8.241182400000001,-3.3616392,5.6741568000000004,0.0,0.0,0.0,0.0
3.3200000000000003,-0.0752856,-8.729167200000001,-1.3554456000000001,4.8304704,0.0,0.0,0.0,0.0
3.3400000000000003,0.09570720000000002,-7.970215200000001,-2.7651456,5.367223200000001,0.0,0.0,0.0,0.0
3.3600000000000003,-0.0179832,-8.566404,-2.1686520000000002,5.5205376,0.0,0.0,0.0,0.0
3.3800000000000003,-0.1078992,-8.186928,-2.8736544000000004,5.6741568000000004,0.0,0.0,0.0,0.0
3.4000000000000004,-0.1926336,-8.4039456,-2.1143976,5.2907184,0.0,0.0,0.0,0.0
3.4200000000000004,-0.10759439999999999,-8.3496912,-2.7108912000000003,5.597347200000001,0.0,0.0,0.0,0.0
3.4400000000000004,0.02895600000000001,-8.566404,-2.0601432,5.137404,0.0,0.0,0.0,0.0
3.46,0.022250400000000004,-8.3496912,-2.4941784,5.5205376,0.0,0.0,0.0,0.0
3.4800000000000004,0.16581120000000002,-8.566404,-2.1686520000000002,5.2907184,0.0,0.0,0.0,0.0
3.5,0.09540240000000003,-8.4582,-2.7108912000000003,5.4440328000000004,0.0,0.0,0.0,0.0
3.52,0.0368808,-8.566404,-2.0601432,5.2139088000000005,0.0,0.0,0.0,0.0
3.54,-0.028651199999999995,-8.4582,-2.6023824,5.4440328000000004,0.0,0.0,0.0,0.0
3.56,-0.094488,-8.6206584,-2.2229064000000003,5.137404,0.0,0.0,0.0,0.0
3.58,-0.2587752,-8.5121496,-2.3314152,5.4440328000000004,0.0,0.0,0.0,0.0
3.6,-0.0911352,-8.4582,-2.3856696,5.367223200000001,0.0,0.0,0.0,0.0
3.62,-0.1365504,-8.4582,-2.4941784,5.4440328000000004,0.0,0.0,0.0,0.0
3.64,-0.1524,-8.5121496,-2.3314152,5.2907184,0.0,0.0,0.0,0.0
3.66,-0.0164592,-8.5121496,-2.4399240000000004,5.4440328000000004,0.0,0.0,0.0,0.0
3.68,0.011887200000000011,-8.4039456,-2.3314152,5.2907184,0.0,0.0,0.0,0.0
3.7,0.16306800000000002,-8.4039456,-2.3314152,5.2139088000000005,0.0,0.0,0.0,0.0
3.72,0.06553199999999999,-8.3496912,-2.3856696,5.4440328000000004,0.0,0.0,0.0,0.0
3.74,0.16672560000000003,-8.4582,-2.3856696,5.4440328000000004,0.0,0.0,0.0,0.0
3.7600000000000002,0.20909280000000002,-8.4582,-2.3856696,5.137404,0.0,0.0,0.0,0.0
3.7800000000000002,0.20573999999999998,-8.5121496,-2.4399240000000004,5.2907184,0.0,0.0,0.0,0.0
3.8000000000000003,-0.015544799999999998,-8.241182400000001,-2.3856696,5.5205376,0.0,0.0,0.0,0.0
3.8200000000000003,-0.47152560000000004,-26.5127232,-9.379915200000001,12.421514400000001,0.0,0.0,0.0,0.0
3.8400000000000003,-2.8197048000000007,-40.175688,-52.862988,30.7473096,0.0,0.0,0.0,0.0
3.8600000000000003,-3.5225736000000003,-26.837944800000002,2.6566368,49.3794288,0.0,0.0,0.0,0.0
3.8800000000000003,-20.6099664,27.976677600000002,-85.1227152,137.3270304,0.0,0.0,0.0,0.0
3.9000000000000004,-25.5425448,-73.84542,-29.820108,153.8892528,0.0,0.0,0.0,0.0
3.9200000000000004,-45.28809840000001,-73.6284024,-54.10992480000001,151.4356128,0.0,0.0,0.0,0.0
3.9400000000000004,-64.6438128,-87.3456216,9.9218496,156.9561504,0.0,0.0,0.0,0.0
3.9600000000000004,-82.8074544,-21.3076536,-45.597470400000006,156.9561504,0.0,0.0,0.0,0.0
3.9800000000000004,-99.11425440000001,-13.446252000000001,-43.1578512,156.9561504,0.0,0.0,0.0,0.0
4.0,-113.48039280000002,-41.531133600000004,-73.953624,144.534636,0.0,0.0,0.0,0.0
4.0200000000000005,-125.6669064,-37.085320800000005,-56.9293248,156.9561504,0.0,0.0,0.0,0.0
4.04,-135.9502488,-35.567112,-67.88139840000001,155.4227016,0.0,0.0,0.0,0.0
4.0600000000000005,-144.42582240000002,-37.6818144,-61.537900799999996,154.88594880000002,0.0,0.0,0.0,0.0
4.08,-151.05065040000002,-35.512857600000004,-65.4414744,155.3461968,0.0,0.0,0.0,0.0
4.1000000000000005,-156.0130992,-34.7539056,-62.2968528,156.11276880000003,0.0,0.0,0.0,0.0
4.12,-159.4253352,-38.7117336,-63.218568000000005,154.88594880000002,0.0,0.0,0.0,0.0
4.140000000000001,-161.40318240000002,-38.1697992,-59.74842,154.809444,0.0,0.0,0.0,0.0
4.16,-162.29990399999997,-36.326368800000004,-52.266494400000006,150.89886,0.0,0.0,0.0,0.0
4.180000000000001,-161.9210376,-38.983005600000006,-66.63415680000001,150.0554784,0.0,0.0,0.0,0.0
4.2,-160.6896456,-42.940833600000005,-59.640216,156.802836,0.0,0.0,0.0,0.0
4.220000000000001,-158.9434464,-35.946588000000006,-61.754613600000006,156.9561504,0.0,0.0,0.0,0.0
4.24,-156.73974239999998,-42.34434,-56.549544000000004,155.88294960000002,0.0,0.0,0.0,0.0
4.26,-154.51256880000003,-34.9709232,-63.8150616,156.34289280000002,0.0,0.0,0.0,0.0
4.28,-152.33294400000003,-32.639508,-58.88095920000001,151.66573680000002,0.0,0.0,0.0,0.0
4.300000000000001,-150.33193200000002,-34.049208,-59.74842,150.0554784,0.0,0.0,0.0,0.0
4.32,-148.6061544,-35.024872800000004,-55.7363376,151.128984,0.0,0.0,0.0,0.0
4.34,-147.1873104,-40.44696,-65.1705072,147.2184,0.0,0.0,0.0,0.0
4.36,-146.17019280000002,-38.549275200000004,-61.10417040000001,148.5220296,0.0,0.0,0.0,0.0
4.38,-145.1963568,-36.2721144,-60.9956616,143.8445688,0.0,0.0,0.0,0.0
4.4,-144.287748,-36.814353600000004,-54.8146224,144.45813120000003,0.0,0.0,0.0,0.0
4.42,-143.43644160000002,-42.2903904,-59.856928800000006,144.1515024,0.0,0.0,0.0,0.0
4.44,-142.2742392,-41.3144208,-57.363055200000005,141.2376144,0.0,0.0,0.0,0.0
4.46,-140.76761280000002,-32.4224904,-60.832898400000005,136.86708720000001,0.0,0.0,0.0,0.0
4.48,-139.12047360000003,-29.494886400000002,-56.7123072,136.6369632,0.0,0.0,0.0,0.0
4.5,-137.1273864,-35.187636,-56.00760960000001,128.3561568,0.0,0.0,0.0,0.0
4.5200000000000005,-135.02152320000002,-28.789884,-53.404922400000004,132.0366168,0.0,0.0,0.0,0.0
4.54,-132.5751984,-37.573305600000005,-51.77850960000001,126.82240320000001,0.0,0.0,0.0,0.0
4.5600000000000005,-129.86004,-38.495020800000006,-55.7363376,123.60219120000001,0.0,0.0,0.0,0.0
4.58,-126.91506240000001,-36.0550968,-51.344779200000005,116.7012144,0.0,0.0,0.0,0.0
4.6000000000000005,-123.5964,-26.837944800000002,-43.1035968,112.5608112,0.0,0.0,0.0,0.0
4.62,-120.13234800000001,-21.1451952,-42.5071032,109.0336656,0.0,0.0,0.0,0.0
4.640000000000001,-116.38269840000001,-23.4766104,-48.5253792,100.9826784,0.0,0.0,0.0,0.0
4.66,-112.09080960000001,-21.4161624,-36.922557600000005,96.22871280000001,0.0,0.0,0.0,0.0
4.68,-107.47126080000001,-20.982432000000003,-38.1155448,89.4810504,0.0,0.0,0.0,0.0
4.7,-102.4316976,-24.7778016,-37.4647968,86.874096,0.0,0.0,0.0,0.0
4.720000000000001,-97.49393760000001,-18.1087776,-36.434572800000005,85.95420960000001,0.0,0.0,0.0,0.0
4.74,-91.76217360000001,-22.5006408,-28.030932000000004,82.427064,0.0,0.0,0.0,0.0
4.76,-85.97158320000001,-22.1211648,-37.302338400000004,76.6764024,0.0,0.0,0.0,0.0
4.78,-79.95452640000002,-19.844004,-30.9042816,73.6860096,0.0,0.0,0.0,0.0
4.800000000000001,-73.95088080000001,-19.3560192,-32.043014400000004,74.0691432,0.0,0.0,0.0,0.0
4.82,-67.6704768,-21.0366864,-32.639508,69.0085488,0.0,0.0,0.0,0.0
4.84,-61.29497520000001,-19.3560192,-28.247644800000003,68.0118528,0.0,0.0,0.0,0.0
4.86,-54.918559200000004,-15.614904,-24.5065296,65.3280888,0.0,0.0,0.0,0.0
4.88,-48.72045120000001,-21.470416800000002,-27.651456,63.9479544,0.0,0.0,0.0,0.0
4.9,-42.23004,-16.5366192,-16.753332,65.7115272,0.0,0.0,0.0,0.0
4.92,-35.9636568,-12.0908064,-23.6933232,61.8009432,0.0,0.0,0.0,0.0
4.94,-29.711599200000002,-10.735360799999999,-19.952208,57.9671688,0.0,0.0,0.0,0.0
4.96,-23.5646976,-17.6750472,-20.0607168,54.363518400000004,0.0,0.0,0.0,0.0
4.98,-17.3787816,-11.928043200000001,-22.771608,54.8234616,0.0,0.0,0.0,0.0
5.0,-11.493703199999999,-15.777667200000002,-24.1270536,50.529744,0.0,0.0,0.0,0.0
5.0200000000000005,-5.8320432,-14.747443200000001,-27.759660000000004,45.2390256,0.0,0.0,0.0,0.0
5.04,-0.0923544,-14.0424408,-24.235562400000003,49.302924000000004,0.0,0.0,0.0,0.0
5.0600000000000005,5.182209600000001,-11.6028216,-24.723547200000002,49.6095528,0.0,0.0,0.0,0.0
5.08,10.729264800000001,-14.421916800000002,-19.844004,48.536047200000006,0.0,0.0,0.0,0.0
5.1000000000000005,16.0474152,-16.8075864,-18.976543200000002,44.7022728,0.0,0.0,0.0,0.0
5.12,21.316492800000002,-9.7593912,-16.8075864,41.71188,0.0,0.0,0.0,0.0
5.140000000000001,26.723949600000005,-9.7051368,-13.9342368,35.6545896,0.0,0.0,0.0,0.0
5.16,32.1637152,-7.2652128,-8.6749128,25.0731528,0.0,0.0,0.0,0.0
5.18,37.747956,-3.4698432,-2.9279088,15.335402400000001,0.0,0.0,0.0,0.0
5.2,43.368772799999995,-1.5182088,2.0601432,7.6675488,0.0,0.0,0.0,0.0
5.220000000000001,48.8832144,1.030224,1.789176,0.30662880000000003,0.0,0.0,0.0,0.0
5.24,54.0876744,0.3252216,3.2531304000000003,-6.0572904,0.0,0.0,0.0,0.0
5.26,59.20221839999999,0.37947600000000004,3.7411152,-10.121188800000002,0.0,0.0,0.0,0.0
5.28,63.972948,0.3252216,4.012082400000001,-9.4311216,0.0,0.0,0.0,0.0
5.300000000000001,68.5705512,-0.9759696,4.6628304,-9.3546168,0.0,0.0,0.0,0.0
5.32,72.8901768,-1.789176,4.933797600000001,-9.584436,0.0,0.0,0.0,0.0
5.34,77.1180576,-1.6264128000000002,4.8795432000000005,-9.1244928,0.0,0.0,0.0,0.0
5.36,81.4376832,-1.9519392,5.7470040000000004,-9.737750400000001,0.0,0.0,0.0,0.0
5.38,85.76889120000001,-1.8976848000000002,7.1024496,-8.6645496,0.0,0.0,0.0,0.0
5.4,90.2994384,-0.8132064000000001,7.427976000000001,-8.58774,0.0,0.0,0.0,0.0
5.42,94.7751216,0.5964936000000001,5.1508152,-8.357616,0.0,0.0,0.0,0.0
5.44,99.2130096,2.9279088,4.6628304,-8.6645496,0.0,0.0,0.0,0.0
5.46,103.6042632,2.0601432,7.5904344,-7.130796,0.0,0.0,0.0,0.0
5.48,107.8812168,3.5240976,6.2349888,-7.130796,0.0,0.0,0.0,0.0
5.5,112.2102912,2.4399240000000004,5.367528,-8.2043016,0.0,0.0,0.0,0.0
5.5200000000000005,116.2821144,0.7589520000000001,4.554321600000001,-9.1244928,0.0,0.0,0.0,0.0
5.54,120.2640216,0.0,3.6868608000000003,-8.357616,0.0,0.0,0.0,0.0
5.5600000000000005,124.177044,2.7108912000000003,3.9035736000000005,-8.357616,0.0,0.0,0.0,0.0
5.58,127.97028,-1.3011912,5.5302912,-8.741054400000001,0.0,0.0,0.0,0.0
5.6000000000000005,131.7775368,-3.7411152,5.6930544,-9.891369599999999,0.0,0.0,0.0,0.0
5.62,135.547608,-3.4698432,6.9399912,-7.2841104,0.0,0.0,0.0,0.0
5.640000000000001,139.246356,-2.9279088,7.915960800000001,-7.9744824,0.0,0.0,0.0,0.0
5.66,142.83324240000002,-0.9217152000000001,7.427976000000001,-7.6675488,0.0,0.0,0.0,0.0
5.68,146.404584,2.6566368,3.957828,-8.817864,0.0,0.0,0.0,0.0
5.7,149.742144,2.2229064000000003,3.6326064,-9.5079312,0.0,0.0,0.0,0.0
5.720000000000001,152.9032248,4.5000672,1.6806672000000002,-8.4344256,0.0,0.0,0.0,0.0
5.74,155.7439608,3.0903671999999998,3.6326064,-7.8208632,0.0,0.0,0.0,0.0
5.76,158.43138240000002,0.4337304,4.554321600000001,-7.437729600000001,0.0,0.0,0.0,0.0
5.78,160.94202000000004,0.4337304,5.3132736,-8.5109304,0.0,0.0,0.0,0.0
5.800000000000001,163.33073760000002,-3.6868608000000003,5.7470040000000004,-7.6675488,0.0,0.0,0.0,0.0
5.82,165.79870320000003,-2.3856696,5.964021600000001,-8.2811112,0.0,0.0,0.0,0.0
5.84,168.34561200000002,-2.9279088,7.156704,-8.5109304,0.0,0.0,0.0,0.0
5.86,171.00194400000004,-3.4158936000000004,3.8496240000000004,-10.428122400000001,0.0,0.0,0.0,0.0
5.880000000000001,173.71192080000003,-2.3856696,3.0361128,-7.8976728000000005,0.0,0.0,0.0,0.0
5.9,176.43012720000002,1.4097000000000002,5.3132736,-6.2109096,0.0,0.0,0.0,0.0
5.92,179.07914400000004,2.0601432,6.614769600000001,-5.6741568000000004,0.0,0.0,0.0,0.0
5.94,181.892448,3.6326064,7.753197600000001,-5.060594400000001,0.0,0.0,0.0,0.0
5.960000000000001,184.8758304,2.3314152,6.5605152,-5.137404,0.0,0.0,0.0,0.0
5.98,187.980828,3.3073848000000003,6.018276,-6.4407288000000005,0.0,0.0,0.0,0.0
6.0,191.0855208,0.5422392,6.9399912,-4.4473368,0.0,0.0,0.0,0.0
6.02,194.23989600000004,1.5182088,7.048500000000001,-5.903976000000001,0.0,0.0,0.0,0.0
6.04,197.4811392,-1.4097000000000002,6.7229735999999995,-6.4407288000000005,0.0,0.0,0.0,0.0
6.0600000000000005,200.68519680000003,-1.1926824,4.120591200000001,-8.050987200000002,0.0,0.0,0.0,0.0
6.08,204.03677760000002,-3.957828,2.1143976,-9.584436,0.0,0.0,0.0,0.0
6.1,207.18292320000003,-3.0361128,1.4097000000000002,-9.584436,0.0,0.0,0.0,0.0
6.12,210.09223920000002,-0.650748,3.1446216000000002,-7.2076056,0.0,0.0,0.0,0.0
6.140000000000001,212.78575680000003,-0.4337304,2.9279088,-6.8241672,0.0,0.0,0.0,0.0
6.16,215.29548000000003,-0.7046976,4.1748456,-7.6675488,0.0,0.0,0.0,0.0
6.18,217.78447680000002,0.0,6.1807343999999995,-8.2043016,0.0,0.0,0.0,0.0
6.2,220.3088304,0.0,5.8555128,-7.2076056,0.0,0.0,0.0,0.0
6.220000000000001,223.06086960000002,-0.16276320000000002,7.210958400000001,-5.367223200000001,0.0,0.0,0.0,0.0
6.24,225.815652,1.5724632,6.668719200000001,-5.5205376,0.0,0.0,0.0,0.0
6.26,228.64815840000003,1.6806672000000002,5.801258400000001,-5.597347200000001,0.0,0.0,0.0,0.0
6.28,231.53613840000003,2.8194000000000004,5.638800000000001,-6.2874144,0.0,0.0,0.0,0.0
6.300000000000001,234.3723024,2.4941784,4.012082400000001,-7.0542912,0.0,0.0,0.0,0.0
6.32,237.23681280000002,4.608576,3.0903671999999998,-5.9807856,0.0,0.0,0.0,0.0
6.34,240.1354608,2.7108912000000003,4.120591200000001,-6.364224,0.0,0.0,0.0,0.0
6.36,242.884452,1.1926824,3.3616392,-7.36092,0.0,0.0,0.0,0.0
6.380000000000001,245.69592720000003,-0.1085088,2.7108912000000003,-6.594043200000001,0.0,0.0,0.0,0.0
6.4,248.46503520000005,-1.5724632,3.0903671999999998,-8.6645496,0.0,0.0,0.0,0.0
6.42,251.24389680000002,-1.8976848000000002,3.0903671999999998,-7.591044000000001,0.0,0.0,0.0,0.0
6.44,253.92888000000002,-2.6566368,3.6326064,-6.5175384,0.0,0.0,0.0,0.0
6.460000000000001,256.5757632,-0.9217152000000001,4.1748456,-7.130796,0.0,0.0,0.0,0.0
6.48,259.24520160000003,-0.9217152000000001,4.7170848,-5.6741568000000004,0.0,0.0,0.0,0.0
6.5,261.83417280000003,0.4337304,4.120591200000001,-7.36092,0.0,0.0,0.0,0.0
6.52,264.3944928,0.2170176,4.554321600000001,-6.9009768,0.0,0.0,0.0,0.0
6.54,266.9097024,1.5182088,4.6628304,-6.5175384,0.0,0.0,0.0,0.0
6.5600000000000005,269.42338800000005,3.957828,3.4158936000000004,-5.2139088000000005,0.0,0.0,0.0,0.0
6.58,271.95109440000004,1.1387328,4.0663368,-5.367223200000001,0.0,0.0,0.0,0.0
6.6,274.52665440000004,2.1143976,5.259324,-4.6006512,0.0,0.0,0.0,0.0
6.62,277.0287576,1.7349216,4.6628304,-5.4440328000000004,0.0,0.0,0.0,0.0
6.640000000000001,279.52811760000003,0.4337304,5.096560800000001,-5.5205376,0.0,0.0,0.0,0.0
6.66,282.01345680000003,0.7046976,5.259324,-7.2076056,0.0,0.0,0.0,0.0
6.68,284.62589760000003,-1.5182088,3.9035736000000005,-7.744358400000001,0.0,0.0,0.0,0.0
6.7,287.1173328,-0.650748,3.7953696000000003,-7.8208632,0.0,0.0,0.0,0.0
6.720000000000001,289.61516880000005,-0.8674608,3.1446216000000002,-6.8241672,0.0,0.0,0.0,0.0
6.74,292.0602744,0.3252216,1.7349216,-6.9009768,0.0,0.0,0.0,0.0
6.76,294.5575008,-1.2469368,2.8736544000000004,-7.8976728000000005,0.0,0.0,0.0,0.0
6.78,297.01723680000003,-2.9279088,3.6868608000000003,-7.6675488,0.0,0.0,0.0,0.0
6.800000000000001,299.25264000000004,1.4639544,2.0061936,-5.750661600000001,0.0,0.0,0.0,0.0
6.82,301.64836800000006,-0.4879848,3.957828,-5.597347200000001,0.0,0.0,0.0,0.0
6.84,303.9803928,0.1085088,5.096560800000001,-6.2874144,0.0,0.0,0.0,0.0
6.86,306.3084552,1.0844784,5.5302912,-5.2907184,0.0,0.0,0.0,0.0
6.880000000000001,308.75752320000004,1.4639544,6.1267848,-5.5205376,0.0,0.0,0.0,0.0
6.9,311.0800992,0.0,4.120591200000001,-5.2139088000000005,0.0,0.0,0.0,0.0
6.92,313.40663760000007,0.7046976,5.0423064,-3.3738312000000006,0.0,0.0,0.0,0.0
6.94,315.7121448,-1.5724632,5.5845456,-5.5205376,0.0,0.0,0.0,0.0
6.960000000000001,318.08836560000003,-0.4879848,3.198876,-4.907280000000001,0.0,0.0,0.0,0.0
6.98,320.52768000000003,0.7046976,4.933797600000001,-4.677156,0.0,0.0,0.0,0.0
7.0,322.956936,-0.5964936000000001,2.6566368,-5.597347200000001,0.0,0.0,0.0,0.0
7.02,325.46757360000004,-0.3252216,2.0601432,-6.5175384,0.0,0.0,0.0,0.0
7.04,327.8124,-0.9217152000000001,3.6326064,-6.0572904,0.0,0.0,0.0,0.0
7.0600000000000005,330.1520448,0.0542544,2.6566368,-6.364224,0.0,0.0,0.0,0.0
7.08,332.55996480000005,-0.0542544,2.7651456,-5.597347200000001,0.0,0.0,0.0,0.0
7.1,334.8581568,0.2709672,1.2469368,-6.2874144,0.0,0.0,0.0,0.0
7.12,337.08715920000003,-0.16276320000000002,1.4639544,-4.523841600000001,0.0,0.0,0.0,0.0
7.140000000000001,339.2808048,0.0,3.2531304000000003,-5.6741568000000004,0.0,0.0,0.0,0.0
7.16,341.435436,1.1387328,3.957828,-5.367223200000001,0.0,0.0,0.0,0.0
7.18,343.4736336,-0.4879848,6.343497600000001,-6.2109096,0.0,0.0,0.0,0.0
7.2,345.68343360000006,0.4879848,4.608576,-3.2970216000000003,0.0,0.0,0.0,0.0
7.220000000000001,347.73991920000003,-0.9217152000000001,5.259324,-5.6741568000000004,0.0,0.0,0.0,0.0
7.24,349.97136,0.16276320000000002,3.3073848000000003,-4.907280000000001,0.0,0.0,0.0,0.0
7.26,352.20676320000007,-0.8132064000000001,4.1748456,-4.2172128,0.0,0.0,0.0,0.0
7.28,354.44734800000003,0.16276320000000002,3.7411152,-4.984089600000001,0.0,0.0,0.0,0.0
7.300000000000001,356.5867392,-0.5422392,4.445812800000001,-6.1341,0.0,0.0,0.0,0.0
7.32,358.8559752,0.16276320000000002,3.198876,-4.7539656,0.0,0.0,0.0,0.0
7.34,361.20263040000003,0.4337304,3.6868608000000003,-4.984089600000001,0.0,0.0,0.0,0.0
7.36,363.39200880000004,0.3252216,3.0361128,-6.2109096,0.0,0.0,0.0,0.0
7.380000000000001,365.75756160000003,1.3554456000000001,2.4399240000000004,-4.6006512,0.0,0.0,0.0,0.0
7.4,368.0511816,0.9759696,2.7108912000000003,-5.827471200000001,0.0,0.0,0.0,0.0
7.42,370.28353680000004,1.3011912,2.3856696,-4.8304704,0.0,0.0,0.0,0.0
7.44,372.4994328,2.8194000000000004,1.3011912,-3.5271456,0.0,0.0,0.0,0.0
7.460000000000001,374.77446000000003,0.1085088,2.8194000000000004,-3.7572696000000003,0.0,0.0,0.0,0.0
7.48,377.08606320000007,0.9759696,3.9035736000000005,-4.7539656,0.0,0.0,0.0,0.0
7.5,379.383036,-0.37947600000000004,3.957828,-5.367223200000001,0.0,0.0,0.0,0.0
7.52,381.59375040000003,-0.7046976,4.0663368,-3.9870888,0.0,0.0,0.0,0.0
7.54,383.88858960000005,0.0,4.8795432000000005,-4.0638984,0.0,0.0,0.0,0.0
7.5600000000000005,386.05998480000005,-1.1926824,4.554321600000001,-4.2937176,0.0,0.0,0.0,0.0
7.58,388.29630240000006,-0.8674608,3.4698432,-3.7572696000000003,0.0,0.0,0.0,0.0
7.6,390.4756224,-1.4639544,4.0663368,-3.910584,0.0,0.0,0.0,0.0
7.62,392.59855440000007,-0.7589520000000001,3.6868608000000003,-5.060594400000001,0.0,0.0,0.0,0.0
7.640000000000001,394.7227056,0.4879848,2.6566368,-5.2139088000000005,0.0,0.0,0.0,0.0
7.66,396.7023816,-0.9217152000000001,2.4399240000000004,-5.060594400000001,0.0,0.0,0.0,0.0
7.68,398.77959360000006,-0.8132064000000001,2.2229064000000003,-4.2937176,0.0,0.0,0.0,0.0
7.7,400.8452232000001,-1.0844784,2.0601432,-4.2172128,0.0,0.0,0.0,0.0
7.720000000000001,402.84227280000005,-0.9759696,4.012082400000001,-4.8304704,0.0,0.0,0.0,0.0
7.74,404.77135200000004,0.4879848,3.198876,-4.8304704,0.0,0.0,0.0,0.0
7.76,406.8619752,1.1387328,1.8976848000000002,-4.2937176,0.0,0.0,0.0,0.0
7.78,408.8873712000001,0.9217152000000001,2.1143976,-4.8304704,0.0,0.0,0.0,0.0
7.8,410.8432728,1.6806672000000002,2.6566368,-4.677156,0.0,0.0,0.0,0.0
7.82,412.96711920000007,0.7589520000000001,4.3376088,-3.7572696000000003,0.0,0.0,0.0,0.0
7.84,415.1330280000001,2.0061936,3.5240976,-3.0672024,0.0,0.0,0.0,0.0
7.86,417.31387200000006,0.7589520000000001,3.0361128,-3.910584,0.0,0.0,0.0,0.0
7.88,419.45661600000005,0.2709672,3.8496240000000004,-3.9870888,0.0,0.0,0.0,0.0
7.9,421.58412000000004,0.2170176,4.3376088,-3.7572696000000003,0.0,0.0,0.0,0.0
7.92,423.63938640000003,-0.5964936000000001,3.6326064,-4.677156,0.0,0.0,0.0,0.0
7.94,425.75866080000003,-0.9759696,3.2531304000000003,-3.910584,0.0,0.0,0.0,0.0
7.96,427.8014304,-1.6264128000000002,2.9279088,-4.2172128,0.0,0.0,0.0,0.0
7.98,429.9981240000001,-1.1926824,3.0361128,-4.1404032,0.0,0.0,0.0,0.0
8.0,431.996088,-1.4097000000000002,2.9279088,-4.907280000000001,0.0,0.0,0.0,0.0
8.02,434.0921976000001,-0.37947600000000004,2.6566368,-4.1404032,0.0,0.0,0.0,0.0
8.04,436.0941240000001,-0.5964936000000001,1.8976848000000002,-4.2937176,0.0,0.0,0.0,0.0
8.06,438.08202960000006,0.650748,1.6264128000000002,-4.1404032,0.0,0.0,0.0,0.0
8.08,440.0053176,0.1085088,1.9519392,-4.677156,0.0,0.0,0.0,0.0
8.100000000000001,441.9548184,1.030224,2.2229064000000003,-4.0638984,0.0,0.0,0.0,0.0
8.120000000000001,443.8595136,0.7589520000000001,3.578352,-4.0638984,0.0,0.0,0.0,0.0
8.14,445.82242560000003,1.4639544,2.9818584,-3.9870888,0.0,0.0,0.0,0.0
8.16,447.76430640000007,0.37947600000000004,3.4158936000000004,-3.450336,0.0,0.0,0.0,0.0
8.18,449.64278880000006,1.2469368,2.7651456,-3.68046,0.0,0.0,0.0,0.0
8.2,451.5621144000001,0.8674608,3.4698432,-3.7572696000000003,0.0,0.0,0.0,0.0
8.22,453.545448,0.0542544,3.957828,-3.5271456,0.0,0.0,0.0,0.0
8.24,455.4711744,-1.7349216,3.7953696000000003,-4.370527200000001,0.0,0.0,0.0,0.0
8.26,457.4511552,-2.2771608000000003,3.6868608000000003,-4.0638984,0.0,0.0,0.0,0.0
8.280000000000001,459.4518624000001,-0.5422392,3.2531304000000003,-3.68046,0.0,0.0,0.0,0.0
8.3,461.43367200000006,-1.3554456000000001,3.198876,-4.677156,0.0,0.0,0.0,0.0
8.32,463.37463840000004,-0.9759696,2.6023824,-4.1404032,0.0,0.0,0.0,0.0
8.34,465.25891200000007,-1.4639544,2.548128,-4.4473368,0.0,0.0,0.0,0.0
8.36,467.0919792,0.3252216,1.5182088,-3.9870888,0.0,0.0,0.0,0.0
8.379999999999999,469.0792752,0.0,1.9519392,-3.3738312000000006,0.0,0.0,0.0,0.0
8.4,470.9925048,1.1387328,1.789176,-3.2970216000000003,0.0,0.0,0.0,0.0
8.42,472.9157928000001,0.2709672,1.6806672000000002,-4.1404032,0.0,0.0,0.0,0.0
8.440000000000001,474.83633760000004,0.0,1.9519392,-3.3738312000000006,0.0,0.0,0.0,0.0
8.46,476.70659040000004,0.16276320000000002,2.3314152,-4.2172128,0.0,0.0,0.0,0.0
8.48,478.56922320000007,0.3252216,1.8434304000000001,-3.910584,0.0,0.0,0.0,0.0
8.5,480.43947600000007,-0.0542544,1.6806672000000002,-3.450336,0.0,0.0,0.0,0.0
8.52,482.2701048,0.0,3.2531304000000003,-2.9135831999999997,0.0,0.0,0.0,0.0
8.54,484.10286720000005,0.0,3.4698432,-2.5304496,0.0,0.0,0.0,0.0
8.56,485.89996800000006,0.2709672,3.957828,-2.223516,0.0,0.0,0.0,0.0
8.58,487.76930640000006,0.3252216,2.6023824,-2.683764,0.0,0.0,0.0,0.0
8.600000000000001,489.62828160000004,0.3252216,3.578352,-2.6069544000000002,0.0,0.0,0.0,0.0
8.620000000000001,491.4753696,-0.8132064000000001,3.957828,-2.9135831999999997,0.0,0.0,0.0,0.0
8.64,493.42822320000005,0.37947600000000004,2.0061936,-3.2205168000000004,0.0,0.0,0.0,0.0
8.66,495.2323344,-1.0844784,3.0361128,-2.9135831999999997,0.0,0.0,0.0,0.0
8.68,496.93708080000005,0.0,3.0361128,-3.450336,0.0,0.0,0.0,0.0
8.7,498.75673680000006,-0.650748,0.8674608,-4.2937176,0.0,0.0,0.0,0.0
8.72,500.58828000000005,0.650748,1.6264128000000002,-3.68046,0.0,0.0,0.0,0.0
8.74,502.39574400000004,-0.0542544,1.8976848000000002,-3.1437072,0.0,0.0,0.0,0.0
8.76,504.2397840000001,-0.9217152000000001,1.6806672000000002,-2.9903928,0.0,0.0,0.0,0.0
8.780000000000001,506.09540640000006,-0.2709672,1.6806672000000002,-3.1437072,0.0,0.0,0.0,0.0
8.8,507.9351792,-0.8674608,1.8434304000000001,-3.450336,0.0,0.0,0.0,0.0
8.82,509.79720240000006,-0.9217152000000001,2.4399240000000004,-2.9135831999999997,0.0,0.0,0.0,0.0
8.84,511.5464496000001,-0.16276320000000002,2.2229064000000003,-2.7602688,0.0,0.0,0.0,0.0
8.86,513.4057296000001,0.0,1.8434304000000001,-2.3768304000000002,0.0,0.0,0.0,0.0
8.879999999999999,515.2503792,-0.3252216,2.1686520000000002,-3.2205168000000004,0.0,0.0,0.0,0.0
8.9,517.180068,0.0542544,2.3314152,-2.9135831999999997,0.0,0.0,0.0,0.0
8.92,518.9229144000001,-0.9759696,2.4941784,-3.0672024,0.0,0.0,0.0,0.0
8.940000000000001,520.6797816000001,-0.2170176,1.4097000000000002,-2.9903928,0.0,0.0,0.0,0.0
8.96,522.4869408000001,-0.0542544,1.8976848000000002,-3.1437072,0.0,0.0,0.0,0.0
8.98,524.2505136,-0.4879848,2.3314152,-3.8337744,0.0,0.0,0.0,0.0
9.0,525.929352,-0.9759696,3.2531304000000003,-2.8370784000000002,0.0,0.0,0.0,0.0
9.02,527.6465952,-0.16276320000000002,4.0663368,-1.5334488,0.0,0.0,0.0,0.0
9.04,529.3510368000001,-0.2170176,3.4698432,-2.3003256,0.0,0.0,0.0,0.0
9.06,531.066756,-0.9217152000000001,3.0903671999999998,-2.223516,0.0,0.0,0.0,0.0
9.08,532.8416064,-0.9217152000000001,3.0903671999999998,-2.683764,0.0,0.0,0.0,0.0
9.100000000000001,534.5122152,0.4337304,1.9519392,-3.2205168000000004,0.0,0.0,0.0,0.0
9.120000000000001,536.1273504000001,-0.0542544,2.2229064000000003,-3.2205168000000004,0.0,0.0,0.0,0.0
9.14,537.7610784,0.5964936000000001,3.198876,-2.0702016,0.0,0.0,0.0,0.0
9.16,539.4133992000001,1.789176,2.3314152,-2.3003256,0.0,0.0,0.0,0.0
9.18,541.0907136000001,0.9759696,1.7349216,-2.7602688,0.0,0.0,0.0,0.0
9.2,542.6711016,1.4639544,1.6806672000000002,-2.9135831999999997,0.0,0.0,0.0,0.0
9.22,544.180776,1.4097000000000002,0.650748,-3.3738312000000006,0.0,0.0,0.0,0.0
9.24,545.8465080000001,0.4879848,1.789176,-3.2205168000000004,0.0,0.0,0.0,0.0
9.26,547.5296136000001,0.0,1.6264128000000002,-3.6036504000000003,0.0,0.0,0.0,0.0
9.280000000000001,549.1694376,-0.2709672,1.030224,-3.7572696000000003,0.0,0.0,0.0,0.0
9.3,550.776648,-0.37947600000000004,0.8132064000000001,-3.450336,0.0,0.0,0.0,0.0
9.32,552.3917832,-0.8674608,0.9759696,-3.0672024,0.0,0.0,0.0,0.0
9.34,554.022768,-0.8132064000000001,1.2469368,-3.2205168000000004,0.0,0.0,0.0,0.0
9.36,555.6360744,-1.3554456000000001,1.4639544,-3.1437072,0.0,0.0,0.0,0.0
9.379999999999999,557.230788,-1.1387328,1.1387328,-3.3738312000000006,0.0,0.0,0.0,0.0
9.4,558.9379728,-0.8674608,1.7349216,-2.8370784000000002,0.0,0.0,0.0,0.0
9.42,560.5049496,-1.4639544,2.1143976,-2.9903928,0.0,0.0,0.0,0.0
9.440000000000001,562.2605976000001,-0.8132064000000001,2.548128,-2.9135831999999997,0.0,0.0,0.0,0.0
9.46,563.9214528,-0.2170176,2.6023824,-2.5304496,0.0,0.0,0.0,0.0
9.48,565.6600320000001,0.4337304,2.0601432,-2.8370784000000002,0.0,0.0,0.0,0.0
9.5,567.2535264,0.9759696,2.6023824,-1.9936968000000002,0.0,0.0,0.0,0.0
9.52,568.99302,0.5422392,2.9279088,-2.4536400000000005,0.0,0.0,0.0,0.0
9.54,570.7108728000001,0.2709672,3.198876,-2.4536400000000005,0.0,0.0,0.0,0.0
9.56,572.4089136,1.1387328,2.548128,-2.3768304000000002,0.0,0.0,0.0,0.0
9.58,574.0304496000001,0.37947600000000004,1.8976848000000002,-2.4536400000000005,0.0,0.0,0.0,0.0
9.600000000000001,575.604132,0.8674608,1.6264128000000002,-1.6867632000000001,0.0,0.0,0.0,0.0
9.620000000000001,577.1796432,-1.1387328,2.0061936,-2.683764,0.0,0.0,0.0,0.0
9.64,578.7338184,0.0,1.5182088,-1.7635728,0.0,0.0,0.0,0.0
9.66,580.1554056,-0.0542544,2.0061936,-1.9936968000000002,0.0,0.0,0.0,0.0
9.68,581.5934520000001,-0.4879848,2.1143976,-2.3003256,0.0,0.0,0.0,0.0
9.7,583.1427504000001,-0.0542544,1.6806672000000002,-2.4536400000000005,0.0,0.0,0.0,0.0
9.72,584.639928,-0.650748,1.8434304000000001,-2.6069544000000002,0.0,0.0,0.0,0.0
9.74,586.1959320000001,-0.8674608,1.9519392,-2.3768304000000002,0.0,0.0,0.0,0.0
9.76,587.6684208,-1.0844784,1.9519392,-2.3768304000000002,0.0,0.0,0.0,0.0
9.780000000000001,589.1183544,-1.030224,1.789176,-2.1470112,0.0,0.0,0.0,0.0
9.8,590.6563752,-0.7589520000000001,2.0601432,-2.223516,0.0,0.0,0.0,0.0
9.82,592.0697328000001,-0.8132064000000001,2.4399240000000004,-2.1470112,0.0,0.0,0.0,0.0
9.84,593.6708472,-0.7589520000000001,2.1686520000000002,-2.3003256,0.0,0.0,0.0,0.0
9.86,595.2875064000001,-0.8674608,2.1686520000000002,-2.223516,0.0,0.0,0.0,0.0
9.879999999999999,596.8371096,0.0,2.1686520000000002,-1.9168872,0.0,0.0,0.0,0.0
9.9,598.3830552000001,-0.1085088,1.9519392,-2.0702016,0.0,0.0,0.0,0.0
9.92,600.046044,-0.37947600000000004,1.8976848000000002,-2.4536400000000005,0.0,0.0,0.0,0.0
9.940000000000001,601.6017432,-0.7046976,2.4399240000000004,-2.5304496,0.0,0.0,0.0,0.0
9.96,603.2028576,-0.0542544,1.6806672000000002,-2.223516,0.0,0.0,0.0,0.0
9.98,604.8012288000001,-0.2170176,1.8434304000000001,-2.4536400000000005,0.0,0.0,0.0,0.0
10.0,606.3474792000001,-1.030224,1.8976848000000002,-2.0702016,0.0,0.0,0.0,0.0
10.02,607.8248448,-0.7589520000000001,1.8434304000000001,-2.1470112,0.0,0.0,0.0,0.0
10.04,609.3549408000001,-0.0542544,1.5724632,-2.1470112,0.0,0.0,0.0,0.0
10.06,610.787196,0.3252216,2.1686520000000002,-1.6102584000000002,0.0,0.0,0.0,0.0
10.08,612.2298144000001,0.8674608,1.7349216,-1.6102584000000002,0.0,0.0,0.0,0.0
10.100000000000001,613.6718232000001,1.3554456000000001,1.4639544,-1.9936968000000002,0.0,0.0,0.0,0.0
10.120000000000001,615.1632096000001,1.4097000000000002,1.7349216,-1.8400776,0.0,0.0,0.0,0.0
10.14,616.560108,1.2469368,2.0061936,-1.8400776,0.0,0.0,0.0,0.0
10.16,617.9911440000001,0.8674608,1.7349216,-1.8400776,0.0,0.0,0.0,0.0
10.18,619.3548192000001,0.5422392,1.1926824,-2.223516,0.0,0.0,0.0,0.0
10.2,620.7093504000001,0.5964936000000001,1.030224,-2.5304496,0.0,0.0,0.0,0.0
10.22,622.0928376,-0.16276320000000002,1.6806672000000002,-2.223516,0.0,0.0,0.0,0.0
10.24,623.543076,0.0,1.7349216,-1.9936968000000002,0.0,0.0,0.0,0.0
10.26,624.9143712000001,-0.650748,1.6264128000000002,-2.1470112,0.0,0.0,0.0,0.0
10.280000000000001,626.3079168000002,-1.2469368,1.6806672000000002,-2.0702016,0.0,0.0,0.0,0.0
10.3,627.6337968,-1.6264128000000002,1.7349216,-2.0702016,0.0,0.0,0.0,0.0
10.32,628.9895472000001,-2.0061936,1.789176,-2.223516,0.0,0.0,0.0,0.0
10.34,630.3580992000001,-1.1926824,1.9519392,-1.5334488,0.0,0.0,0.0,0.0
10.36,631.6666056,-1.4097000000000002,2.6023824,-1.3801344,0.0,0.0,0.0,0.0
10.379999999999999,633.1333032,-1.8434304000000001,2.2771608000000003,-1.7635728,0.0,0.0,0.0,0.0
10.4,634.5042936,-1.6806672000000002,2.2229064000000003,-2.0702016,0.0,0.0,0.0,0.0
10.42,635.9761728000001,-1.2469368,2.3314152,-1.9168872,0.0,0.0,0.0,0.0
10.440000000000001,637.3965408,-1.1387328,1.8976848000000002,-2.1470112,0.0,0.0,0.0,0.0
10.46,638.726688,-1.0844784,1.7349216,-1.9168872,0.0,0.0,0.0,0.0
10.48,640.1309016,-0.650748,1.6264128000000002,-2.0702016,0.0,0.0,0.0,0.0
10.5,641.5564512000001,-0.4879848,1.789176,-1.6867632000000001,0.0,0.0,0.0,0.0
10.52,642.9280512,-0.4337304,1.7349216,-1.6102584000000002,0.0,0.0,0.0,0.0
10.54,644.2798392000001,0.5964936000000001,1.5724632,-1.6867632000000001,0.0,0.0,0.0,0.0
10.56,645.5273856,0.8132064000000001,1.1387328,-1.4569440000000002,0.0,0.0,0.0,0.0
10.58,646.9940832000001,0.5422392,1.1926824,-1.5334488,0.0,0.0,0.0,0.0
10.600000000000001,648.3288024000001,0.650748,0.9759696,-1.9936968000000002,0.0,0.0,0.0,0.0
10.620000000000001,649.588236,1.2469368,0.5964936000000001,-1.7635728,0.0,0.0,0.0,0.0
10.64,650.895828,0.8132064000000001,0.7046976,-1.9936968000000002,0.0,0.0,0.0,0.0
10.66,652.21866,0.5422392,0.9759696,-1.6867632000000001,0.0,0.0,0.0,0.0
10.68,653.5363104,0.37947600000000004,1.030224,-1.9936968000000002,0.0,0.0,0.0,0.0
10.7,654.7801992000001,-0.37947600000000004,1.3554456000000001,-1.9168872,0.0,0.0,0.0,0.0
10.72,656.0530440000001,-0.2709672,1.1387328,-1.9168872,0.0,0.0,0.0,0.0
10.74,657.4362264000001,-0.16276320000000002,1.030224,-1.9168872,0.0,0.0,0.0,0.0
10.76,658.8648240000001,-0.5422392,1.1926824,-1.9936968000000002,0.0,0.0,0.0,0.0
10.780000000000001,660.1782072,-0.5964936000000001,1.6806672000000002,-1.7635728,0.0,0.0,0.0,0.0
10.8,661.4964672000001,-0.9217152000000001,1.789176,-1.8400776,0.0,0.0,0.0,0.0
10.82,662.8089360000001,-1.1387328,1.789176,-1.8400776,0.0,0.0,0.0,0.0
10.84,664.0954968000001,-0.9217152000000001,1.789176,-1.6867632000000001,0.0,0.0,0.0,0.0
10.86,665.4527712,-1.1387328,2.0061936,-1.6867632000000001,0.0,0.0,0.0,0.0
10.879999999999999,666.6710568,-1.1387328,1.6806672000000002,-1.6867632000000001,0.0,0.0,0.0,0.0
10.9,667.9896216000001,-1.1926824,1.6264128000000002,-1.6102584000000002,0.0,0.0,0.0,0.0
10.92,669.3045288,-1.0844784,1.9519392,-1.6102584000000002,0.0,0.0,0.0,0.0
10.940000000000001,670.566096,-0.8674608,1.9519392,-1.5334488,0.0,0.0,0.0,0.0
10.96,671.8663728,-0.7589520000000001,1.9519392,-1.6102584000000002,0.0,0.0,0.0,0.0
10.98,673.0953264000001,-0.650748,1.4097000000000002,-1.6867632000000001,0.0,0.0,0.0,0.0
11.0,674.1767568,-0.3252216,1.4097000000000002,-1.6102584000000002,0.0,0.0,0.0,0.0
11.02,675.3499320000001,-0.4879848,1.8976848000000002,-1.4569440000000002,0.0,0.0,0.0,0.0
11.04,676.5837624,-0.37947600000000004,1.6806672000000002,-1.3801344,0.0,0.0,0.0,0.0
11.06,677.7737016,-0.650748,1.6264128000000002,-1.6867632000000001,0.0,0.0,0.0,0.0
11.08,678.9554112,-0.4337304,1.6264128000000002,-1.3801344,0.0,0.0,0.0,0.0
11.100000000000001,680.15358,-0.3252216,1.1926824,-1.4569440000000002,0.0,0.0,0.0,0.0
11.120000000000001,681.2612232,-0.4879848,1.3554456000000001,-1.5334488,0.0,0.0,0.0,0.0
11.14,682.5191328,-0.2709672,1.1387328,-1.6867632000000001,0.0,0.0,0.0,0.0
11.16,683.7057192,-0.4337304,1.4097000000000002,-1.4569440000000002,0.0,0.0,0.0,0.0
11.18,684.8066568,-0.37947600000000004,1.030224,-1.5334488,0.0,0.0,0.0,0.0
11.2,686.0121408,0.0,1.0844784,-1.4569440000000002,0.0,0.0,0.0,0.0
11.22,687.2075664,0.0542544,1.030224,-1.5334488,0.0,0.0,0.0,0.0
11.24,688.3816560000001,-0.2170176,1.0844784,-1.8400776,0.0,0.0,0.0,0.0
11.26,689.6523672000001,-0.1085088,0.9759696,-1.5334488,0.0,0.0,0.0,0.0
11.280000000000001,690.9041808000001,0.2709672,0.7046976,-1.7635728,0.0,0.0,0.0,0.0
11.3,692.0636400000001,0.16276320000000002,1.030224,-1.8400776,0.0,0.0,0.0,0.0
11.32,693.1819512000001,0.1085088,1.0844784,-1.5334488,0.0,0.0,0.0,0.0
11.34,694.4438232,0.0,1.1926824,-1.5334488,0.0,0.0,0.0,0.0
11.36,695.6627184000001,0.1085088,1.4097000000000002,-1.3036296,0.0,0.0,0.0,0.0
11.379999999999999,696.8968536000001,-0.2170176,1.5182088,-1.2268200000000002,0.0,0.0,0.0,0.0
11.4,698.1425712000001,-0.2170176,1.6264128000000002,-1.0735056,0.0,0.0,0.0,0.0
11.42,699.4367520000001,-0.37947600000000004,1.4639544,-1.2268200000000002,0.0,0.0,0.0,0.0
11.440000000000001,700.6608288,-0.8674608,1.7349216,-1.3801344,0.0,0.0,0.0,0.0
11.46,701.8797240000001,-0.7589520000000001,1.4097000000000002,-1.1500104,0.0,0.0,0.0,0.0
11.48,703.0352207999999,-0.9217152000000001,1.6806672000000002,-1.3801344,0.0,0.0,0.0,0.0
11.5,704.1617616000001,-0.9217152000000001,1.5724632,-1.2268200000000002,0.0,0.0,0.0,0.0
11.52,705.442836,-0.9217152000000001,1.5724632,-1.4569440000000002,0.0,0.0,0.0,0.0
11.54,706.6663032,-1.030224,1.6806672000000002,-1.4569440000000002,0.0,0.0,0.0,0.0
11.56,707.7901008000001,-0.9217152000000001,1.4639544,-1.3801344,0.0,0.0,0.0,0.0
11.58,708.91146,-1.2469368,1.3554456000000001,-1.4569440000000002,0.0,0.0,0.0,0.0
11.600000000000001,709.9493040000001,-1.0844784,1.3011912,-1.4569440000000002,0.0,0.0,0.0,0.0
11.620000000000001,711.0621288,-0.9217152000000001,1.2469368,-1.3801344,0.0,0.0,0.0,0.0
11.64,712.1764776000001,-0.8674608,1.0844784,-1.4569440000000002,0.0,0.0,0.0,0.0
11.66,713.3170392000001,-0.9759696,1.3011912,-1.3801344,0.0,0.0,0.0,0.0
11.68,714.3372048000001,-0.4879848,1.1387328,-1.3036296,0.0,0.0,0.0,0.0
11.7,715.469232,-0.650748,1.3011912,-1.3801344,0.0,0.0,0.0,0.0
11.72,716.5354224000001,-0.5964936000000001,1.2469368,-1.3801344,0.0,0.0,0.0,0.0
11.74,717.5927736000001,-0.4337304,1.0844784,-1.3801344,0.0,0.0,0.0,0.0
11.76,718.7220576000001,-0.2170176,1.1926824,-1.1500104,0.0,0.0,0.0,0.0
11.78,719.8702392,-0.2170176,1.0844784,-1.3801344,0.0,0.0,0.0,0.0
11.8,720.7901256,-0.3252216,1.0844784,-1.1500104,0.0,0.0,0.0,0.0
11.82,721.7767632000001,-0.37947600000000004,1.3554456000000001,-1.0735056,0.0,0.0,0.0,0.0
11.84,722.7042696000001,-0.16276320000000002,1.2469368,-1.1500104,0.0,0.0,0.0,0.0
11.86,723.5766072,-0.16276320000000002,1.2469368,-1.0735056,0.0,0.0,0.0,0.0
11.88,724.5266688,-0.16276320000000002,1.2469368,-0.996696,0.0,0.0,0.0,0.0
11.9,725.5239744,-0.3252216,1.3011912,-1.2268200000000002,0.0,0.0,0.0,0.0
11.92,726.5127456,0.0,1.0844784,-0.996696,0.0,0.0,0.0,0.0
11.94,727.495116,-0.3252216,1.3011912,-1.0735056,0.0,0.0,0.0,0.0
11.96,728.4393864,-0.4337304,0.5422392,-1.3036296,0.0,0.0,0.0,0.0
11.98,729.4964328,-0.4337304,0.650748,-1.2268200000000002,0.0,0.0,0.0,0.0
12.0,730.5522599999999,-0.5964936000000001,1.030224,-1.2268200000000002,0.0,0.0,0.0,0.0
12.02,731.5721208,-0.37947600000000004,1.2469368,-1.0735056,0.0,0.0,0.0,0.0
12.040000000000001,732.51822,-0.7046976,1.3554456000000001,-1.0735056,0.0,0.0,0.0,0.0
12.06,733.5188784000001,-0.5964936000000001,1.1387328,-1.0735056,0.0,0.0,0.0,0.0
12.08,734.5561128000002,-0.37947600000000004,1.1387328,-0.996696,0.0,0.0,0.0,0.0
12.1,735.6372384000001,-0.37947600000000004,1.4639544,-0.996696,0.0,0.0,0.0,0.0
12.120000000000001,736.6366776000001,-0.4337304,1.4097000000000002,-0.9201912000000001,0.0,0.0,0.0,0.0
12.14,737.6952480000001,-0.4337304,1.1926824,-0.9201912000000001,0.0,0.0,0.0,0.0
12.16,738.554784,-0.4879848,1.1387328,-0.8433816000000001,0.0,0.0,0.0,0.0
12.18,739.5487368,-0.4879848,1.2469368,-0.7668768,0.0,0.0,0.0,0.0
12.200000000000001,740.5609776000001,-0.5422392,1.3011912,-0.8433816000000001,0.0,0.0,0.0,0.0
12.22,741.5000664,-0.650748,1.3011912,-0.9201912000000001,0.0,0.0,0.0,0.0
12.24,742.5135264,-0.5964936000000001,1.3554456000000001,-0.9201912000000001,0.0,0.0,0.0,0.0
12.26,743.6348856,-0.5964936000000001,1.3554456000000001,-0.7668768,0.0,0.0,0.0,0.0
12.28,744.5980536000001,-0.5964936000000001,1.3554456000000001,-0.8433816000000001,0.0,0.0,0.0,0.0
12.3,745.5965784,-0.7046976,1.3554456000000001,-0.9201912000000001,0.0,0.0,0.0,0.0
12.32,746.5536504,-0.7046976,1.3554456000000001,-0.9201912000000001,0.0,0.0,0.0,0.0
12.34,747.59058,-0.7589520000000001,1.3011912,-0.996696,0.0,0.0,0.0,0.0
12.36,748.7079768000001,-0.7046976,1.3554456000000001,-0.7668768,0.0,0.0,0.0,0.0
12.38,749.6891280000001,-0.7046976,1.2469368,-0.7668768,0.0,0.0,0.0,0.0
12.4,750.7281912000001,-0.5964936000000001,1.2469368,-0.9201912000000001,0.0,0.0,0.0,0.0
12.42,751.6764240000001,-0.650748,1.1926824,-0.996696,0.0,0.0,0.0,0.0
12.44,752.7249360000001,-0.4337304,0.9759696,-0.996696,0.0,0.0,0.0,0.0
12.46,753.6960288,-0.5422392,0.9759696,-0.8433816000000001,0.0,0.0,0.0,0.0
12.48,754.5503832,-0.5964936000000001,0.9217152000000001,-0.996696,0.0,0.0,0.0,0.0
12.5,755.5763400000001,-0.5422392,0.8674608,-0.9201912000000001,0.0,0.0,0.0,0.0
12.52,756.3980808000001,-0.650748,0.8674608,-0.996696,0.0,0.0,0.0,0.0
12.540000000000001,757.2688944,-0.650748,0.8674608,-0.996696,0.0,0.0,0.0,0.0
12.56,758.1540336,-0.5964936000000001,0.8132064000000001,-0.996696,0.0,0.0,0.0,0.0
12.58,759.0196656,-0.5422392,0.7589520000000001,-1.0735056,0.0,0.0,0.0,0.0
12.6,760.0169712000001,-0.4337304,0.7589520000000001,-0.8433816000000001,0.0,0.0,0.0,0.0
12.620000000000001,760.8710208,-0.5422392,0.650748,-0.996696,0.0,0.0,0.0,0.0
12.64,761.7726192,-0.5422392,0.9759696,-0.8433816000000001,0.0,0.0,0.0,0.0
12.66,762.6382512,-0.4879848,0.7046976,-0.996696,0.0,0.0,0.0,0.0
12.68,763.3146024000001,-0.5964936000000001,0.8132064000000001,-0.9201912000000001,0.0,0.0,0.0,0.0
12.700000000000001,764.2311360000001,-0.4879848,0.8132064000000001,-0.9201912000000001,0.0,0.0,0.0,0.0
12.72,765.1452312,-0.5422392,0.8674608,-0.996696,0.0,0.0,0.0,0.0
12.74,765.9916608000001,-0.5964936000000001,0.8132064000000001,-1.0735056,0.0,0.0,0.0,0.0
12.76,766.8103536000001,-0.4879848,0.8132064000000001,-0.8433816000000001,0.0,0.0,0.0,0.0
12.78,767.5388256,-0.5964936000000001,0.8132064000000001,-0.9201912000000001,0.0,0.0,0.0,0.0
12.8,768.3678816,-0.4879848,0.9217152000000001,-0.7668768,0.0,0.0,0.0,0.0
12.82,769.1435976,-0.4879848,0.9217152000000001,-0.8433816000000001,0.0,0.0,0.0,0.0
12.84,769.9467456000001,-0.4879848,0.9217152000000001,-0.7668768,0.0,0.0,0.0,0.0
12.86,770.6743031999999,-0.5964936000000001,0.9217152000000001,-0.6900672,0.0,0.0,0.0,0.0
12.88,771.4100904000001,-0.4879848,0.9217152000000001,-0.6900672,0.0,0.0,0.0,0.0
12.9,772.2650544,-0.650748,0.9759696,-0.7668768,0.0,0.0,0.0,0.0
12.92,772.9767624,-0.5422392,0.9759696,-0.6900672,0.0,0.0,0.0,0.0
12.94,773.8585488,-0.5964936000000001,1.030224,-0.6135624,0.0,0.0,0.0,0.0
12.96,774.6178056,-0.5422392,0.9759696,-0.6135624,0.0,0.0,0.0,0.0
12.98,775.4291832000001,-0.4879848,0.9217152000000001,-0.6135624,0.0,0.0,0.0,0.0
13.0,776.2408656000001,-0.5964936000000001,0.9217152000000001,-0.6900672,0.0,0.0,0.0,0.0
13.02,777.0872952000001,-0.5964936000000001,1.030224,-0.6900672,0.0,0.0,0.0,0.0
13.040000000000001,777.9267144,-0.5422392,0.9759696,-0.6135624,0.0,0.0,0.0,0.0
13.06,778.7511984,-0.650748,0.9759696,-0.7668768,0.0,0.0,0.0,0.0
13.08,779.5458120000001,-0.650748,1.0844784,-0.6900672,0.0,0.0,0.0,0.0
13.1,780.2419752000001,-0.5964936000000001,1.030224,-0.6135624,0.0,0.0,0.0,0.0
13.120000000000001,781.0027560000001,-0.5964936000000001,1.030224,-0.6135624,0.0,0.0,0.0,0.0
13.14,781.7217792000001,-0.5964936000000001,0.9217152000000001,-0.6900672,0.0,0.0,0.0,0.0
13.16,782.5316328,-0.7046976,1.030224,-0.6900672,0.0,0.0,0.0,0.0
13.18,783.3893400000001,-0.5422392,0.9759696,-0.6900672,0.0,0.0,0.0,0.0
13.200000000000001,784.2714312,-0.650748,0.9759696,-0.5367528,0.0,0.0,0.0,0.0
13.22,785.1891840000001,-0.5964936000000001,0.8132064000000001,-0.6135624,0.0,0.0,0.0,0.0
13.24,785.9039400000001,-0.650748,0.8674608,-0.6135624,0.0,0.0,0.0,0.0
13.26,786.6439944000001,-0.5422392,0.8674608,-0.6135624,0.0,0.0,0.0,0.0
13.28,787.3892304000001,-0.650748,0.8674608,-0.6135624,0.0,0.0,0.0,0.0
13.3,788.1231888000001,-0.650748,0.8674608,-0.6135624,0.0,0.0,0.0,0.0
13.32,788.7998448000001,-0.5964936000000001,0.8132064000000001,-0.6900672,0.0,0.0,0.0,0.0
13.34,789.4301712000001,-0.650748,0.8674608,-0.6135624,0.0,0.0,0.0,0.0
13.36,790.2875736000001,-0.650748,0.650748,-0.6135624,0.0,0.0,0.0,0.0
13.38,791.2181280000001,-0.650748,0.8674608,-0.6135624,0.0,0.0,0.0,0.0
13.4,792.033468,-0.650748,0.8674608,-0.5367528,0.0,0.0,0.0,0.0
13.42,792.8542944000001,-0.5964936000000001,0.9217152000000001,-0.5367528,0.0,0.0,0.0,0.0
13.44,793.7308992000001,-0.4879848,0.8132064000000001,-0.4599432,0.0,0.0,0.0,0.0
13.46,794.5316088000001,-0.4879848,0.8132064000000001,-0.5367528,0.0,0.0,0.0,0.0
13.48,795.2945232000001,-0.5422392,0.8674608,-0.5367528,0.0,0.0,0.0,0.0
13.5,795.9535008000001,-0.4879848,0.8132064000000001,-0.4599432,0.0,0.0,0.0,0.0
13.52,796.622232,-0.5422392,0.8674608,-0.6135624,0.0,0.0,0.0,0.0
13.540000000000001,797.3110800000001,-0.5422392,0.8674608,-0.5367528,0.0,0.0,0.0,0.0
13.56,797.8740456,-0.5422392,0.8674608,-0.4599432,0.0,0.0,0.0,0.0
13.58,798.5446056000001,-0.5422392,0.7589520000000001,-0.6135624,0.0,0.0,0.0,0.0
13.6,799.1438424,-0.650748,0.7589520000000001,-0.4599432,0.0,0.0,0.0,0.0
13.620000000000001,799.7845320000001,-0.4879848,0.8132064000000001,-0.3834384,0.0,0.0,0.0,0.0
13.64,800.392608,-0.5422392,0.8674608,-0.4599432,0.0,0.0,0.0,0.0
13.66,801.1024872000002,-0.5964936000000001,0.7046976,-0.4599432,0.0,0.0,0.0,0.0
13.68,801.8916144000001,-0.650748,0.7589520000000001,-0.3834384,0.0,0.0,0.0,0.0
13.700000000000001,802.6258776000001,-0.650748,0.8674608,-0.4599432,0.0,0.0,0.0,0.0
13.72,803.2318200000001,-0.5964936000000001,0.7046976,-0.5367528,0.0,0.0,0.0,0.0
13.74,803.9581584,-0.4879848,0.8132064000000001,-0.4599432,0.0,0.0,0.0,0.0
13.76,804.5345352,-0.650748,0.650748,-0.5367528,0.0,0.0,0.0,0.0
13.78,805.2148488,-0.650748,0.650748,-0.4599432,0.0,0.0,0.0,0.0
13.8,805.7668416,-0.5964936000000001,0.7046976,-0.5367528,0.0,0.0,0.0,0.0
13.82,806.3819280000001,-0.650748,0.7589520000000001,-0.4599432,0.0,0.0,0.0,0.0
13.84,807.0034152000001,-0.650748,0.7589520000000001,-0.4599432,0.0,0.0,0.0,0.0
13.86,807.7645008000001,-0.7046976,0.7046976,-0.5367528,0.0,0.0,0.0,0.0
13.88,808.4929728000001,-0.7046976,0.7046976,-0.4599432,0.0,0.0,0.0,0.0
13.9,809.0218008,-0.650748,0.7589520000000001,-0.3834384,0.0,0.0,0.0,0.0
13.92,809.7091248,-0.7046976,0.7046976,-0.4599432,0.0,0.0,0.0,0.0
13.94,810.2912928000001,-0.650748,0.650748,-0.4599432,0.0,0.0,0.0,0.0
13.96,810.8219496,-0.650748,0.650748,-0.5367528,0.0,0.0,0.0,0.0
13.98,811.5104928000001,-0.7046976,0.7046976,-0.4599432,0.0,0.0,0.0,0.0
14.0,812.1088152,-0.5964936000000001,0.7046976,-0.4599432,0.0,0.0,0.0,0.0
14.02,812.6458728,-0.7046976,0.5964936000000001,-0.4599432,0.0,0.0,0.0,0.0
14.040000000000001,813.2664456000001,-0.7589520000000001,0.650748,-0.4599432,0.0,0.0,0.0,0.0
14.06,813.7800336,-0.650748,0.650748,-0.3834384,0.0,0.0,0.0,0.0
14.08,814.3393416000001,-0.7046976,0.5964936000000001,-0.30662880000000003,0.0,0.0,0.0,0.0
14.1,814.9074888000001,-0.650748,0.650748,-0.4599432,0.0,0.0,0.0,0.0
14.120000000000001,815.4716736000001,-0.650748,0.650748,-0.3834384,0.0,0.0,0.0,0.0
14.14,815.9968440000001,-0.7046976,0.5964936000000001,-0.3834384,0.0,0.0,0.0,0.0
14.16,816.6360096000001,-0.7046976,0.7046976,-0.4599432,0.0,0.0,0.0,0.0
14.18,817.2160440000001,-0.7589520000000001,0.5422392,-0.3834384,0.0,0.0,0.0,0.0
14.200000000000001,817.7540160000001,-0.7046976,0.5964936000000001,-0.3834384,0.0,0.0,0.0,0.0
14.22,818.2307232,-0.8132064000000001,0.7046976,-0.3834384,0.0,0.0,0.0,0.0
14.24,818.8503816,-0.650748,0.650748,-0.4599432,0.0,0.0,0.0,0.0
14.26,819.2923416000001,-0.8132064000000001,0.5964936000000001,-0.3834384,0.0,0.0,0.0,0.0
14.28,819.8181216,-0.7046976,0.5964936000000001,-0.3834384,0.0,0.0,0.0,0.0
14.3,820.3768200000001,-0.7046976,0.7046976,-0.30662880000000003,0.0,0.0,0.0,0.0
14.32,820.920888,-0.5422392,0.650748,-0.30662880000000003,0.0,0.0,0.0,0.0
14.34,821.437524,-0.650748,0.650748,-0.30662880000000003,0.0,0.0,0.0,0.0
14.36,821.9511120000001,-0.5964936000000001,0.7046976,-0.3834384,0.0,0.0,0.0,0.0
14.38,822.3866712000001,-0.650748,0.650748,-0.30662880000000003,0.0,0.0,0.0,0.0
14.4,822.8426520000002,-0.5964936000000001,0.5964936000000001,-0.30662880000000003,0.0,0.0,0.0,0.0
14.42,823.2382824,-0.650748,0.650748,-0.23012400000000002,0.0,0.0,0.0,0.0
14.44,823.8768384000001,-0.5964936000000001,0.5964936000000001,-0.30662880000000003,0.0,0.0,0.0,0.0
14.46,824.3733576000001,-0.5964936000000001,0.7046976,-0.30662880000000003,0.0,0.0,0.0,0.0
14.48,824.8994424,-0.4879848,0.5964936000000001,-0.23012400000000002,0.0,0.0,0.0,0.0
14.5,825.4133352,-0.5422392,0.650748,-0.3834384,0.0,0.0,0.0,0.0
14.52,825.8315208,-0.5964936000000001,0.7046976,-0.15331440000000002,0.0,0.0,0.0,0.0
14.540000000000001,826.4133840000001,-0.5964936000000001,0.7046976,-0.30662880000000003,0.0,0.0,0.0,0.0
14.56,826.9400784000001,-0.5964936000000001,0.7046976,-0.3834384,0.0,0.0,0.0,0.0
14.58,827.3512536000001,-0.5422392,0.650748,-0.15331440000000002,0.0,0.0,0.0,0.0
14.6,827.7941280000001,-0.5964936000000001,0.5964936000000001,-0.23012400000000002,0.0,0.0,0.0,0.0
14.620000000000001,828.2903424,-0.5964936000000001,0.7046976,-0.15331440000000002,0.0,0.0,0.0,0.0
14.64,828.7161480000001,-0.650748,0.650748,-0.23012400000000002,0.0,0.0,0.0,0.0
14.66,829.1578032,-0.650748,0.650748,-0.15331440000000002,0.0,0.0,0.0,0.0
14.68,829.5183816,-0.650748,0.650748,-0.23012400000000002,0.0,0.0,0.0,0.0
14.700000000000001,830.0088048000001,-0.5422392,0.5422392,-0.0768096,0.0,0.0,0.0,0.0
14.72,830.5745136,-0.5964936000000001,0.5964936000000001,-0.15331440000000002,0.0,0.0,0.0,0.0
