time,baro_altitude,accl_x,accl_y,accl_z,gps_altitude,gyro_roll,gyro_pitch,gyro_yaw
0.0,0.0,10.355580000000002,-0.37947600000000004,0.0,0.0,0.0,0.0,0.0
0.020000000000000462,-0.04206240000000004,10.247376,-1.030224,-0.15331440000000002,0.0,0.0,0.0,0.0
0.040000000000000036,-0.08199120000000004,10.3013256,-0.650748,-0.4599432,0.0,0.0,0.0,0.0
0.0600000000000005,-0.201168,10.3013256,0.0,0.0,0.0,0.0,0.0,0.0
0.08000000000000007,-0.12435840000000002,10.3013256,-0.650748,-0.3834384,0.0,0.0,0.0,0.0
0.10000000000000053,-0.056997600000000016,10.247376,-0.5964936000000001,-0.15331440000000002,0.0,0.0,0.0,0.0
0.1200000000000001,-0.13624560000000002,10.4640888,0.16276320000000002,0.0768096,0.0,0.0,0.0,0.0
0.14000000000000057,-0.3547872000000001,10.193121600000001,-0.1085088,-0.23012400000000002,0.0,0.0,0.0,0.0
0.16000000000000014,-0.371856,10.247376,-0.2709672,-0.4599432,0.0,0.0,0.0,0.0
0.1800000000000006,-0.45140880000000005,10.3013256,-0.1085088,-0.0768096,0.0,0.0,0.0,0.0
0.20000000000000018,-0.45537120000000003,10.3013256,0.0,-0.30662880000000003,0.0,0.0,0.0,0.0
0.22000000000000064,-0.5224272,10.3013256,-0.5422392,-0.3834384,0.0,0.0,0.0,0.0
0.2400000000000002,-0.6848856,10.247376,-0.4879848,-0.15331440000000002,0.0,0.0,0.0,0.0
0.2600000000000007,-0.6510528000000001,10.247376,-0.2709672,0.15331440000000002,0.0,0.0,0.0,0.0
0.28000000000000025,-0.5675376000000001,10.247376,-0.7046976,-0.30662880000000003,0.0,0.0,0.0,0.0
0.3000000000000007,-0.5961888,10.247376,-0.37947600000000004,-0.0768096,0.0,0.0,0.0,0.0
0.3200000000000003,-0.6312408,10.3013256,-0.2170176,-0.30662880000000003,0.0,0.0,0.0,0.0
0.34000000000000075,-0.6519672000000001,10.193121600000001,-0.5422392,-0.4599432,0.0,0.0,0.0,0.0
0.3600000000000003,-0.56388,10.3013256,-0.4337304,-0.5367528,0.0,0.0,0.0,0.0
0.3800000000000008,-0.45476160000000004,10.3013256,0.0,-0.3834384,0.0,0.0,0.0,0.0
0.40000000000000036,-0.4389120000000001,10.247376,-0.4879848,-0.3834384,0.0,0.0,0.0,0.0
0.4200000000000004,-0.4093464,10.355580000000002,-0.2709672,-0.15331440000000002,0.0,0.0,0.0,0.0
0.4400000000000004,-0.4194048000000001,10.3013256,0.0,-0.0768096,0.0,0.0,0.0,0.0
0.4600000000000004,-0.48219360000000006,10.355580000000002,-0.37947600000000004,0.0768096,0.0,0.0,0.0,0.0
0.4800000000000004,-0.4474464,10.3013256,-0.5422392,-0.23012400000000002,0.0,0.0,0.0,0.0
0.5000000000000004,-0.5227320000000001,10.4098344,-0.2170176,0.0,0.0,0.0,0.0,0.0
0.5200000000000005,-0.4809744,10.355580000000002,-0.16276320000000002,-0.0768096,0.0,0.0,0.0,0.0
0.5400000000000005,-0.48158400000000007,10.247376,-0.8132064000000001,-0.30662880000000003,0.0,0.0,0.0,0.0
0.5600000000000005,-0.4468368000000001,10.193121600000001,-0.1085088,-0.5367528,0.0,0.0,0.0,0.0
0.5800000000000005,-0.33467040000000003,10.3013256,-0.4337304,-0.30662880000000003,0.0,0.0,0.0,0.0
0.6000000000000005,-0.24780240000000003,10.3013256,-0.5422392,-0.6135624,0.0,0.0,0.0,0.0
0.6200000000000006,-0.21427440000000003,10.4098344,-0.4337304,-0.3834384,0.0,0.0,0.0,0.0
0.6400000000000006,-0.2883408,10.138867200000002,-0.0542544,0.0,0.0,0.0,0.0,0.0
0.6600000000000001,-0.28102560000000004,10.193121600000001,-0.4337304,-0.23012400000000002,0.0,0.0,0.0,0.0
0.6800000000000002,-0.3627120000000001,10.247376,-0.37947600000000004,-0.15331440000000002,0.0,0.0,0.0,0.0
0.7000000000000002,-0.34899600000000003,10.355580000000002,0.16276320000000002,0.15331440000000002,0.0,0.0,0.0,0.0
0.7200000000000002,-0.3185160000000001,10.355580000000002,-0.37947600000000004,-0.30662880000000003,0.0,0.0,0.0,0.0
0.7400000000000002,-0.3989832000000001,10.3013256,-0.5422392,-0.15331440000000002,0.0,0.0,0.0,0.0
0.7600000000000002,-0.3773424,10.3013256,-0.2170176,0.0,0.0,0.0,0.0,0.0
0.7800000000000002,-0.565404,10.355580000000002,-0.37947600000000004,-0.30662880000000003,0.0,0.0,0.0,0.0
0.8000000000000003,-0.4194048000000001,10.193121600000001,-0.650748,-0.30662880000000003,0.0,0.0,0.0,0.0
0.8200000000000003,-0.39014400000000005,10.3013256,-0.5422392,-0.30662880000000003,0.0,0.0,0.0,0.0
0.8400000000000003,-0.38252400000000003,10.247376,-0.0542544,-0.3834384,0.0,0.0,0.0,0.0
0.8600000000000003,-0.30906720000000004,10.3013256,-0.4337304,-0.3834384,0.0,0.0,0.0,0.0
0.8800000000000003,-0.489204,10.3013256,-0.5422392,-0.30662880000000003,0.0,0.0,0.0,0.0
0.9000000000000004,-0.37216080000000007,10.247376,-0.0542544,-0.30662880000000003,0.0,0.0,0.0,0.0
0.9200000000000004,-0.33162240000000004,10.3013256,-0.2170176,-0.30662880000000003,0.0,0.0,0.0,0.0
0.9400000000000004,-0.09540240000000005,10.247376,-0.4879848,-0.23012400000000002,0.0,0.0,0.0,0.0
0.9600000000000004,-0.15331440000000005,10.4098344,0.0,-0.23012400000000002,0.0,0.0,0.0,0.0
0.9800000000000004,-0.18653760000000005,10.355580000000002,-0.16276320000000002,0.0,0.0,0.0,0.0,0.0
1.0000000000000004,0.004876800000000005,10.4098344,-0.650748,0.0,0.0,0.0,0.0,0.0
1.0200000000000005,-0.0344424,10.247376,-0.16276320000000002,-0.23012400000000002,0.0,0.0,0.0,0.0
1.0400000000000005,-0.29687520000000006,10.193121600000001,-0.2170176,0.0768096,0.0,0.0,0.0,0.0
1.0600000000000005,-0.24597360000000001,10.247376,-0.5964936000000001,-0.15331440000000002,0.0,0.0,0.0,0.0
1.0800000000000005,-0.20634960000000002,10.3013256,-0.4337304,-0.5367528,0.0,0.0,0.0,0.0
1.1000000000000005,-0.24780240000000003,10.355580000000002,-0.0542544,-0.30662880000000003,0.0,0.0,0.0,0.0
1.1200000000000006,-0.26182320000000003,10.355580000000002,-0.37947600000000004,-0.3834384,0.0,0.0,0.0,0.0
1.1400000000000006,-0.15209520000000004,10.247376,-0.5964936000000001,-0.4599432,0.0,0.0,0.0,0.0
1.1600000000000001,-0.23561040000000003,10.4098344,0.0,0.0,0.0,0.0,0.0,0.0
1.1800000000000002,-0.25633680000000003,10.247376,-0.37947600000000004,0.0,0.0,0.0,0.0,0.0
1.2000000000000002,-0.11521440000000004,10.3013256,-0.3252216,-0.3834384,0.0,0.0,0.0,0.0
1.2200000000000002,-0.26121360000000005,10.355580000000002,-0.2709672,0.0768096,0.0,0.0,0.0,0.0
1.2400000000000002,-0.44653200000000004,10.3013256,-0.2170176,0.0,0.0,0.0,0.0,0.0
1.2600000000000002,-0.4864608,10.355580000000002,-0.37947600000000004,-0.30662880000000003,0.0,0.0,0.0,0.0
1.2800000000000002,-0.35692080000000004,10.3013256,-0.2170176,-0.4599432,0.0,0.0,0.0,0.0
1.3000000000000003,-0.21915120000000005,10.247376,-0.4879848,0.0768096,0.0,0.0,0.0,0.0
1.3200000000000003,-0.17739360000000004,10.247376,-0.2709672,-0.5367528,0.0,0.0,0.0,0.0
1.3400000000000003,-0.1591056,10.355580000000002,-0.7046976,-0.4599432,0.0,0.0,0.0,0.0
1.3600000000000003,-0.07467600000000003,10.3013256,-0.4337304,-0.3834384,0.0,0.0,0.0,0.0
1.3800000000000003,0.0356616,10.355580000000002,-0.7046976,-0.3834384,0.0,0.0,0.0,0.0
1.4000000000000004,-0.10576560000000003,10.3013256,-0.3252216,-0.3834384,0.0,0.0,0.0,0.0
1.4200000000000004,-0.10180320000000002,10.4098344,-0.3252216,-0.15331440000000002,0.0,0.0,0.0,0.0
1.4400000000000004,-0.08351520000000001,10.4098344,-0.5422392,-0.30662880000000003,0.0,0.0,0.0,0.0
1.4600000000000004,-0.19263360000000004,10.4098344,-0.2170176,-0.23012400000000002,0.0,0.0,0.0,0.0
1.4800000000000004,-0.26395680000000005,10.355580000000002,-0.16276320000000002,0.0768096,0.0,0.0,0.0,0.0
1.5000000000000004,-0.04297680000000001,10.247376,-0.16276320000000002,-0.30662880000000003,0.0,0.0,0.0,0.0
1.5200000000000005,-0.16245840000000003,10.3013256,-0.1085088,-0.30662880000000003,0.0,0.0,0.0,0.0
1.5400000000000005,-0.11765280000000004,10.247376,-0.16276320000000002,0.23012400000000002,0.0,0.0,0.0,0.0
1.5600000000000005,-0.11795760000000004,10.247376,-0.2709672,-0.4599432,0.0,0.0,0.0,0.0
1.5800000000000005,-0.20695920000000004,10.3013256,-0.650748,-0.23012400000000002,0.0,0.0,0.0,0.0
1.6000000000000005,0.1511808,10.3013256,-0.3252216,-0.15331440000000002,0.0,0.0,0.0,0.0
1.6200000000000006,0.2276856,10.3013256,-0.650748,-0.6135624,0.0,0.0,0.0,0.0
1.6400000000000006,0.1267968,10.193121600000001,-0.4337304,-0.15331440000000002,0.0,0.0,0.0,0.0
1.6600000000000001,0.300228,10.193121600000001,-0.5422392,-0.0768096,0.0,0.0,0.0,0.0
1.6800000000000002,0.3243072,10.193121600000001,-0.2170176,-0.3834384,0.0,0.0,0.0,0.0
1.7000000000000002,0.19781520000000002,10.4640888,-0.4879848,-0.23012400000000002,0.0,0.0,0.0,0.0
1.7200000000000002,0.041757600000000006,10.3013256,-0.3252216,0.0,0.0,0.0,0.0,0.0
1.7400000000000002,-0.052120800000000016,10.4640888,-0.0542544,-0.15331440000000002,0.0,0.0,0.0,0.0
1.7600000000000002,-0.19537680000000004,10.193121600000001,-0.5422392,-0.0768096,0.0,0.0,0.0,0.0
1.7800000000000002,-0.26700480000000004,10.4098344,-0.1085088,-0.15331440000000002,0.0,0.0,0.0,0.0
1.8000000000000003,-0.2667,10.3013256,-0.1085088,-0.30662880000000003,0.0,0.0,0.0,0.0
1.8200000000000003,-0.26121360000000005,10.4640888,-0.2709672,-0.30662880000000003,0.0,0.0,0.0,0.0
1.8400000000000003,-0.40416480000000005,10.3013256,-0.4337304,-0.30662880000000003,0.0,0.0,0.0,0.0
1.8600000000000003,-0.6138672000000001,10.3013256,-0.5422392,-0.30662880000000003,0.0,0.0,0.0,0.0
1.8800000000000003,-0.5946648000000001,10.3013256,-0.2170176,-0.30662880000000003,0.0,0.0,0.0,0.0
1.9000000000000004,-0.4690872000000001,10.355580000000002,-0.7046976,-0.3834384,0.0,0.0,0.0,0.0
1.9200000000000004,-0.39044880000000004,10.247376,-0.7046976,-0.23012400000000002,0.0,0.0,0.0,0.0
1.9400000000000004,-0.38922960000000006,10.193121600000001,-0.2170176,-0.23012400000000002,0.0,0.0,0.0,0.0
1.9600000000000004,-0.4556760000000001,10.3013256,-0.650748,-0.23012400000000002,0.0,0.0,0.0,0.0
1.9800000000000004,-0.4492752000000001,10.0846128,-0.2170176,-0.0768096,0.0,0.0,0.0,0.0
2.0000000000000004,-0.507492,10.4098344,-0.4337304,-0.4599432,0.0,0.0,0.0,0.0
2.0200000000000005,-0.569976,10.138867200000002,0.0542544,-0.0768096,0.0,0.0,0.0,0.0
2.0400000000000005,-0.4087368,10.3013256,-0.1085088,-0.3834384,0.0,0.0,0.0,0.0
2.0600000000000005,-0.20574000000000003,10.3013256,-0.3252216,0.0,0.0,0.0,0.0,0.0
2.0800000000000005,-0.08199120000000004,10.3013256,-0.1085088,-0.0768096,0.0,0.0,0.0,0.0
2.1000000000000005,0.19903440000000003,10.355580000000002,-0.4879848,-0.30662880000000003,0.0,0.0,0.0,0.0
2.1200000000000006,0.23957280000000003,10.247376,-0.2709672,0.0,0.0,0.0,0.0,0.0
2.1400000000000006,0.39532559999999994,10.247376,-0.7046976,-0.23012400000000002,0.0,0.0,0.0,0.0
2.16,0.5001768,10.247376,-0.5964936000000001,-0.3834384,0.0,0.0,0.0,0.0
2.18,0.534924,10.3013256,-0.3252216,-0.15331440000000002,0.0,0.0,0.0,0.0
2.2,0.5452872000000001,10.193121600000001,-0.7589520000000001,-0.23012400000000002,0.0,0.0,0.0,0.0
2.22,0.21092159999999993,10.3013256,-0.3252216,-0.3834384,0.0,0.0,0.0,0.0
2.24,-0.013106400000000046,10.3013256,-0.3252216,-0.15331440000000002,0.0,0.0,0.0,0.0
2.2600000000000002,-0.19019520000000004,10.355580000000002,0.0542544,-0.3834384,0.0,0.0,0.0,0.0
2.2800000000000002,-0.15819120000000006,10.3013256,-0.1085088,-0.4599432,0.0,0.0,0.0,0.0
2.3000000000000003,-0.062484000000000026,10.193121600000001,-0.1085088,0.15331440000000002,0.0,0.0,0.0,0.0
2.3200000000000003,0.04937759999999998,10.193121600000001,-0.2170176,-0.0768096,0.0,0.0,0.0,0.0
2.3400000000000003,0.04450079999999997,10.3013256,-0.4337304,-0.30662880000000003,0.0,0.0,0.0,0.0
2.3600000000000003,0.13807439999999996,10.3013256,-0.650748,0.15331440000000002,0.0,0.0,0.0,0.0
2.3800000000000003,0.1947672,10.0846128,-0.2170176,-0.30662880000000003,0.0,0.0,0.0,0.0
2.4000000000000004,0.35844479999999995,10.4640888,-0.8132064000000001,-0.15331440000000002,0.0,0.0,0.0,0.0
2.4200000000000004,0.33406080000000005,10.355580000000002,-0.2709672,-0.15331440000000002,0.0,0.0,0.0,0.0
2.4400000000000004,0.3934968,10.193121600000001,-0.7589520000000001,-0.30662880000000003,0.0,0.0,0.0,0.0
2.4600000000000004,0.2633472,10.355580000000002,-0.2709672,-0.23012400000000002,0.0,0.0,0.0,0.0
2.4800000000000004,0.2776728,10.247376,-0.4879848,-0.0768096,0.0,0.0,0.0,0.0
2.5000000000000004,0.1807464,10.3013256,-0.2170176,-0.3834384,0.0,0.0,0.0,0.0
2.5200000000000005,0.17038319999999998,10.3013256,0.1085088,-0.30662880000000003,0.0,0.0,0.0,0.0
2.54,0.16367759999999998,10.3013256,-0.5422392,0.0768096,0.0,0.0,0.0,0.0
2.5600000000000005,0.21427439999999998,10.247376,0.37947600000000004,-0.23012400000000002,0.0,0.0,0.0,0.0
2.58,0.13014959999999995,10.193121600000001,-0.3252216,-0.0768096,0.0,0.0,0.0,0.0
2.6000000000000005,0.050596799999999977,10.3013256,-0.4337304,-0.0768096,0.0,0.0,0.0,0.0
2.62,-0.12954000000000002,10.247376,-0.37947600000000004,-0.3834384,0.0,0.0,0.0,0.0
2.6400000000000006,-0.008839200000000042,10.193121600000001,-0.650748,0.0768096,0.0,0.0,0.0,0.0
2.66,0.007010399999999973,10.4098344,-0.5422392,-0.30662880000000003,0.0,0.0,0.0,0.0
2.6800000000000006,-0.05821680000000002,10.3013256,-0.7589520000000001,-0.3834384,0.0,0.0,0.0,0.0
2.7,0.04937759999999998,10.247376,-0.2709672,-0.23012400000000002,0.0,0.0,0.0,0.0
2.7200000000000006,0.0658368,10.247376,-0.5964936000000001,-0.15331440000000002,0.0,0.0,0.0,0.0
2.74,-0.024993600000000022,10.193121600000001,-0.3252216,-0.5367528,0.0,0.0,0.0,0.0
2.7600000000000007,0.061874399999999954,10.355580000000002,0.2709672,0.0,0.0,0.0,0.0,0.0
2.7800000000000002,0.11247120000000001,10.355580000000002,-0.5964936000000001,-0.15331440000000002,0.0,0.0,0.0,0.0
2.8000000000000003,0.2212848,10.3013256,0.1085088,-0.6900672,0.0,0.0,0.0,0.0
2.8200000000000003,0.4428744,10.3013256,-0.2170176,0.23012400000000002,0.0,0.0,0.0,0.0
2.8400000000000003,0.370332,10.355580000000002,-0.16276320000000002,-0.23012400000000002,0.0,0.0,0.0,0.0
2.8600000000000003,0.24201120000000004,10.355580000000002,-0.5964936000000001,-0.6135624,0.0,0.0,0.0,0.0
2.8800000000000003,-0.004572000000000038,10.355580000000002,-0.16276320000000002,0.3834384,0.0,0.0,0.0,0.0
2.9000000000000004,0.024383999999999954,10.193121600000001,-0.5422392,-0.4599432,0.0,0.0,0.0,0.0
2.9200000000000004,-0.018288000000000016,10.247376,-0.5964936000000001,-0.7668768,0.0,0.0,0.0,0.0
2.9400000000000004,-0.08321040000000005,10.3013256,-0.3252216,0.15331440000000002,0.0,0.0,0.0,0.0
2.9600000000000004,0.027736799999999992,10.5183432,-0.5422392,-0.5367528,0.0,0.0,0.0,0.0
2.9800000000000004,-0.04297680000000001,10.4640888,0.16276320000000002,-0.3834384,0.0,0.0,0.0,0.0
3.0000000000000004,0.06035039999999999,10.3013256,-0.8674608,0.23012400000000002,0.0,0.0,0.0,0.0
3.0200000000000005,0.2645664,10.193121600000001,-0.1085088,-0.4599432,0.0,0.0,0.0,0.0
3.04,0.14660879999999996,10.355580000000002,-0.2709672,-0.3834384,0.0,0.0,0.0,0.0
3.0600000000000005,-0.01798320000000005,10.193121600000001,-0.1085088,0.3834384,0.0,0.0,0.0,0.0
3.08,-0.027736799999999992,10.3013256,-0.4337304,-0.3834384,0.0,0.0,0.0,0.0
3.1000000000000005,-0.06858000000000003,10.3013256,-0.2170176,-0.30662880000000003,0.0,0.0,0.0,0.0
3.12,-0.19812000000000002,10.355580000000002,-0.16276320000000002,-0.30662880000000003,0.0,0.0,0.0,0.0
3.1400000000000006,-0.17891760000000004,10.193121600000001,-0.7589520000000001,-0.5367528,0.0,0.0,0.0,0.0
3.16,-0.27310080000000003,10.4098344,-0.2170176,-0.15331440000000002,0.0,0.0,0.0,0.0
3.1800000000000006,-0.05303520000000005,10.355580000000002,-0.7046976,-0.0768096,0.0,0.0,0.0,0.0
3.2,0.0755904,10.193121600000001,-0.1085088,-0.5367528,0.0,0.0,0.0,0.0
3.2200000000000006,0.07589519999999997,10.193121600000001,-0.7589520000000001,-0.0768096,0.0,0.0,0.0,0.0
3.24,0.08930639999999998,10.3013256,0.0,0.15331440000000002,0.0,0.0,0.0,0.0
3.2600000000000007,-0.11125200000000003,10.4098344,0.0,-0.6135624,0.0,0.0,0.0,0.0
3.2800000000000002,-0.13075920000000002,10.193121600000001,-0.3252216,0.4599432,0.0,0.0,0.0,0.0
3.3000000000000003,-0.26182320000000003,10.3013256,0.0,0.0,0.0,0.0,0.0,0.0
3.3200000000000003,-0.19324320000000006,10.247376,0.0542544,-0.5367528,0.0,0.0,0.0,0.0
3.3400000000000003,-0.21793200000000004,10.247376,-0.0542544,-0.0768096,0.0,0.0,0.0,0.0
3.3600000000000003,-0.21915120000000005,10.193121600000001,-0.650748,-0.23012400000000002,0.0,0.0,0.0,0.0
3.3800000000000003,-0.09692640000000002,10.247376,-0.37947600000000004,-0.7668768,0.0,0.0,0.0,0.0
3.4000000000000004,-0.15300960000000005,10.355580000000002,-0.5964936000000001,-0.15331440000000002,0.0,0.0,0.0,0.0
3.4200000000000004,-0.14660880000000004,10.355580000000002,-0.4879848,-0.4599432,0.0,0.0,0.0,0.0
3.4400000000000004,-0.14081760000000004,10.3013256,-0.3252216,-0.4599432,0.0,0.0,0.0,0.0
3.4600000000000004,-0.053949600000000014,10.355580000000002,-0.5964936000000001,-0.15331440000000002,0.0,0.0,0.0,0.0
3.4800000000000004,0.017983199999999984,10.193121600000001,0.0,0.0768096,0.0,0.0,0.0,0.0
3.5000000000000004,-0.030480000000000028,10.247376,-0.37947600000000004,-0.30662880000000003,0.0,0.0,0.0,0.0
3.5200000000000005,-0.13868400000000003,10.4640888,-0.16276320000000002,0.30662880000000003,0.0,0.0,0.0,0.0
3.5400000000000005,-0.21092160000000004,10.355580000000002,0.16276320000000002,-0.3834384,0.0,0.0,0.0,0.0
3.5600000000000005,-0.14295120000000003,10.4098344,0.0,-0.30662880000000003,0.0,0.0,0.0,0.0
3.5800000000000005,-0.20695920000000004,10.5183432,0.0,0.0,0.0,0.0,0.0,0.0
3.6000000000000005,-0.2962656,10.247376,-0.16276320000000002,-0.4599432,0.0,0.0,0.0,0.0
3.62,-0.29443680000000005,10.247376,-0.16276320000000002,-0.3834384,0.0,0.0,0.0,0.0
3.6400000000000006,-0.11460480000000003,10.193121600000001,-0.4337304,-0.30662880000000003,0.0,0.0,0.0,0.0
3.66,-0.284988,10.3013256,-0.650748,-0.30662880000000003,0.0,0.0,0.0,0.0
3.6800000000000006,-0.41696640000000007,10.247376,-0.4879848,-0.0768096,0.0,0.0,0.0,0.0
3.7,-0.5672328000000001,10.3013256,-0.5422392,-0.4599432,0.0,0.0,0.0,0.0
3.72,-0.6245352,10.3013256,-0.5422392,-0.30662880000000003,0.0,0.0,0.0,0.0
3.74,-0.3724656,10.193121600000001,-0.5422392,0.0,0.0,0.0,0.0,0.0
3.7600000000000002,-0.4590288,10.355580000000002,-0.4879848,-0.4599432,0.0,0.0,0.0,0.0
3.7800000000000002,-0.4928616,10.247376,-0.16276320000000002,-0.4599432,0.0,0.0,0.0,0.0
3.8000000000000003,-0.547116,10.193121600000001,-0.1085088,-0.0768096,0.0,0.0,0.0,0.0
3.8200000000000003,-0.5501640000000001,10.355580000000002,0.16276320000000002,-0.3834384,0.0,0.0,0.0,0.0
3.8400000000000003,-0.5346192000000001,10.3013256,0.0,0.0,0.0,0.0,0.0,0.0
3.8600000000000003,-0.49956720000000004,10.4098344,-0.1085088,0.0768096,0.0,0.0,0.0,0.0
3.8800000000000003,-0.5507736,10.355580000000002,0.0542544,-0.4599432,0.0,0.0,0.0,0.0
3.9000000000000004,-0.5684520000000001,10.3013256,-0.4337304,-0.0768096,0.0,0.0,0.0,0.0
3.9200000000000004,-0.5169408000000001,10.5183432,-0.3252216,-0.3834384,0.0,0.0,0.0,0.0
3.9400000000000004,-0.42123360000000004,10.3013256,-0.2170176,-0.4599432,0.0,0.0,0.0,0.0
3.9600000000000004,-0.34991040000000007,10.3013256,-0.5422392,0.0768096,0.0,0.0,0.0,0.0
3.9800000000000004,-0.5870448,10.138867200000002,-0.8132064000000001,-0.3834384,0.0,0.0,0.0,0.0
4.0,-0.5800344000000001,10.3013256,-0.7589520000000001,-0.4599432,0.0,0.0,0.0,0.0
4.0200000000000005,-0.6236208000000001,10.3013256,-0.1085088,-0.0768096,0.0,0.0,0.0,0.0
4.04,-0.5227320000000001,10.193121600000001,-0.7589520000000001,-0.4599432,0.0,0.0,0.0,0.0
4.0600000000000005,-0.28346400000000005,10.4640888,-0.0542544,-0.4599432,0.0,0.0,0.0,0.0
4.08,-0.132588,10.4640888,-0.0542544,-0.0768096,0.0,0.0,0.0,0.0
4.1000000000000005,-0.073152,10.3013256,-0.7589520000000001,-0.15331440000000002,0.0,0.0,0.0,0.0
4.12,-0.20299680000000003,10.3013256,0.0,-0.3834384,0.0,0.0,0.0,0.0
4.140000000000001,-0.1594104,10.5183432,-0.3252216,0.0768096,0.0,0.0,0.0,0.0
4.16,-0.13655040000000002,10.4640888,-0.16276320000000002,-0.23012400000000002,0.0,0.0,0.0,0.0
4.180000000000001,-0.15575280000000005,10.3013256,-0.3252216,-0.4599432,0.0,0.0,0.0,0.0
4.2,-0.073152,10.5183432,-0.4337304,0.0768096,0.0,0.0,0.0,0.0
4.220000000000001,-0.10241280000000003,10.3013256,-0.650748,-0.4599432,0.0,0.0,0.0,0.0
4.24,-0.18318480000000004,10.3013256,-0.3252216,-0.3834384,0.0,0.0,0.0,0.0
4.260000000000001,-0.05638800000000002,10.4640888,-0.16276320000000002,-0.23012400000000002,0.0,0.0,0.0,0.0
4.28,-0.18318480000000004,10.193121600000001,-0.5422392,-0.15331440000000002,0.0,0.0,0.0,0.0
4.300000000000001,-0.23865840000000002,10.3013256,-0.3252216,-0.4599432,0.0,0.0,0.0,0.0
4.32,-0.21305520000000003,10.355580000000002,-0.16276320000000002,-0.0768096,0.0,0.0,0.0,0.0
4.340000000000001,-0.08991600000000005,10.355580000000002,-0.16276320000000002,-0.5367528,0.0,0.0,0.0,0.0
4.36,-0.16855440000000002,10.3013256,-0.5422392,-0.3834384,0.0,0.0,0.0,0.0
4.380000000000001,-0.09204960000000002,10.355580000000002,-0.37947600000000004,0.0,0.0,0.0,0.0,0.0
4.4,-0.239268,10.3013256,-0.2170176,-0.30662880000000003,0.0,0.0,0.0,0.0
4.42,-0.36941760000000007,10.3013256,-0.2170176,-0.15331440000000002,0.0,0.0,0.0,0.0
4.44,-0.43464480000000005,10.355580000000002,-0.9217152000000001,0.0,0.0,0.0,0.0,0.0
4.46,-0.3761232,10.138867200000002,0.16276320000000002,-0.30662880000000003,0.0,0.0,0.0,0.0
4.48,-0.48219360000000006,10.8978192,0.0542544,-0.0768096,0.0,0.0,0.0,0.0
4.5,-0.5251704,98.1352368,16.373856,-19.859244,0.0,0.0,0.0,0.0
4.5200000000000005,-1.0213848,157.2871632,17.1870624,-0.6900672,0.0,0.0,0.0,0.0
4.54,-1.2149328000000001,128.17205760000002,0.2170176,5.9807856,0.0,0.0,0.0,0.0
4.5600000000000005,-1.3115544000000001,140.91330720000002,-2.8736544000000004,-16.4086032,0.0,0.0,0.0,0.0
4.58,-1.2438888,151.2149376,13.608710400000001,1.0735056,0.0,0.0,0.0,0.0
4.6000000000000005,-0.8775192,148.50404640000002,13.7172192,-12.038076,0.0,0.0,0.0,0.0
4.62,-0.6562344,144.60016800000002,5.9097672,26.223163200000002,0.0,0.0,0.0,0.0
4.640000000000001,-0.3410712,105.77992560000001,10.681106400000001,17.405604,0.0,0.0,0.0,0.0
4.66,0.39319200000000004,149.0459808,16.753332,-14.2618968,0.0,0.0,0.0,0.0
4.680000000000001,1.2478512,150.7812072,10.247376,-2.9135831999999997,0.0,0.0,0.0,0.0
4.7,1.7407128000000003,154.196796,9.108643200000001,-4.7539656,0.0,0.0,0.0,0.0
4.720000000000001,2.4124920000000003,153.4920984,8.186928,-5.5205376,0.0,0.0,0.0,0.0
4.74,3.1598616000000006,153.0041136,9.7593912,-2.1470112,0.0,0.0,0.0,0.0
4.760000000000001,4.082491200000001,152.787096,10.952073600000002,-3.6036504000000003,0.0,0.0,0.0,0.0
4.78,4.712208,153.9258288,10.247376,-4.2172128,0.0,0.0,0.0,0.0
4.800000000000001,5.2681632,152.2448568,9.4338648,-2.4536400000000005,0.0,0.0,0.0,0.0
4.82,5.751576000000001,150.8894112,10.138867200000002,-3.450336,0.0,0.0,0.0,0.0
4.840000000000001,6.254800800000001,149.7509832,10.5183432,-3.1437072,0.0,0.0,0.0,0.0
4.86,6.3977520000000005,150.5641896,9.1628976,-4.0638984,0.0,0.0,0.0,0.0
4.880000000000001,6.755587200000001,149.6424744,10.4098344,-3.910584,0.0,0.0,0.0,0.0
4.9,6.998208000000001,146.55210720000002,11.2230408,-6.2874144,0.0,0.0,0.0,0.0
4.92,7.416393600000001,147.6362808,10.0303584,-8.2043016,0.0,0.0,0.0,0.0
4.94,7.855000800000001,145.4133744,9.6508824,-9.2013024,0.0,0.0,0.0,0.0
4.960000000000001,8.4313776,142.5400248,12.6327408,-9.3546168,0.0,0.0,0.0,0.0
4.98,9.339072,141.34703760000002,12.6327408,-9.047683200000002,0.0,0.0,0.0,0.0
5.0,10.2970584,140.371068,11.006328,-10.888065600000001,0.0,0.0,0.0,0.0
5.0200000000000005,11.175187199999998,141.07607040000002,12.036552,-10.121188800000002,0.0,0.0,0.0,0.0
5.04,12.4123704,138.9074184,12.2532648,-7.130796,0.0,0.0,0.0,0.0
5.0600000000000005,13.6705848,133.973316,13.7172192,-8.741054400000001,0.0,0.0,0.0,0.0
5.08,14.732203199999999,134.5698096,11.6028216,-5.5205376,0.0,0.0,0.0,0.0
5.1000000000000005,15.9800544,131.3709336,15.343632000000001,-4.677156,0.0,0.0,0.0,0.0
5.12,17.3486064,130.3407096,9.7593912,-6.1341,0.0,0.0,0.0,0.0
5.140000000000001,18.7357512,130.23220080000002,7.5904344,-3.0672024,0.0,0.0,0.0,0.0
5.16,20.124419999999997,128.2805664,7.2652128,-3.5271456,0.0,0.0,0.0,0.0
5.180000000000001,21.3795864,127.3588512,6.343497600000001,-1.1500104,0.0,0.0,0.0,0.0
5.2,22.8154992,119.4971448,11.6028216,-2.0702016,0.0,0.0,0.0,0.0
5.220000000000001,24.2474496,117.87042720000001,13.1207256,-2.7602688,0.0,0.0,0.0,0.0
5.24,25.670256000000002,114.5633472,14.0424408,-8.050987200000002,0.0,0.0,0.0,0.0
5.260000000000001,27.0610584,115.5932664,15.181173600000001,-6.594043200000001,0.0,0.0,0.0,0.0
5.28,28.501848,111.96066,10.8978192,-5.2907184,0.0,0.0,0.0,0.0
5.300000000000001,29.8972224,109.03305600000002,11.982297599999999,-8.2811112,0.0,0.0,0.0,0.0
5.32,31.3727592,106.0508928,11.6028216,-7.8208632,0.0,0.0,0.0,0.0
5.34,32.8062336,104.47873440000001,11.1148368,-2.7602688,0.0,0.0,0.0,0.0
5.36,34.284513600000004,100.954332,6.7229735999999995,-3.910584,0.0,0.0,0.0,0.0
5.380000000000001,35.8554528,98.5689672,7.6989432,-5.827471200000001,0.0,0.0,0.0,0.0
5.4,37.4900952,90.2735304,9.9218496,-5.4440328000000004,0.0,0.0,0.0,0.0
5.42,39.143635200000006,86.85763680000001,4.120591200000001,-2.8370784000000002,0.0,0.0,0.0,0.0
5.44,40.8901392,75.25512,3.1446216000000002,-3.6036504000000003,0.0,0.0,0.0,0.0
5.460000000000001,42.6494448,72.9779592,7.807452,-4.1404032,0.0,0.0,0.0,0.0
5.48,44.640703200000004,56.387085600000006,4.7713392,-2.9903928,0.0,0.0,0.0,0.0
5.5,46.5801456,47.1156792,3.4158936000000004,-1.3801344,0.0,0.0,0.0,0.0
5.5200000000000005,48.4046784,35.3503992,3.3616392,0.0,0.0,0.0,0.0,0.0
5.54,50.37612480000001,24.9405648,2.8194000000000004,-2.3003256,0.0,0.0,0.0,0.0
5.5600000000000005,52.382928,18.000573600000003,1.4097000000000002,-2.5304496,0.0,0.0,0.0,0.0
5.58,54.601567200000005,11.928043200000001,-0.7589520000000001,-2.223516,0.0,0.0,0.0,0.0
5.6000000000000005,56.9817504,8.0784192,-2.548128,-2.0702016,0.0,0.0,0.0,0.0
5.62,59.2701888,3.9035736000000005,-1.8434304000000001,-2.3768304000000002,0.0,0.0,0.0,0.0
5.640000000000001,61.62598800000001,0.5964936000000001,-2.0061936,-1.9168872,0.0,0.0,0.0,0.0
5.66,63.837616800000006,-2.9279088,-0.650748,-1.9168872,0.0,0.0,0.0,0.0
5.680000000000001,66.1912824,-4.933797600000001,0.0542544,-1.3036296,0.0,0.0,0.0,0.0
5.7,68.36633520000001,-7.4822304,-0.1085088,-1.6102584000000002,0.0,0.0,0.0,0.0
5.720000000000001,70.64532480000001,-9.0543888,-0.2709672,-1.3801344,0.0,0.0,0.0,0.0
5.74,72.85512480000001,-10.789310400000002,0.4879848,-1.5334488,0.0,0.0,0.0,0.0
5.760000000000001,75.07894560000001,-12.7412496,-2.0061936,-1.4569440000000002,0.0,0.0,0.0,0.0
5.78,77.3509248,-13.012521600000001,-1.6264128000000002,-0.7668768,0.0,0.0,0.0,0.0
5.800000000000001,79.77682800000001,-13.7172192,-0.16276320000000002,-1.9168872,0.0,0.0,0.0,0.0
5.82,81.924144,-14.421916800000002,-2.0601432,-1.8400776,0.0,0.0,0.0,0.0
5.84,84.1418688,-13.7172192,-2.9818584,-0.8433816000000001,0.0,0.0,0.0,0.0
5.86,86.31661679999999,-12.8497584,-2.9818584,-1.9168872,0.0,0.0,0.0,0.0
5.880000000000001,88.5928632,-13.446252000000001,-1.1926824,-1.0735056,0.0,0.0,0.0,0.0
5.9,90.8038824,-14.421916800000002,-1.4097000000000002,0.23012400000000002,0.0,0.0,0.0,0.0
5.92,92.9176704,-12.795504,-1.4097000000000002,-2.3003256,0.0,0.0,0.0,0.0
5.94,94.9461144,-13.5005064,1.4639544,-3.450336,0.0,0.0,0.0,0.0
5.960000000000001,97.0516728,-14.367967200000002,1.2469368,-2.6069544000000002,0.0,0.0,0.0,0.0
5.98,99.12431280000001,-13.012521600000001,-1.6264128000000002,-1.4569440000000002,0.0,0.0,0.0,0.0
6.0,101.33106480000001,-13.174980000000001,-2.0061936,-0.8433816000000001,0.0,0.0,0.0,0.0
6.0200000000000005,103.459788,-12.958267200000002,-0.16276320000000002,-0.30662880000000003,0.0,0.0,0.0,0.0
6.04,105.5315136,-12.361773600000001,0.7589520000000001,0.15331440000000002,0.0,0.0,0.0,0.0
6.0600000000000005,107.506008,-12.524536800000002,-0.2709672,0.8433816000000001,0.0,0.0,0.0,0.0
6.08,109.5743808,-12.2532648,-0.4337304,-0.15331440000000002,0.0,0.0,0.0,0.0
6.1000000000000005,111.7277928,-11.928043200000001,-0.8674608,-1.7635728,0.0,0.0,0.0,0.0
6.12,113.7141744,-12.6327408,0.9217152000000001,-1.1500104,0.0,0.0,0.0,0.0
6.140000000000001,115.72859760000001,-13.608710400000001,0.2709672,-2.223516,0.0,0.0,0.0,0.0
6.16,117.8637216,-12.144756000000001,0.0,0.4599432,0.0,0.0,0.0,0.0
6.180000000000001,120.00158880000001,-11.8195344,-1.5182088,-1.3036296,0.0,0.0,0.0,0.0
6.2,122.09922240000002,-11.2230408,-3.198876,-0.8433816000000001,0.0,0.0,0.0,0.0
6.220000000000001,124.2111816,-12.5787912,-0.7589520000000001,-1.3036296,0.0,0.0,0.0,0.0
6.24,126.24480720000001,-12.524536800000002,0.5964936000000001,-0.4599432,0.0,0.0,0.0,0.0
6.260000000000001,128.3372592,-10.8978192,0.4879848,-1.7635728,0.0,0.0,0.0,0.0
6.28,130.44678000000002,-10.3013256,-1.0844784,-1.5334488,0.0,0.0,0.0,0.0
6.300000000000001,132.54258480000001,-11.385804,0.4337304,-2.0702016,0.0,0.0,0.0,0.0
6.32,134.61492,-10.355580000000002,0.9217152000000001,-1.8400776,0.0,0.0,0.0,0.0
6.34,136.7594928,-10.4098344,-1.0844784,0.5367528,0.0,0.0,0.0,0.0
6.36,138.7751352,-11.0605824,-1.0844784,-1.3036296,0.0,0.0,0.0,0.0
6.380000000000001,140.8307064,-10.681106400000001,-2.2229064000000003,-1.6102584000000002,0.0,0.0,0.0,0.0
6.4,142.6558488,-10.0303584,2.3314152,1.8400776,0.0,0.0,0.0,0.0
6.42,144.58127040000002,-10.735360799999999,-0.4337304,1.0735056,0.0,0.0,0.0,0.0
6.44,146.5012056,-10.193121600000001,0.5422392,0.23012400000000002,0.0,0.0,0.0,0.0
6.460000000000001,148.4461344,-11.7110256,-0.2170176,3.3738312000000006,0.0,0.0,0.0,0.0
6.48,150.43830720000003,-10.355580000000002,1.3554456000000001,-1.2268200000000002,0.0,0.0,0.0,0.0
6.5,152.26710720000003,-10.626852000000001,0.1085088,-0.4599432,0.0,0.0,0.0,0.0
6.5200000000000005,154.2007584,-10.8978192,0.5964936000000001,-0.4599432,0.0,0.0,0.0,0.0
6.540000000000001,156.08808000000002,-10.626852000000001,-3.3616392,-2.9135831999999997,0.0,0.0,0.0,0.0
6.5600000000000005,157.8336696,-9.7051368,-1.6806672000000002,-0.3834384,0.0,0.0,0.0,0.0
6.58,159.587184,-9.7593912,-1.3011912,0.9201912000000001,0.0,0.0,0.0,0.0
6.6000000000000005,161.46566640000003,-9.6508824,-4.120591200000001,-1.9936968000000002,0.0,0.0,0.0,0.0
6.620000000000001,163.3106208,-9.7051368,0.2709672,2.9903928,0.0,0.0,0.0,0.0
6.640000000000001,165.20556240000002,-10.4640888,0.16276320000000002,-2.6069544000000002,0.0,0.0,0.0,0.0
6.66,167.1075144,-8.94588,0.8132064000000001,-1.7635728,0.0,0.0,0.0,0.0
6.68,168.90095760000003,-9.488119200000002,-0.37947600000000004,-2.3003256,0.0,0.0,0.0,0.0
6.7,170.74164480000002,-9.6508824,-2.6023824,-0.30662880000000003,0.0,0.0,0.0,0.0
6.720000000000001,172.59117120000002,-10.3013256,-0.5422392,-1.0735056,0.0,0.0,0.0,0.0
6.74,174.55896,-9.3256608,-1.5182088,-1.3036296,0.0,0.0,0.0,0.0
6.76,176.34844080000002,-8.4582,-3.3616392,2.223516,0.0,0.0,0.0,0.0
6.78,178.2699,-7.970215200000001,-2.548128,2.0702016,0.0,0.0,0.0,0.0
6.800000000000001,180.04383600000003,-9.3256608,-0.5422392,1.1500104,0.0,0.0,0.0,0.0
6.82,181.72297920000003,-7.970215200000001,-0.8132064000000001,-0.996696,0.0,0.0,0.0,0.0
6.84,183.56000880000005,-9.3256608,-0.3252216,1.5334488,0.0,0.0,0.0,0.0
6.86,185.3339448,-9.5423736,0.3252216,-0.4599432,0.0,0.0,0.0,0.0
6.880000000000001,186.99205680000003,-7.970215200000001,-0.5964936000000001,0.8433816000000001,0.0,0.0,0.0,0.0
6.9,188.7882432,-9.379915200000001,0.37947600000000004,-1.4569440000000002,0.0,0.0,0.0,0.0
6.92,190.5688848,-9.1628976,0.2709672,1.0735056,0.0,0.0,0.0,0.0
6.94,192.22272960000004,-8.4039456,-1.3554456000000001,-2.3003256,0.0,0.0,0.0,0.0
6.960000000000001,193.96953840000003,-9.7593912,0.3252216,-2.4536400000000005,0.0,0.0,0.0,0.0
6.98,195.71025120000002,-8.6206584,0.5964936000000001,-0.8433816000000001,0.0,0.0,0.0,0.0
7.0,197.5567296,-8.5121496,-0.4879848,-2.8370784000000002,0.0,0.0,0.0,0.0
7.0200000000000005,199.26269520000002,-9.1628976,-0.9217152000000001,-1.2268200000000002,0.0,0.0,0.0,0.0
7.040000000000001,200.94549600000005,-7.2652128,-2.1686520000000002,-1.4569440000000002,0.0,0.0,0.0,0.0
7.0600000000000005,202.59537840000004,-7.5904344,-0.5422392,-1.8400776,0.0,0.0,0.0,0.0
7.08,204.39217440000004,-8.6206584,-0.9217152000000001,-4.7539656,0.0,0.0,0.0,0.0
7.1000000000000005,206.04662880000004,-7.3737216000000005,-1.1926824,1.3036296,0.0,0.0,0.0,0.0
7.120000000000001,207.65018160000002,-7.048500000000001,0.3252216,-3.1437072,0.0,0.0,0.0,0.0
7.140000000000001,209.31438960000003,-7.970215200000001,0.4879848,1.3036296,0.0,0.0,0.0,0.0
7.16,211.1309976,-7.3194672,-0.8132064000000001,-1.2268200000000002,0.0,0.0,0.0,0.0
7.18,212.80099680000004,-8.7834216,-2.1686520000000002,-1.0735056,0.0,0.0,0.0,0.0
7.2,214.39906320000003,-6.343497600000001,-3.198876,2.5304496,0.0,0.0,0.0,0.0
7.220000000000001,215.984328,-8.024164800000001,-1.9519392,1.5334488,0.0,0.0,0.0,0.0
7.24,217.57172640000005,-7.210958400000001,-4.5000672,-1.1500104,0.0,0.0,0.0,0.0
7.26,219.13900800000002,-6.1807343999999995,-2.9279088,3.5271456,0.0,0.0,0.0,0.0
7.28,220.88063520000003,-8.186928,1.789176,-3.910584,0.0,0.0,0.0,0.0
7.300000000000001,222.55185360000002,-7.3194672,-3.198876,-3.9870888,0.0,0.0,0.0,0.0
7.32,224.2608672,-7.427976000000001,0.2709672,-2.6069544000000002,0.0,0.0,0.0,0.0
7.34,225.84521760000004,-7.1024496,-1.5724632,-1.5334488,0.0,0.0,0.0,0.0
7.36,227.37409440000002,-7.3737216000000005,0.5422392,-1.1500104,0.0,0.0,0.0,0.0
7.380000000000001,228.96362640000004,-6.8314824000000005,0.1085088,-1.0735056,0.0,0.0,0.0,0.0
7.4,230.63301600000003,-7.5364848,-2.0061936,-1.9168872,0.0,0.0,0.0,0.0
7.42,232.25546640000002,-7.1024496,-2.548128,-1.3801344,0.0,0.0,0.0,0.0
7.44,233.75874000000005,-6.2892432000000005,0.4337304,0.15331440000000002,0.0,0.0,0.0,0.0
7.460000000000001,235.3595496,-7.156704,-3.4698432,-0.9201912000000001,0.0,0.0,0.0,0.0
7.48,236.98352400000005,-6.7229735999999995,-2.7108912000000003,2.7602688,0.0,0.0,0.0,0.0
7.5,238.51544880000003,-7.3194672,-1.2469368,-3.2970216000000003,0.0,0.0,0.0,0.0
7.5200000000000005,240.06718560000004,-6.5605152,1.5724632,0.996696,0.0,0.0,0.0,0.0
7.540000000000001,241.54089360000003,-6.7229735999999995,-2.4941784,-1.5334488,0.0,0.0,0.0,0.0
7.5600000000000005,243.0706848,-6.5605152,-0.9217152000000001,1.6867632000000001,0.0,0.0,0.0,0.0
7.58,244.53829680000004,-7.1024496,1.1387328,2.3003256,0.0,0.0,0.0,0.0
7.6000000000000005,246.07418400000003,-7.210958400000001,1.8976848000000002,-0.0768096,0.0,0.0,0.0,0.0
7.620000000000001,247.50887760000003,-6.2892432000000005,-1.5182088,-1.3036296,0.0,0.0,0.0,0.0
7.640000000000001,249.01032240000004,-6.614769600000001,-1.5182088,-2.1470112,0.0,0.0,0.0,0.0
7.66,250.4239848,-6.2349888,1.5724632,1.4569440000000002,0.0,0.0,0.0,0.0
7.68,251.92664880000004,-7.6446888,-1.4639544,-1.9936968000000002,0.0,0.0,0.0,0.0
7.7,253.35097920000004,-6.2892432000000005,-1.7349216,-2.3003256,0.0,0.0,0.0,0.0
7.720000000000001,254.68539360000005,-6.885736800000001,-0.2709672,1.2268200000000002,0.0,0.0,0.0,0.0
7.74,256.10118960000005,-7.3737216000000005,0.1085088,-1.3801344,0.0,0.0,0.0,0.0
7.76,257.50357440000005,-6.506260800000001,-2.1686520000000002,-3.9870888,0.0,0.0,0.0,0.0
7.78,258.8547528,-5.8555128,-0.5422392,-1.2268200000000002,0.0,0.0,0.0,0.0
7.800000000000001,260.2339728,-6.0725304,-1.7349216,-2.9135831999999997,0.0,0.0,0.0,0.0
7.82,261.7567536,-6.7229735999999995,-1.7349216,-1.3036296,0.0,0.0,0.0,0.0
7.84,263.2231464,-7.2652128,-2.3856696,-2.9135831999999997,0.0,0.0,0.0,0.0
7.86,264.66911760000005,-5.5302912,-0.8674608,0.4599432,0.0,0.0,0.0,0.0
7.880000000000001,266.15989440000004,-5.9097672,-2.4399240000000004,-1.1500104,0.0,0.0,0.0,0.0
7.9,267.69090480000006,-5.5845456,-1.1387328,-1.9168872,0.0,0.0,0.0,0.0
7.92,269.0838408,-6.018276,-1.030224,-0.30662880000000003,0.0,0.0,0.0,0.0
7.94,270.45422160000004,-5.096560800000001,-0.650748,1.3036296,0.0,0.0,0.0,0.0
7.960000000000001,271.83130800000004,-5.1508152,-1.8976848000000002,-0.15331440000000002,0.0,0.0,0.0,0.0
7.98,273.3022728,-5.259324,-2.7651456,-1.9168872,0.0,0.0,0.0,0.0
8.0,274.64918400000005,-5.638800000000001,-1.5182088,-1.6867632000000001,0.0,0.0,0.0,0.0
8.02,276.0808296,-4.7170848,-0.37947600000000004,0.30662880000000003,0.0,0.0,0.0,0.0
8.040000000000001,277.32410880000003,-4.2833544,0.2709672,1.4569440000000002,0.0,0.0,0.0,0.0
8.06,278.6277384,-5.367528,0.2709672,1.3801344,0.0,0.0,0.0,0.0
8.08,280.00665360000005,-5.5302912,-2.8194000000000004,1.6867632000000001,0.0,0.0,0.0,0.0
8.100000000000001,281.30601600000006,-5.476036800000001,0.7046976,-0.6135624,0.0,0.0,0.0,0.0
8.120000000000001,282.62640960000004,-5.9097672,-1.030224,-0.6135624,0.0,0.0,0.0,0.0
8.14,284.0105064,-4.988052,-1.5182088,-0.6135624,0.0,0.0,0.0,0.0
8.16,285.31291680000004,-4.2833544,-0.8132064000000001,-1.1500104,0.0,0.0,0.0,0.0
8.18,286.55070960000006,-5.476036800000001,-0.0542544,-2.5304496,0.0,0.0,0.0,0.0
8.2,288.0094824,-4.8795432000000005,-2.6023824,-2.9135831999999997,0.0,0.0,0.0,0.0
8.22,289.38626400000004,-4.3376088,1.0844784,1.8400776,0.0,0.0,0.0,0.0
8.24,290.578032,-5.5302912,-3.0361128,0.4599432,0.0,0.0,0.0,0.0
8.26,291.81094800000005,-5.5845456,-1.789176,0.4599432,0.0,0.0,0.0,0.0
8.280000000000001,293.2154664,-4.7170848,-2.3314152,-2.3768304000000002,0.0,0.0,0.0,0.0
8.3,294.4401528,-4.7713392,0.4337304,-0.0768096,0.0,0.0,0.0,0.0
8.32,295.7949888,-3.8496240000000004,-0.4879848,0.9201912000000001,0.0,0.0,0.0,0.0
8.34,297.02699040000005,-4.6628304,-1.4097000000000002,0.8433816000000001,0.0,0.0,0.0,0.0
8.36,298.42206000000004,-4.7170848,-0.9217152000000001,-0.30662880000000003,0.0,0.0,0.0,0.0
8.38,299.574204,-4.3915584,-0.8132064000000001,0.8433816000000001,0.0,0.0,0.0,0.0
8.4,300.83516160000005,-3.9035736000000005,-1.7349216,0.8433816000000001,0.0,0.0,0.0,0.0
8.42,301.87757760000005,-4.7170848,-1.030224,0.30662880000000003,0.0,0.0,0.0,0.0
8.440000000000001,302.9937552,-4.8795432000000005,0.2170176,-1.3801344,0.0,0.0,0.0,0.0
8.46,304.20137280000006,-4.012082400000001,-0.1085088,1.2268200000000002,0.0,0.0,0.0,0.0
8.48,305.41020960000003,-4.8252888,-1.1387328,-1.9936968000000002,0.0,0.0,0.0,0.0
8.5,306.77083680000004,-4.445812800000001,-1.8434304000000001,-0.30662880000000003,0.0,0.0,0.0,0.0
8.52,307.9138368,-4.2833544,-2.7651456,0.0768096,0.0,0.0,0.0,0.0
8.54,309.15620160000003,-5.096560800000001,0.2170176,0.6135624,0.0,0.0,0.0,0.0
8.56,310.3245,-4.445812800000001,-1.0844784,-2.1470112,0.0,0.0,0.0,0.0
8.58,311.66196240000005,-5.0423064,-0.16276320000000002,-1.0735056,0.0,0.0,0.0,0.0
8.600000000000001,312.8659224,-3.8496240000000004,-0.37947600000000004,-0.996696,0.0,0.0,0.0,0.0
8.620000000000001,314.02416239999997,-3.8496240000000004,-0.7046976,2.3003256,0.0,0.0,0.0,0.0
8.64,315.1439976,-3.9035736000000005,-0.8674608,-0.7668768,0.0,0.0,0.0,0.0
8.66,316.46621999999996,-2.9818584,-0.16276320000000002,0.6900672,0.0,0.0,0.0,0.0
8.68,317.6314704,-3.4698432,-0.650748,-0.996696,0.0,0.0,0.0,0.0
8.7,318.7235688,-4.445812800000001,-0.4337304,0.15331440000000002,0.0,0.0,0.0,0.0
8.72,319.9238712,-4.120591200000001,-0.650748,0.0768096,0.0,0.0,0.0,0.0
8.74,321.16440719999997,-3.957828,-0.5964936000000001,1.1500104,0.0,0.0,0.0,0.0
8.760000000000002,322.4226216,-3.7953696000000003,-1.4097000000000002,0.0768096,0.0,0.0,0.0,0.0
8.780000000000001,323.5720224,-4.3915584,-0.4879848,-1.0735056,0.0,0.0,0.0,0.0
8.8,324.83694239999994,-3.2531304000000003,-1.3011912,-0.15331440000000002,0.0,0.0,0.0,0.0
8.82,325.9836,-4.120591200000001,-1.1926824,-2.3768304000000002,0.0,0.0,0.0,0.0
8.84,327.1256856,-3.7411152,-0.37947600000000004,0.0768096,0.0,0.0,0.0,0.0
8.86,328.0452672,-4.1748456,-0.16276320000000002,1.3801344,0.0,0.0,0.0,0.0
8.88,329.3665752,-2.9279088,0.9759696,1.5334488,0.0,0.0,0.0,0.0
8.9,330.50226000000004,-3.1446216000000002,0.3252216,-0.6900672,0.0,0.0,0.0,0.0
8.92,331.5724128,-3.5240976,0.5964936000000001,0.6135624,0.0,0.0,0.0,0.0
8.940000000000001,332.6459184,-3.4158936000000004,-0.9217152000000001,-0.6135624,0.0,0.0,0.0,0.0
8.96,333.91022879999997,-3.957828,-0.7046976,-0.6900672,0.0,0.0,0.0,0.0
8.98,334.9559976,-3.6326064,1.030224,-0.4599432,0.0,0.0,0.0,0.0
9.0,335.9542176,-4.3915584,-0.16276320000000002,-1.4569440000000002,0.0,0.0,0.0,0.0
9.02,337.03686719999996,-3.7953696000000003,-1.4097000000000002,-0.996696,0.0,0.0,0.0,0.0
9.04,338.08019759999996,-3.198876,-0.37947600000000004,0.23012400000000002,0.0,0.0,0.0,0.0
9.06,339.18022080000003,-3.578352,-1.4097000000000002,-2.3768304000000002,0.0,0.0,0.0,0.0
9.08,340.1345496,-3.4158936000000004,-0.0542544,0.6135624,0.0,0.0,0.0,0.0
9.100000000000001,341.21171280000004,-3.9035736000000005,0.7589520000000001,-0.9201912000000001,0.0,0.0,0.0,0.0
9.120000000000001,342.0834408,-3.0361128,-0.5422392,-2.1470112,0.0,0.0,0.0,0.0
9.14,343.04569439999995,-3.4698432,-0.650748,-1.6867632000000001,0.0,0.0,0.0,0.0
9.16,343.9664952,-3.6326064,-0.37947600000000004,-0.9201912000000001,0.0,0.0,0.0,0.0
9.18,345.04731599999997,-2.9818584,-0.9217152000000001,-1.3036296,0.0,0.0,0.0,0.0
9.2,346.0336488,-2.7108912000000003,0.2170176,-1.3036296,0.0,0.0,0.0,0.0
9.22,346.99407360000004,-3.3073848000000003,-0.8132064000000001,-0.6135624,0.0,0.0,0.0,0.0
9.24,348.05934959999996,-3.7953696000000003,0.0,-0.4599432,0.0,0.0,0.0,0.0
9.260000000000002,349.0350144,-2.9279088,-2.0601432,-0.6900672,0.0,0.0,0.0,0.0
9.280000000000001,349.9174104,-3.0903671999999998,-0.7046976,0.9201912000000001,0.0,0.0,0.0,0.0
9.3,350.85985200000005,-3.5240976,0.5964936000000001,0.7668768,0.0,0.0,0.0,0.0
9.32,351.775776,-2.2771608000000003,0.3252216,-1.2268200000000002,0.0,0.0,0.0,0.0
9.34,352.74747840000003,-2.2771608000000003,-0.5422392,-1.8400776,0.0,0.0,0.0,0.0
9.36,353.7612432,-2.9279088,-0.3252216,0.0768096,0.0,0.0,0.0,0.0
9.38,354.854256,-2.7651456,0.2709672,0.0,0.0,0.0,0.0,0.0
9.4,355.8314448,-3.0903671999999998,-0.37947600000000004,-1.3801344,0.0,0.0,0.0,0.0
9.42,356.86989839999995,-3.0361128,-0.5422392,-1.3036296,0.0,0.0,0.0,0.0
9.440000000000001,357.8141688,-2.9279088,-1.8434304000000001,-2.0702016,0.0,0.0,0.0,0.0
9.46,358.86054720000004,-2.7651456,-0.9217152000000001,-0.6900672,0.0,0.0,0.0,0.0
9.48,359.9166792,-2.7651456,-0.37947600000000004,-0.6135624,0.0,0.0,0.0,0.0
9.5,360.9953664,-2.6566368,-0.7046976,-0.7668768,0.0,0.0,0.0,0.0
9.52,361.9585344,-2.1686520000000002,-1.0844784,-0.6900672,0.0,0.0,0.0,0.0
9.54,362.9652888,-2.548128,-0.37947600000000004,-0.3834384,0.0,0.0,0.0,0.0
9.56,363.84524639999995,-2.8194000000000004,0.5422392,0.996696,0.0,0.0,0.0,0.0
9.58,364.78585919999995,-2.8194000000000004,-0.3252216,-1.1500104,0.0,0.0,0.0,0.0
9.600000000000001,365.6475288,-2.6023824,0.0,0.0768096,0.0,0.0,0.0,0.0
9.620000000000001,366.479328,-2.6023824,0.3252216,-0.5367528,0.0,0.0,0.0,0.0
9.64,367.2940584,-2.0601432,-0.9759696,-0.8433816000000001,0.0,0.0,0.0,0.0
9.66,368.216688,-2.4941784,0.9759696,-0.5367528,0.0,0.0,0.0,0.0
9.68,369.0466584,-2.6566368,-0.7046976,0.23012400000000002,0.0,0.0,0.0,0.0
9.7,370.0890744,-1.8976848000000002,-0.0542544,-0.8433816000000001,0.0,0.0,0.0,0.0
9.72,371.0418792,-2.3314152,-0.37947600000000004,0.0,0.0,0.0,0.0,0.0
9.74,371.8806888,-2.2229064000000003,-1.1387328,-1.3036296,0.0,0.0,0.0,0.0
9.760000000000002,372.7813728,-2.2229064000000003,-0.16276320000000002,-0.9201912000000001,0.0,0.0,0.0,0.0
9.780000000000001,373.6948584,-2.548128,-0.2709672,-1.3036296,0.0,0.0,0.0,0.0
9.8,374.5391544,-2.0601432,-0.9759696,-0.8433816000000001,0.0,0.0,0.0,0.0
9.82,375.42216,-1.9519392,0.1085088,-0.4599432,0.0,0.0,0.0,0.0
9.84,376.21829759999997,-1.7349216,-0.2170176,0.23012400000000002,0.0,0.0,0.0,0.0
9.86,377.10831360000003,-2.2771608000000003,-1.3011912,-1.1500104,0.0,0.0,0.0,0.0
9.88,377.97699359999996,-2.548128,-0.4879848,-0.30662880000000003,0.0,0.0,0.0,0.0
9.9,378.80178240000004,-1.789176,-0.16276320000000002,0.3834384,0.0,0.0,0.0,0.0
9.92,379.6427256,-2.6566368,-0.9217152000000001,-0.8433816000000001,0.0,0.0,0.0,0.0
9.940000000000001,380.4108216,-2.3856696,-1.3011912,-1.3801344,0.0,0.0,0.0,0.0
9.96,381.21336,-2.0601432,0.2170176,-0.4599432,0.0,0.0,0.0,0.0
9.98,382.0509504,-2.2229064000000003,-0.9217152000000001,0.5367528,0.0,0.0,0.0,0.0
10.0,382.93029839999997,-2.2229064000000003,-0.2709672,-0.8433816000000001,0.0,0.0,0.0,0.0
10.02,383.8184856,-1.789176,-0.8132064000000001,0.5367528,0.0,0.0,0.0,0.0
10.04,384.69570000000004,-1.9519392,-1.6264128000000002,-1.3036296,0.0,0.0,0.0,0.0
10.06,385.53329040000006,-1.6806672000000002,0.37947600000000004,0.8433816000000001,0.0,0.0,0.0,0.0
10.08,386.2818792,-1.6806672000000002,-0.0542544,-0.15331440000000002,0.0,0.0,0.0,0.0
10.100000000000001,387.0493656,-1.5724632,-0.8132064000000001,0.15331440000000002,0.0,0.0,0.0,0.0
10.120000000000001,387.81898559999996,-2.0061936,-0.0542544,-0.4599432,0.0,0.0,0.0,0.0
10.14,388.6196952,-1.3011912,-0.2170176,1.0735056,0.0,0.0,0.0,0.0
10.16,389.3213448,-1.8434304000000001,0.0,0.4599432,0.0,0.0,0.0,0.0
10.18,390.1421712,-1.8434304000000001,-0.8674608,-0.996696,0.0,0.0,0.0,0.0
10.2,390.86088959999995,-1.789176,-0.37947600000000004,-0.6135624,0.0,0.0,0.0,0.0
10.22,391.5954576,-1.8976848000000002,-0.0542544,-0.7668768,0.0,0.0,0.0,0.0
10.24,392.3285016,-1.789176,0.37947600000000004,-0.4599432,0.0,0.0,0.0,0.0
10.260000000000002,393.0889776,-2.0601432,-0.2170176,-0.3834384,0.0,0.0,0.0,0.0
10.280000000000001,394.0106928,-1.4639544,-1.030224,-1.0735056,0.0,0.0,0.0,0.0
10.3,394.7370312,-1.6264128000000002,-0.650748,-0.4599432,0.0,0.0,0.0,0.0
10.32,395.4908016,-1.6806672000000002,-0.2709672,-0.6135624,0.0,0.0,0.0,0.0
10.34,396.24762,-1.3011912,0.0,0.15331440000000002,0.0,0.0,0.0,0.0
10.36,396.9785304,-1.3011912,0.2170176,0.5367528,0.0,0.0,0.0,0.0
10.38,397.67347440000003,-1.789176,0.0542544,-1.0735056,0.0,0.0,0.0,0.0
10.4,398.303496,-1.7349216,0.1085088,-0.30662880000000003,0.0,0.0,0.0,0.0
10.42,398.9551584,-1.6264128000000002,0.0,-0.23012400000000002,0.0,0.0,0.0,0.0
10.440000000000001,399.55988160000004,-1.6806672000000002,0.8132064000000001,0.4599432,0.0,0.0,0.0,0.0
10.46,400.1304672,-1.5182088,-0.4337304,-0.5367528,0.0,0.0,0.0,0.0
10.48,400.8796656,-1.6264128000000002,0.0,-0.6135624,0.0,0.0,0.0,0.0
10.5,401.6718408,-0.9217152000000001,0.0542544,0.3834384,0.0,0.0,0.0,0.0
10.52,402.4567008,-1.5724632,-0.2709672,-1.1500104,0.0,0.0,0.0,0.0
10.54,403.2482664,-1.6806672000000002,-0.5964936000000001,-0.15331440000000002,0.0,0.0,0.0,0.0
10.56,403.9782624,-1.4097000000000002,-0.5422392,0.5367528,0.0,0.0,0.0,0.0
10.58,404.6412024,-1.5724632,-0.37947600000000004,-0.30662880000000003,0.0,0.0,0.0,0.0
10.600000000000001,405.2724432,-1.5182088,0.2170176,-0.4599432,0.0,0.0,0.0,0.0
10.620000000000001,405.987504,-1.4639544,-0.2709672,-0.15331440000000002,0.0,0.0,0.0,0.0
10.64,406.6010664,-1.2469368,0.2709672,0.23012400000000002,0.0,0.0,0.0,0.0
10.66,407.2932672,-1.5182088,-0.1085088,-0.8433816000000001,0.0,0.0,0.0,0.0
10.68,408.0473424,-1.4097000000000002,0.1085088,-1.1500104,0.0,0.0,0.0,0.0
10.7,408.69321360000004,-1.3011912,0.5422392,0.5367528,0.0,0.0,0.0,0.0
10.72,409.4177232,-1.5724632,-0.16276320000000002,-0.6135624,0.0,0.0,0.0,0.0
10.74,410.1062664,-1.4097000000000002,0.5422392,-0.30662880000000003,0.0,0.0,0.0,0.0
10.760000000000002,410.7899328,-1.1387328,0.0542544,0.30662880000000003,0.0,0.0,0.0,0.0
10.780000000000001,411.39343679999996,-1.3011912,0.4337304,0.30662880000000003,0.0,0.0,0.0,0.0
10.8,412.0963056,-1.0844784,0.5422392,0.8433816000000001,0.0,0.0,0.0,0.0
10.82,412.7504064,-1.4097000000000002,0.5422392,-0.5367528,0.0,0.0,0.0,0.0
10.84,413.356044,-1.3554456000000001,0.16276320000000002,-0.4599432,0.0,0.0,0.0,0.0
10.86,413.94705120000003,-1.030224,-0.16276320000000002,-0.6135624,0.0,0.0,0.0,0.0
10.88,414.5526888,-1.030224,0.16276320000000002,-0.0768096,0.0,0.0,0.0,0.0
10.9,415.3735152,-1.1387328,0.5964936000000001,0.0,0.0,0.0,0.0,0.0
10.92,416.0178624,-0.9217152000000001,-0.0542544,0.0768096,0.0,0.0,0.0,0.0
10.940000000000001,416.512248,-0.8132064000000001,-0.16276320000000002,0.6900672,0.0,0.0,0.0,0.0
10.96,417.03223679999996,-0.9217152000000001,0.16276320000000002,0.30662880000000003,0.0,0.0,0.0,0.0
10.98,417.708588,-0.9759696,0.0,-0.5367528,0.0,0.0,0.0,0.0
11.0,418.27368720000004,-1.0844784,-0.1085088,-0.30662880000000003,0.0,0.0,0.0,0.0
11.02,418.9698504,-1.4097000000000002,0.4337304,-0.23012400000000002,0.0,0.0,0.0,0.0
11.04,419.5672584,-1.030224,-0.37947600000000004,-0.8433816000000001,0.0,0.0,0.0,0.0
11.06,420.1055352,-0.9759696,-0.3252216,-0.15331440000000002,0.0,0.0,0.0,0.0
11.08,420.6538704,-1.1387328,0.0542544,-0.23012400000000002,0.0,0.0,0.0,0.0
11.100000000000001,421.24243920000004,-1.0844784,0.4337304,0.4599432,0.0,0.0,0.0,0.0
11.120000000000001,421.83405600000003,-0.9759696,0.3252216,0.0,0.0,0.0,0.0,0.0
11.14,422.4064704,-0.9759696,0.2170176,0.30662880000000003,0.0,0.0,0.0,0.0
11.16,422.9529768,-1.030224,-0.0542544,0.15331440000000002,0.0,0.0,0.0,0.0
11.18,423.47479439999995,-0.8132064000000001,-0.16276320000000002,0.15331440000000002,0.0,0.0,0.0,0.0
11.2,424.1051208,-0.7589520000000001,-0.1085088,0.0768096,0.0,0.0,0.0,0.0
11.22,424.619928,-0.9217152000000001,0.2709672,0.0,0.0,0.0,0.0,0.0
11.24,425.2088016,-0.8674608,-0.4337304,-0.15331440000000002,0.0,0.0,0.0,0.0
11.260000000000002,425.8366896,-0.650748,0.1085088,0.0,0.0,0.0,0.0,0.0
11.280000000000001,426.45756719999997,-0.7589520000000001,0.1085088,-0.0768096,0.0,0.0,0.0,0.0
11.3,426.92116799999997,-0.650748,-0.650748,-0.30662880000000003,0.0,0.0,0.0,0.0
11.32,427.51430880000004,-0.8132064000000001,-0.0542544,0.0768096,0.0,0.0,0.0,0.0
11.34,428.103792,-0.8674608,-0.650748,-0.6900672,0.0,0.0,0.0,0.0
11.36,428.66828160000006,-0.8132064000000001,-0.0542544,0.0,0.0,0.0,0.0,0.0
11.38,429.1806504,-0.8674608,0.0,-0.3834384,0.0,0.0,0.0,0.0
11.4,429.7274616,-0.5964936000000001,-0.2709672,0.0768096,0.0,0.0,0.0,0.0
11.42,430.25750880000004,-0.5964936000000001,-0.4879848,-0.5367528,0.0,0.0,0.0,0.0
11.440000000000001,430.772316,-0.650748,-0.4337304,-0.15331440000000002,0.0,0.0,0.0,0.0
11.46,431.2779792,-0.5964936000000001,-0.0542544,-0.30662880000000003,0.0,0.0,0.0,0.0
11.48,431.75377199999997,-0.37947600000000004,-0.2709672,-0.30662880000000003,0.0,0.0,0.0,0.0
11.5,432.1198368,-0.8132064000000001,-0.16276320000000002,-0.5367528,0.0,0.0,0.0,0.0
11.52,432.7416288,-0.650748,-0.1085088,-0.23012400000000002,0.0,0.0,0.0,0.0
11.54,433.2600936,-0.5964936000000001,0.0542544,-0.0768096,0.0,0.0,0.0,0.0
11.56,433.7383248,-0.7046976,-0.0542544,0.0768096,0.0,0.0,0.0,0.0
11.58,434.211984,-0.650748,0.2170176,0.0768096,0.0,0.0,0.0,0.0
11.600000000000001,434.6319984,-0.7589520000000001,0.0,-0.6135624,0.0,0.0,0.0,0.0
11.620000000000001,435.18399120000004,-0.4879848,0.16276320000000002,-0.0768096,0.0,0.0,0.0,0.0
11.64,435.6573456,-0.4879848,0.0542544,-0.4599432,0.0,0.0,0.0,0.0
11.66,436.0639488,-0.650748,0.0,-0.4599432,0.0,0.0,0.0,0.0
11.68,436.54400880000003,-0.7589520000000001,0.4337304,0.23012400000000002,0.0,0.0,0.0,0.0
11.7,436.9689,-0.37947600000000004,-0.37947600000000004,-0.6900672,0.0,0.0,0.0,0.0
11.72,437.4800496,-0.4337304,0.0,-0.30662880000000003,0.0,0.0,0.0,0.0
11.74,437.834532,-0.5964936000000001,0.16276320000000002,0.0,0.0,0.0,0.0,0.0
11.760000000000002,438.2350392,-0.5964936000000001,-0.0542544,-0.23012400000000002,0.0,0.0,0.0,0.0
11.780000000000001,438.672732,-0.3252216,0.1085088,-0.30662880000000003,0.0,0.0,0.0,0.0
11.8,439.0570848,-0.4879848,-0.16276320000000002,-0.0768096,0.0,0.0,0.0,0.0
11.82,439.443876,-0.5422392,0.2170176,-0.15331440000000002,0.0,0.0,0.0,0.0
11.84,439.802016,-0.4337304,-0.1085088,0.0,0.0,0.0,0.0,0.0
11.86,440.1028536,-0.2709672,-0.16276320000000002,-0.30662880000000003,0.0,0.0,0.0,0.0
11.88,440.50092240000004,-0.4879848,0.16276320000000002,-0.0768096,0.0,0.0,0.0,0.0
11.9,440.9690952,-0.4879848,0.0542544,0.0,0.0,0.0,0.0,0.0
11.92,441.35923920000005,-0.4879848,0.0542544,-0.15331440000000002,0.0,0.0,0.0,0.0
11.940000000000001,441.722256,-0.3252216,0.1085088,0.30662880000000003,0.0,0.0,0.0,0.0
11.96,442.148976,-0.4337304,0.1085088,-0.0768096,0.0,0.0,0.0,0.0
11.98,442.57843920000005,-0.37947600000000004,0.0542544,0.23012400000000002,0.0,0.0,0.0,0.0
12.0,443.0015016,-0.3252216,0.0,-0.0768096,0.0,0.0,0.0,0.0
12.02,443.4806472,-0.37947600000000004,0.0542544,0.0,0.0,0.0,0.0,0.0
12.04,443.9561352,-0.2709672,-0.16276320000000002,0.0,0.0,0.0,0.0,0.0
12.06,444.41364,-0.3252216,0.2170176,0.15331440000000002,0.0,0.0,0.0,0.0
12.08,444.7833624,-0.2170176,-0.2170176,-0.23012400000000002,0.0,0.0,0.0,0.0
12.100000000000001,445.2277608,-0.2709672,0.0542544,-0.0768096,0.0,0.0,0.0,0.0
12.120000000000001,445.5578592,-0.37947600000000004,0.0542544,0.0,0.0,0.0,0.0,0.0
12.14,445.93062960000003,-0.3252216,0.1085088,0.0768096,0.0,0.0,0.0,0.0
12.16,446.274444,-0.3252216,0.1085088,0.30662880000000003,0.0,0.0,0.0,0.0
12.18,446.46982080000004,-0.2709672,0.0542544,-0.0768096,0.0,0.0,0.0,0.0
12.2,446.84320080000003,-0.16276320000000002,-0.16276320000000002,0.0,0.0,0.0,0.0,0.0
12.22,447.0428448,-0.0542544,0.0542544,-0.0768096,0.0,0.0,0.0,0.0
12.24,447.3586176,-0.1085088,-0.2170176,-0.30662880000000003,0.0,0.0,0.0,0.0
12.260000000000002,447.67560960000003,-0.1085088,-0.1085088,-0.30662880000000003,0.0,0.0,0.0,0.0
12.280000000000001,448.059048,-0.2170176,-0.1085088,-0.15331440000000002,0.0,0.0,0.0,0.0
12.3,448.3845744,-0.2709672,-0.16276320000000002,-0.23012400000000002,0.0,0.0,0.0,0.0
12.32,448.671696,-0.2170176,-0.1085088,0.0768096,0.0,0.0,0.0,0.0
12.34,449.0554392,-0.2170176,-0.3252216,-0.0768096,0.0,0.0,0.0,0.0
12.36,449.4172368,-0.16276320000000002,-0.16276320000000002,-0.23012400000000002,0.0,0.0,0.0,0.0
12.38,449.81652479999997,-0.1085088,-0.1085088,-0.23012400000000002,0.0,0.0,0.0,0.0
12.4,450.1018176,-0.0542544,-0.0542544,-0.23012400000000002,0.0,0.0,0.0,0.0
12.42,450.3554112,-0.0542544,-0.0542544,-0.15331440000000002,0.0,0.0,0.0,0.0
12.44,450.5486544,-0.16276320000000002,-0.0542544,-0.30662880000000003,0.0,0.0,0.0,0.0
12.46,450.8168784,-0.16276320000000002,0.0542544,-0.15331440000000002,0.0,0.0,0.0,0.0
12.48,451.08114,0.0,-0.1085088,-0.15331440000000002,0.0,0.0,0.0,0.0
12.5,451.5301104,-0.0542544,-0.0542544,-0.0768096,0.0,0.0,0.0,0.0
12.52,451.86203759999995,-0.1085088,-0.2170176,-0.15331440000000002,0.0,0.0,0.0,0.0
12.540000000000001,452.1973176,-0.0542544,-0.16276320000000002,-0.3834384,0.0,0.0,0.0,0.0
12.56,452.50120319999996,-0.16276320000000002,-0.0542544,-0.15331440000000002,0.0,0.0,0.0,0.0
12.58,452.865744,-0.0542544,-0.0542544,-0.23012400000000002,0.0,0.0,0.0,0.0
12.6,453.14372160000005,-0.0542544,-0.0542544,-0.30662880000000003,0.0,0.0,0.0,0.0
12.620000000000001,453.3863424,-0.1085088,-0.1085088,-0.15331440000000002,0.0,0.0,0.0,0.0
12.64,453.7170504,-0.0542544,-0.16276320000000002,-0.23012400000000002,0.0,0.0,0.0,0.0
12.66,453.95753759999997,0.0,-0.1085088,-0.30662880000000003,0.0,0.0,0.0,0.0
12.68,454.0861632,0.0,0.0,-0.30662880000000003,0.0,0.0,0.0,0.0
12.700000000000001,454.4375976,-0.0542544,0.0542544,-0.30662880000000003,0.0,0.0,0.0,0.0
12.72,454.6805232,-0.16276320000000002,-0.0542544,-0.30662880000000003,0.0,0.0,0.0,0.0
12.74,454.793604,0.16276320000000002,0.0542544,0.0,0.0,0.0,0.0,0.0
12.76,455.07127679999996,131.4794424,25.970484,-55.7436528,0.0,0.0,0.0,0.0
12.780000000000001,454.4900232,-219.20454,2.8736544000000004,-28.906927200000002,0.0,0.0,0.0,0.0
12.8,454.7686104,-28.030932000000004,2.1143976,-1.8400776,0.0,0.0,0.0,0.0
12.82,455.1999024,-14.205204,-4.8795432000000005,9.2013024,0.0,0.0,0.0,0.0
12.84,455.68514400000004,-0.8674608,1.5182088,-1.6102584000000002,0.0,0.0,0.0,0.0
12.860000000000001,456.0609624,-1.9519392,0.0,1.2268200000000002,0.0,0.0,0.0,0.0
12.88,456.44714400000004,-3.7411152,-1.3554456000000001,3.450336,0.0,0.0,0.0,0.0
12.9,456.8619768,-5.205069600000001,-0.3252216,-0.6900672,0.0,0.0,0.0,0.0
12.92,457.2362712,-2.1686520000000002,-1.1926824,-1.3801344,0.0,0.0,0.0,0.0
12.94,457.7163312,-5.5302912,0.8674608,-0.6135624,0.0,0.0,0.0,0.0
12.96,458.22260400000005,-1.4097000000000002,-0.7589520000000001,-0.8433816000000001,0.0,0.0,0.0,0.0
12.98,458.6282928,-2.548128,0.37947600000000004,-0.6900672,0.0,0.0,0.0,0.0
13.0,459.05226960000005,-5.259324,0.4879848,-1.3801344,0.0,0.0,0.0,0.0
13.02,459.4588728,-4.988052,1.3011912,-1.7635728,0.0,0.0,0.0,0.0
13.040000000000001,459.93710400000003,-4.3915584,3.0903671999999998,-0.996696,0.0,0.0,0.0,0.0
13.06,460.601568,-222.0781944,0.0,-157.03296000000003,0.0,0.0,0.0,0.0
13.08,461.121252,3.0903671999999998,4.0663368,-33.2774544,0.0,0.0,0.0,0.0
13.1,461.2133016,25.591008,-13.554456,2.4536400000000005,0.0,0.0,0.0,0.0
13.120000000000001,461.409288,14.5304256,-4.988052,4.0638984,0.0,0.0,0.0,0.0
13.14,461.6488608,13.174980000000001,-5.476036800000001,2.6069544000000002,0.0,0.0,0.0,0.0
13.16,461.8963584,11.385804,-3.0361128,8.58774,0.0,0.0,0.0,0.0
13.18,462.3916584,11.8195344,-5.5302912,6.4407288000000005,0.0,0.0,0.0,0.0
13.200000000000001,462.9649872,10.952073600000002,-2.9279088,4.907280000000001,0.0,0.0,0.0,0.0
13.22,463.52429520000004,10.952073600000002,0.2170176,5.9807856,0.0,0.0,0.0,0.0
13.24,463.8190368,11.1690912,-1.9519392,4.4473368,0.0,0.0,0.0,0.0
13.26,463.8909696,11.385804,0.5422392,4.6006512,0.0,0.0,0.0,0.0
13.280000000000001,463.8251328,11.385804,-0.4337304,3.5271456,0.0,0.0,0.0,0.0
13.3,463.7199768,11.4943128,0.4337304,3.2970216000000003,0.0,0.0,0.0,0.0
13.32,463.40938559999995,11.3315496,0.4879848,2.9903928,0.0,0.0,0.0,0.0
13.34,463.18932,11.006328,0.5964936000000001,2.3768304000000002,0.0,0.0,0.0,0.0
13.360000000000001,462.908904,10.5183432,0.8674608,2.223516,0.0,0.0,0.0,0.0
13.38,462.67207440000004,10.3013256,0.650748,2.0702016,0.0,0.0,0.0,0.0
13.4,462.384648,9.7593912,1.0844784,1.9168872,0.0,0.0,0.0,0.0
13.42,462.1767744,9.7593912,0.3252216,1.9936968000000002,0.0,0.0,0.0,0.0
13.44,462.0006,9.0543888,0.16276320000000002,1.7635728,0.0,0.0,0.0,0.0
13.46,461.8286928,8.6749128,-0.2170176,1.5334488,0.0,0.0,0.0,0.0
13.48,461.73816719999996,8.4582,-0.5422392,1.7635728,0.0,0.0,0.0,0.0
13.5,461.6415456,8.3496912,-0.7589520000000001,1.7635728,0.0,0.0,0.0,0.0
13.52,461.59643520000003,8.4039456,-0.2709672,2.683764,0.0,0.0,0.0,0.0
13.540000000000001,461.6049696,7.970215200000001,-0.2709672,2.7602688,0.0,0.0,0.0,0.0
13.56,461.675988,8.024164800000001,-0.3252216,2.6069544000000002,0.0,0.0,0.0,0.0
13.58,461.8259496,8.186928,-0.2709672,3.2205168000000004,0.0,0.0,0.0,0.0
13.6,461.9115984,6.9942456,-1.6806672000000002,2.0702016,0.0,0.0,0.0,0.0
13.620000000000001,461.9463456,7.1024496,-1.789176,2.0702016,0.0,0.0,0.0,0.0
13.64,462.02925120000003,6.614769600000001,-1.3011912,1.9936968000000002,0.0,0.0,0.0,0.0
13.66,462.02041199999996,6.397752,-1.8434304000000001,1.2268200000000002,0.0,0.0,0.0,0.0
13.68,462.1740312,6.018276,-0.7046976,1.8400776,0.0,0.0,0.0,0.0
13.700000000000001,462.31119120000005,5.9097672,-0.5964936000000001,1.6102584000000002,0.0,0.0,0.0,0.0
13.72,462.5611272,5.801258400000001,-0.37947600000000004,1.6102584000000002,0.0,0.0,0.0,0.0
13.74,462.6367176,5.5302912,-0.2170176,1.4569440000000002,0.0,0.0,0.0,0.0
13.76,462.7982616,5.259324,0.37947600000000004,1.4569440000000002,0.0,0.0,0.0,0.0
13.780000000000001,462.83361840000003,5.0423064,0.2709672,1.3036296,0.0,0.0,0.0,0.0
13.8,462.74766480000005,4.988052,0.4337304,1.3036296,0.0,0.0,0.0,0.0
13.82,462.706212,4.7170848,0.9217152000000001,1.2268200000000002,0.0,0.0,0.0,0.0
13.84,462.7315104,4.6628304,0.650748,1.0735056,0.0,0.0,0.0,0.0
13.860000000000001,462.67481760000004,4.445812800000001,0.9759696,1.0735056,0.0,0.0,0.0,0.0
13.88,462.6766464,4.2291,1.0844784,0.8433816000000001,0.0,0.0,0.0,0.0
13.9,462.5897784,4.2291,1.0844784,0.996696,0.0,0.0,0.0,0.0
13.92,462.5117496,4.012082400000001,1.3011912,0.6900672,0.0,0.0,0.0,0.0
13.94,462.4117752,3.8496240000000004,1.4639544,0.7668768,0.0,0.0,0.0,0.0
13.96,462.2971704,3.7411152,1.4639544,0.6900672,0.0,0.0,0.0,0.0
13.98,462.2099976,3.578352,1.6264128000000002,0.4599432,0.0,0.0,0.0,0.0
14.0,462.125568,3.4158936000000004,1.789176,0.30662880000000003,0.0,0.0,0.0,0.0
14.02,461.925924,3.2531304000000003,2.0601432,0.15331440000000002,0.0,0.0,0.0,0.0
14.040000000000001,461.77687679999997,2.8194000000000004,2.3856696,0.0768096,0.0,0.0,0.0,0.0
14.06,461.70707760000005,2.3856696,2.4941784,0.0,0.0,0.0,0.0,0.0
14.08,461.6705016,2.8194000000000004,2.3856696,0.15331440000000002,0.0,0.0,0.0,0.0
14.1,461.6110656,2.6023824,2.7108912000000003,-0.3834384,0.0,0.0,0.0,0.0
14.120000000000001,461.53760880000004,2.3856696,2.9279088,-0.6135624,0.0,0.0,0.0,0.0
14.14,461.52328320000004,2.2229064000000003,3.0903671999999998,-0.5367528,0.0,0.0,0.0,0.0
14.16,461.4300144,2.0061936,3.3073848000000003,-0.5367528,0.0,0.0,0.0,0.0
14.18,461.435196,1.6264128000000002,3.6868608000000003,-1.0735056,0.0,0.0,0.0,0.0
14.200000000000001,461.44860719999997,1.1387328,3.957828,-1.3036296,0.0,0.0,0.0,0.0
14.22,461.44434,1.2469368,2.9818584,-0.7668768,0.0,0.0,0.0,0.0
14.24,461.3952672,0.8674608,3.2531304000000003,-0.6135624,0.0,0.0,0.0,0.0
14.26,461.3845992,1.5182088,1.7349216,-0.0768096,0.0,0.0,0.0,0.0
14.280000000000001,461.4175176,0.9759696,3.2531304000000003,0.0,0.0,0.0,0.0,0.0
