time,baro_altitude,accl_x,accl_y,accl_z,gps_altitude,gyro_roll,gyro_pitch,gyro_yaw
0.0,0.0,-9.5423736,-0.2170176,-0.30662880000000003,0.0,0.0,0.0,0.0
0.019999999999999574,0.1520952,-9.5423736,-0.2170176,-0.23012400000000002,0.0,0.0,0.0,0.0
0.040000000000000036,0.22098,-9.5423736,-0.2170176,-0.30662880000000003,0.0,0.0,0.0,0.0
0.05999999999999961,0.06614160000000001,-9.596628,-0.2709672,-0.3834384,0.0,0.0,0.0,0.0
0.08000000000000007,0.04236720000000001,-9.596628,-0.16276320000000002,-0.3834384,0.0,0.0,0.0,0.0
0.09999999999999964,-0.008229600000000007,-9.5423736,-0.2170176,-0.30662880000000003,0.0,0.0,0.0,0.0
0.1200000000000001,-0.033528000000000016,-9.5423736,-0.3252216,-0.3834384,0.0,0.0,0.0,0.0
0.13999999999999968,-0.10027920000000001,-9.596628,-0.2709672,-0.3834384,0.0,0.0,0.0,0.0
0.15999999999999925,-0.08321039999999999,-9.5423736,-0.2170176,-0.3834384,0.0,0.0,0.0,0.0
0.17999999999999972,-0.14996160000000003,-9.5423736,-0.2170176,-0.30662880000000003,0.0,0.0,0.0,0.0
0.1999999999999993,-0.18409919999999996,-9.7051368,-0.16276320000000002,-0.23012400000000002,0.0,0.0,0.0,0.0
0.21999999999999975,-0.055168800000000004,-9.5423736,-0.2170176,-0.23012400000000002,0.0,0.0,0.0,0.0
0.23999999999999932,-0.14874240000000002,-9.5423736,-0.2170176,-0.30662880000000003,0.0,0.0,0.0,0.0
0.2599999999999998,-0.18775679999999997,-9.5423736,-0.2170176,-0.30662880000000003,0.0,0.0,0.0,0.0
0.27999999999999936,0.049377599999999994,-9.5423736,-0.1085088,-0.30662880000000003,0.0,0.0,0.0,0.0
0.2999999999999998,0.2660904,-9.488119200000002,-0.2709672,-0.30662880000000003,0.0,0.0,0.0,0.0
0.3199999999999994,0.38861999999999997,-9.6508824,-0.3252216,-0.30662880000000003,0.0,0.0,0.0,0.0
0.33999999999999986,0.4376928,-9.596628,-0.2709672,-0.30662880000000003,0.0,0.0,0.0,0.0
0.35999999999999943,0.5526024,-9.596628,-0.16276320000000002,-0.30662880000000003,0.0,0.0,0.0,0.0
0.3799999999999999,0.5102352,-9.5423736,-0.2170176,-0.30662880000000003,0.0,0.0,0.0,0.0
0.39999999999999947,0.359664,-9.488119200000002,-0.16276320000000002,-0.30662880000000003,0.0,0.0,0.0,0.0
0.41999999999999993,0.32613600000000004,-9.488119200000002,-0.2709672,-0.30662880000000003,0.0,0.0,0.0,0.0
0.4399999999999995,0.3273552,-9.5423736,-0.3252216,-0.30662880000000003,0.0,0.0,0.0,0.0
0.45999999999999996,0.2633472,-9.488119200000002,-0.2709672,-0.30662880000000003,0.0,0.0,0.0,0.0
0.47999999999999954,0.0560832,-9.488119200000002,-0.2709672,-0.3834384,0.0,0.0,0.0,0.0
0.5,0.111252,-9.596628,-0.16276320000000002,-0.3834384,0.0,0.0,0.0,0.0
0.5199999999999996,0.1374648,-9.596628,-0.16276320000000002,-0.30662880000000003,0.0,0.0,0.0,0.0
0.54,0.0649224,-9.4338648,-0.2170176,-0.23012400000000002,0.0,0.0,0.0,0.0
0.5599999999999996,0.07741920000000001,-9.5423736,-0.2170176,-0.30662880000000003,0.0,0.0,0.0,0.0
0.5800000000000001,-0.16154400000000002,-9.488119200000002,-0.2709672,-0.23012400000000002,0.0,0.0,0.0,0.0
0.5999999999999996,-0.029870400000000012,-9.5423736,-0.2170176,-0.30662880000000003,0.0,0.0,0.0,0.0
0.6200000000000001,0.1499616,-9.488119200000002,-0.16276320000000002,-0.3834384,0.0,0.0,0.0,0.0
0.6399999999999997,0.1441704,-9.5423736,-0.2170176,-0.30662880000000003,0.0,0.0,0.0,0.0
0.6599999999999997,0.242316,-9.596628,-0.2709672,-0.3834384,0.0,0.0,0.0,0.0
0.6799999999999997,0.1344168,-9.5423736,-0.3252216,-0.30662880000000003,0.0,0.0,0.0,0.0
0.6999999999999997,0.049987199999999996,-9.5423736,-0.3252216,-0.4599432,0.0,0.0,0.0,0.0
0.7199999999999998,0.1664208,-9.596628,-0.2709672,-0.30662880000000003,0.0,0.0,0.0,0.0
0.7399999999999998,-0.0015240000000000015,-9.6508824,-0.2170176,-0.30662880000000003,0.0,0.0,0.0,0.0
0.7599999999999998,-0.0536448,-9.596628,-0.37947600000000004,-0.30662880000000003,0.0,0.0,0.0,0.0
0.7799999999999998,0.0064007999999999895,-9.6508824,-0.2170176,-0.30662880000000003,0.0,0.0,0.0,0.0
0.7999999999999998,-0.060655200000000006,-9.488119200000002,-0.16276320000000002,-0.30662880000000003,0.0,0.0,0.0,0.0
0.8199999999999998,-0.04358639999999999,-9.5423736,-0.2170176,-0.3834384,0.0,0.0,0.0,0.0
0.8399999999999999,0.04389119999999999,-9.5423736,-0.1085088,-0.30662880000000003,0.0,0.0,0.0,0.0
0.8599999999999999,0.123444,-9.596628,-0.2709672,-0.23012400000000002,0.0,0.0,0.0,0.0
0.8799999999999999,0.2078736,-9.596628,-0.2709672,-0.30662880000000003,0.0,0.0,0.0,0.0
0.8999999999999995,0.3700272,-9.596628,-0.16276320000000002,-0.3834384,0.0,0.0,0.0,0.0
0.9199999999999995,0.5465064000000001,-9.596628,-0.2709672,-0.30662880000000003,0.0,0.0,0.0,0.0
0.9399999999999995,0.4733544,-9.596628,-0.2709672,-0.3834384,0.0,0.0,0.0,0.0
0.9599999999999995,0.42397680000000004,-9.5423736,-0.2170176,-0.23012400000000002,0.0,0.0,0.0,0.0
0.9799999999999995,0.359664,-9.5423736,-0.2170176,-0.4599432,0.0,0.0,0.0,0.0
0.9999999999999996,0.2724912,-9.5423736,-0.2170176,-0.3834384,0.0,0.0,0.0,0.0
1.0199999999999996,0.2609088,-9.5423736,-0.2170176,-0.4599432,0.0,0.0,0.0,0.0
1.0399999999999996,0.3700272,-9.596628,-0.2709672,-0.30662880000000003,0.0,0.0,0.0,0.0
1.0599999999999996,0.48463200000000006,-9.488119200000002,-0.2709672,-0.4599432,0.0,0.0,0.0,0.0
1.0799999999999996,0.3240024,-9.596628,-0.16276320000000002,-0.30662880000000003,0.0,0.0,0.0,0.0
1.0999999999999996,0.1801368,-9.5423736,-0.2170176,-0.23012400000000002,0.0,0.0,0.0,0.0
1.1199999999999997,0.2139696,-9.5423736,-0.2170176,-0.3834384,0.0,0.0,0.0,0.0
1.1399999999999997,0.14478,-9.596628,-0.2709672,-0.30662880000000003,0.0,0.0,0.0,0.0
1.1599999999999997,0.07589520000000001,-9.488119200000002,-0.2709672,-0.30662880000000003,0.0,0.0,0.0,0.0
1.1799999999999997,0.054864,-9.596628,-0.2709672,-0.3834384,0.0,0.0,0.0,0.0
1.1999999999999997,0.096012,-9.5423736,-0.2170176,-0.30662880000000003,0.0,0.0,0.0,0.0
1.2199999999999998,0.2139696,-9.488119200000002,-0.2709672,-0.30662880000000003,0.0,0.0,0.0,0.0
1.2399999999999998,0.16184880000000001,-9.6508824,-0.2170176,-0.30662880000000003,0.0,0.0,0.0,0.0
1.2599999999999998,0.3252216,-9.5423736,-0.2170176,-0.4599432,0.0,0.0,0.0,0.0
1.2799999999999998,0.355092,-9.5423736,-0.2170176,-0.3834384,0.0,0.0,0.0,0.0
1.2999999999999998,0.2746248,-9.596628,-0.2709672,-0.23012400000000002,0.0,0.0,0.0,0.0
1.3199999999999998,0.25633680000000003,-9.596628,-0.2709672,-0.4599432,0.0,0.0,0.0,0.0
1.3399999999999999,0.27432,-9.488119200000002,-0.2709672,-0.30662880000000003,0.0,0.0,0.0,0.0
1.3599999999999999,0.2731008,-9.5423736,-0.2170176,-0.30662880000000003,0.0,0.0,0.0,0.0
1.38,0.3240024,-9.5423736,-0.2170176,-0.3834384,0.0,0.0,0.0,0.0
1.3999999999999995,0.1941576,-9.5423736,-0.2170176,-0.3834384,0.0,0.0,0.0,0.0
1.4199999999999995,0.22616160000000002,-9.596628,-0.2709672,-0.30662880000000003,0.0,0.0,0.0,0.0
1.4399999999999995,0.25146,-9.488119200000002,-0.16276320000000002,-0.30662880000000003,0.0,0.0,0.0,0.0
1.4599999999999995,0.288036,-9.5423736,-0.3252216,-0.3834384,0.0,0.0,0.0,0.0
1.4799999999999995,0.1499616,-9.596628,-0.16276320000000002,-0.4599432,0.0,0.0,0.0,0.0
1.4999999999999996,0.2542032,-9.5423736,-0.2170176,-0.30662880000000003,0.0,0.0,0.0,0.0
1.5199999999999996,0.1877568,-9.5423736,-0.2170176,-0.3834384,0.0,0.0,0.0,0.0
1.5399999999999996,0.0890016,-9.5423736,-0.2170176,-0.30662880000000003,0.0,0.0,0.0,0.0
1.5599999999999996,0.1581912,-9.5423736,-0.2170176,-0.3834384,0.0,0.0,0.0,0.0
1.5799999999999996,0.019507200000000002,-9.5423736,-0.2170176,-0.23012400000000002,0.0,0.0,0.0,0.0
1.5999999999999996,0.0192024,-9.5423736,-0.2170176,-0.3834384,0.0,0.0,0.0,0.0
1.6199999999999997,0.11521440000000001,-9.6508824,-0.2170176,-0.30662880000000003,0.0,0.0,0.0,0.0
1.6399999999999997,0.1469136,-9.5423736,-0.2170176,-0.3834384,0.0,0.0,0.0,0.0
1.6599999999999997,-0.04023360000000002,-9.6508824,-0.2170176,-0.23012400000000002,0.0,0.0,0.0,0.0
1.6799999999999997,-0.13502640000000002,-9.5423736,-0.2170176,-0.30662880000000003,0.0,0.0,0.0,0.0
1.6999999999999997,-0.2929128,-9.5423736,-0.2170176,-0.30662880000000003,0.0,0.0,0.0,0.0
1.7199999999999998,-0.1731264,-9.596628,-0.2709672,-0.3834384,0.0,0.0,0.0,0.0
1.7399999999999998,-0.024993600000000008,-9.6508824,-0.2170176,-0.30662880000000003,0.0,0.0,0.0,0.0
1.7599999999999998,0.2295144,-9.596628,-0.2709672,-0.30662880000000003,0.0,0.0,0.0,0.0
1.7799999999999998,0.24475439999999998,-9.5423736,-0.3252216,-0.30662880000000003,0.0,0.0,0.0,0.0
1.7999999999999998,0.07589520000000001,-9.596628,-0.2709672,-0.30662880000000003,0.0,0.0,0.0,0.0
1.8199999999999998,0.086868,-9.596628,-0.16276320000000002,-0.30662880000000003,0.0,0.0,0.0,0.0
1.8399999999999999,0.08260080000000002,-9.5423736,-0.2170176,-0.30662880000000003,0.0,0.0,0.0,0.0
1.8599999999999999,0.1405128,-9.5423736,-0.2170176,-0.30662880000000003,0.0,0.0,0.0,0.0
1.88,0.2535936,-9.596628,-0.16276320000000002,-0.30662880000000003,0.0,0.0,0.0,0.0
1.8999999999999995,0.219456,-9.5423736,-0.2170176,-0.30662880000000003,0.0,0.0,0.0,0.0
1.9199999999999995,0.3706368,-9.488119200000002,-0.2709672,-0.30662880000000003,0.0,0.0,0.0,0.0
1.9399999999999995,0.32004000000000005,-9.5423736,-0.3252216,-0.3834384,0.0,0.0,0.0,0.0
1.9599999999999995,0.43586400000000003,-9.596628,-0.2709672,-0.30662880000000003,0.0,0.0,0.0,0.0
1.9799999999999995,0.40599360000000007,-9.488119200000002,-0.16276320000000002,-0.30662880000000003,0.0,0.0,0.0,0.0
1.9999999999999996,0.391668,-9.596628,-0.16276320000000002,-0.23012400000000002,0.0,0.0,0.0,0.0
2.0199999999999996,0.2959608,-9.596628,-0.16276320000000002,-0.30662880000000003,0.0,0.0,0.0,0.0
2.0399999999999996,0.26761440000000003,-9.596628,-0.2709672,-0.30662880000000003,0.0,0.0,0.0,0.0
2.0599999999999996,0.2566416,-9.596628,-0.2709672,-0.3834384,0.0,0.0,0.0,0.0
2.0799999999999996,0.22768560000000002,-9.488119200000002,-0.2709672,-0.30662880000000003,0.0,0.0,0.0,0.0
2.0999999999999996,0.4407408,-9.5423736,-0.2170176,-0.3834384,0.0,0.0,0.0,0.0
2.1199999999999997,0.3264408,-9.6508824,-0.2170176,-0.30662880000000003,0.0,0.0,0.0,0.0
2.1399999999999997,0.1847088,-9.596628,-0.2709672,-0.30662880000000003,0.0,0.0,0.0,0.0
2.1599999999999997,0.1094232,-9.596628,-0.2709672,-0.3834384,0.0,0.0,0.0,0.0
2.1799999999999997,0.146304,-9.5423736,-0.2170176,-0.30662880000000003,0.0,0.0,0.0,0.0
2.1999999999999997,0.0880872,-9.488119200000002,-0.2709672,-0.23012400000000002,0.0,0.0,0.0,0.0
2.2199999999999998,0.30144719999999997,-9.5423736,-0.3252216,-0.4599432,0.0,0.0,0.0,0.0
2.2399999999999998,0.1901952,-9.596628,-0.2709672,-0.30662880000000003,0.0,0.0,0.0,0.0
2.26,0.2749296,-9.5423736,-0.2170176,-0.30662880000000003,0.0,0.0,0.0,0.0
2.28,0.1566672,-9.5423736,-0.2170176,-0.3834384,0.0,0.0,0.0,0.0
2.3,0.181356,-9.5423736,-0.2170176,-0.3834384,0.0,0.0,0.0,0.0
2.32,0.0880872,-9.596628,-0.2709672,-0.3834384,0.0,0.0,0.0,0.0
2.34,0.225552,-9.5423736,-0.2170176,-0.30662880000000003,0.0,0.0,0.0,0.0
2.36,0.210312,-9.596628,-0.2709672,-0.23012400000000002,0.0,0.0,0.0,0.0
2.38,0.1822704,-9.5423736,-0.2170176,-0.3834384,0.0,0.0,0.0,0.0
2.3999999999999995,0.1749552,-9.5423736,-0.2170176,-0.3834384,0.0,0.0,0.0,0.0
2.4199999999999995,0.26974800000000004,-9.596628,-0.16276320000000002,-0.23012400000000002,0.0,0.0,0.0,0.0
2.4399999999999995,0.29413200000000006,-9.596628,-0.16276320000000002,-0.3834384,0.0,0.0,0.0,0.0
2.4599999999999995,0.1283208,-9.5423736,-0.2170176,-0.30662880000000003,0.0,0.0,0.0,0.0
2.4799999999999995,0.1481328,-9.5423736,-0.2170176,-0.30662880000000003,0.0,0.0,0.0,0.0
2.4999999999999996,0.0783336,-9.596628,-0.16276320000000002,-0.30662880000000003,0.0,0.0,0.0,0.0
2.5199999999999996,0.059435999999999996,-9.596628,-0.16276320000000002,-0.3834384,0.0,0.0,0.0,0.0
2.5399999999999996,-0.016763999999999998,-9.5423736,-0.2170176,-0.3834384,0.0,0.0,0.0,0.0
2.5599999999999996,-0.1411224,-9.596628,-0.16276320000000002,-0.30662880000000003,0.0,0.0,0.0,0.0
2.5799999999999996,-0.014935199999999997,-9.488119200000002,-0.2709672,-0.30662880000000003,0.0,0.0,0.0,0.0
2.5999999999999996,0.0399288,-9.596628,-0.2709672,-0.30662880000000003,0.0,0.0,0.0,0.0
2.6199999999999997,-0.0627888,-9.5423736,-0.2170176,-0.30662880000000003,0.0,0.0,0.0,0.0
2.6399999999999997,0.003962400000000004,-9.596628,-0.16276320000000002,-0.30662880000000003,0.0,0.0,0.0,0.0
2.6599999999999997,0.1581912,-9.6508824,-0.2170176,-0.30662880000000003,0.0,0.0,0.0,0.0
2.6799999999999997,-0.014630399999999997,-9.488119200000002,-0.2709672,-0.30662880000000003,0.0,0.0,0.0,0.0
2.6999999999999997,0.010058399999999993,-9.5423736,-0.3252216,-0.30662880000000003,0.0,0.0,0.0,0.0
2.7199999999999998,0.12161519999999999,-9.5423736,-0.2170176,-0.23012400000000002,0.0,0.0,0.0,0.0
2.7399999999999998,0.0694944,-9.596628,-0.2709672,-0.30662880000000003,0.0,0.0,0.0,0.0
2.76,0.08016240000000001,-9.5423736,-0.2170176,-0.30662880000000003,0.0,0.0,0.0,0.0
2.7799999999999994,0.1228344,-9.596628,-0.16276320000000002,-0.30662880000000003,0.0,0.0,0.0,0.0
2.8,0.1520952,-9.488119200000002,-0.2709672,-0.30662880000000003,0.0,0.0,0.0,0.0
2.8199999999999994,0.1542288,-9.596628,-0.16276320000000002,-0.23012400000000002,0.0,0.0,0.0,0.0
2.84,0.2709672,-9.488119200000002,-0.16276320000000002,-0.3834384,0.0,0.0,0.0,0.0
2.8599999999999994,0.29778960000000004,-9.6508824,-0.2170176,-0.30662880000000003,0.0,0.0,0.0,0.0
2.88,0.3934968,-9.5423736,-0.2170176,-0.30662880000000003,0.0,0.0,0.0,0.0
2.8999999999999995,0.48310800000000004,-9.596628,-0.16276320000000002,-0.23012400000000002,0.0,0.0,0.0,0.0
2.92,0.2798064,-9.596628,-0.2709672,-0.30662880000000003,0.0,0.0,0.0,0.0
2.9399999999999995,0.32918400000000003,-9.596628,-0.2709672,-0.30662880000000003,0.0,0.0,0.0,0.0
2.96,0.37581840000000005,-9.5423736,-0.2170176,-0.3834384,0.0,0.0,0.0,0.0
2.9799999999999995,0.24871680000000004,-9.5423736,-0.2170176,-0.30662880000000003,0.0,0.0,0.0,0.0
3.0,0.1139952,-9.5423736,-0.2170176,-0.30662880000000003,0.0,0.0,0.0,0.0
3.0199999999999996,0.036576,-9.596628,-0.2709672,-0.30662880000000003,0.0,0.0,0.0,0.0
3.0399999999999996,0.0646176,-9.488119200000002,-0.2709672,-0.23012400000000002,0.0,0.0,0.0,0.0
3.0599999999999996,-0.05882640000000001,-9.596628,-0.2709672,-0.30662880000000003,0.0,0.0,0.0,0.0
3.0799999999999996,0.04876799999999999,-9.5423736,-0.2170176,-0.30662880000000003,0.0,0.0,0.0,0.0
3.0999999999999996,0.0536448,-9.596628,-0.2709672,-0.23012400000000002,0.0,0.0,0.0,0.0
3.1199999999999997,0.07924800000000001,-9.7051368,-0.16276320000000002,-0.30662880000000003,0.0,0.0,0.0,0.0
3.1399999999999997,0.0173736,-9.5423736,-0.2170176,-0.30662880000000003,0.0,0.0,0.0,0.0
3.1599999999999997,0.1536192,-9.5423736,-0.2170176,-0.30662880000000003,0.0,0.0,0.0,0.0
3.1799999999999997,0.33162240000000004,-9.5423736,-0.2170176,-0.30662880000000003,0.0,0.0,0.0,0.0
3.1999999999999997,0.35448240000000003,-9.5423736,-0.3252216,-0.23012400000000002,0.0,0.0,0.0,0.0
3.2199999999999998,0.4020312,-9.596628,-0.16276320000000002,-0.3834384,0.0,0.0,0.0,0.0
3.2399999999999998,0.268224,-9.5423736,-0.2170176,-0.3834384,0.0,0.0,0.0,0.0
3.26,0.1877568,-9.488119200000002,-0.16276320000000002,-0.30662880000000003,0.0,0.0,0.0,0.0
3.2799999999999994,0.15483840000000001,-9.5423736,-0.2170176,-0.30662880000000003,0.0,0.0,0.0,0.0
3.3,0.34686239999999996,-9.5423736,-0.2170176,-0.30662880000000003,0.0,0.0,0.0,0.0
3.3199999999999994,0.3038856,-9.596628,-0.2709672,-0.30662880000000003,0.0,0.0,0.0,0.0
3.34,0.37520880000000006,-9.5423736,-0.2170176,-0.30662880000000003,0.0,0.0,0.0,0.0
3.3599999999999994,0.3803904,-9.488119200000002,-0.2709672,-0.30662880000000003,0.0,0.0,0.0,0.0
3.38,0.3819144,-9.596628,-0.2709672,-0.30662880000000003,0.0,0.0,0.0,0.0
3.3999999999999995,0.146304,-9.5423736,-0.2170176,-0.30662880000000003,0.0,0.0,0.0,0.0
3.42,0.1155192,-9.6508824,-0.2170176,-0.30662880000000003,0.0,0.0,0.0,0.0
3.4399999999999995,-0.04145280000000002,-9.596628,-0.2709672,-0.3834384,0.0,0.0,0.0,0.0
3.46,0.006095999999999989,-9.596628,-0.2709672,-0.30662880000000003,0.0,0.0,0.0,0.0
3.4799999999999995,0.1941576,-9.596628,-0.2709672,-0.30662880000000003,0.0,0.0,0.0,0.0
3.5,0.12039599999999999,-9.5423736,-0.2170176,-0.4599432,0.0,0.0,0.0,0.0
3.5199999999999996,0.033527999999999995,-9.5423736,-0.2170176,-0.23012400000000002,0.0,0.0,0.0,0.0
3.5399999999999996,-0.08534399999999999,-9.5423736,-0.2170176,-0.3834384,0.0,0.0,0.0,0.0
3.5599999999999996,-0.11125200000000002,-9.596628,-0.2709672,-0.30662880000000003,0.0,0.0,0.0,0.0
3.5799999999999996,-0.11033760000000002,-9.6508824,-0.2170176,-0.23012400000000002,0.0,0.0,0.0,0.0
3.5999999999999996,-0.11856720000000003,-9.6508824,-0.1085088,-0.3834384,0.0,0.0,0.0,0.0
3.6199999999999997,0.011277599999999994,-9.488119200000002,-0.16276320000000002,-0.3834384,0.0,0.0,0.0,0.0
3.6399999999999997,0.0856488,-9.488119200000002,-0.2709672,-0.30662880000000003,0.0,0.0,0.0,0.0
3.6599999999999997,0.214884,-9.488119200000002,-0.2709672,-0.30662880000000003,0.0,0.0,0.0,0.0
3.6799999999999997,-0.003352800000000003,-9.596628,-0.2709672,-0.3834384,0.0,0.0,0.0,0.0
3.6999999999999997,0.1091184,-9.5423736,-0.2170176,-0.3834384,0.0,0.0,0.0,0.0
3.7199999999999998,0.07589520000000001,-9.5423736,-0.3252216,-0.30662880000000003,0.0,0.0,0.0,0.0
3.7399999999999998,0.014630399999999997,-9.596628,-0.2709672,-0.23012400000000002,0.0,0.0,0.0,0.0
3.76,-0.060655200000000006,-9.596628,-0.16276320000000002,-0.3834384,0.0,0.0,0.0,0.0
3.78,-0.10485120000000002,-9.7051368,-0.16276320000000002,-0.30662880000000003,0.0,0.0,0.0,0.0
3.8,-0.03749040000000002,-9.488119200000002,-0.2709672,-0.3834384,0.0,0.0,0.0,0.0
3.82,0.0018288000000000017,-9.5423736,-0.2170176,-0.3834384,0.0,0.0,0.0,0.0
3.84,-0.06797040000000001,-9.5423736,-0.2170176,-0.3834384,0.0,0.0,0.0,0.0
3.8599999999999994,-0.03657600000000002,-9.5423736,-0.2170176,-0.30662880000000003,0.0,0.0,0.0,0.0
3.88,0.0054863999999999885,-9.5423736,-0.2170176,-0.30662880000000003,0.0,0.0,0.0,0.0
3.8999999999999995,-0.1947672,-9.5423736,-0.1085088,-0.3834384,0.0,0.0,0.0,0.0
3.92,-0.052425599999999996,-9.596628,-0.2709672,-0.30662880000000003,0.0,0.0,0.0,0.0
3.9399999999999995,0.0621792,-9.596628,-0.2709672,-0.30662880000000003,0.0,0.0,0.0,0.0
3.9599999999999995,0.0201168,-9.488119200000002,-0.16276320000000002,-0.3834384,0.0,0.0,0.0,0.0
3.9799999999999995,0.039319200000000006,-9.5423736,-0.2170176,-0.3834384,0.0,0.0,0.0,0.0
3.9999999999999996,0.141732,-9.488119200000002,-0.16276320000000002,-0.23012400000000002,0.0,0.0,0.0,0.0
4.02,0.3297936,-9.596628,-0.16276320000000002,-0.23012400000000002,0.0,0.0,0.0,0.0
4.04,0.5489448,-9.5423736,-0.2170176,-0.3834384,0.0,0.0,0.0,0.0
4.06,0.3864864,-9.596628,-0.2709672,-0.30662880000000003,0.0,0.0,0.0,0.0
4.08,0.3133344,-9.5423736,-0.2170176,-0.30662880000000003,0.0,0.0,0.0,0.0
4.1,0.2855976,-9.596628,-0.2709672,-0.3834384,0.0,0.0,0.0,0.0
4.119999999999999,0.16916399999999998,-9.488119200000002,-0.2709672,-0.30662880000000003,0.0,0.0,0.0,0.0
4.14,0.18836640000000002,-9.596628,-0.2709672,-0.30662880000000003,0.0,0.0,0.0,0.0
4.16,0.0377952,-9.5423736,-0.3252216,-0.30662880000000003,0.0,0.0,0.0,0.0
4.18,-0.14478000000000002,-9.5423736,-0.2170176,-0.3834384,0.0,0.0,0.0,0.0
4.199999999999999,0.0003048000000000003,-9.596628,-0.2709672,-0.30662880000000003,0.0,0.0,0.0,0.0
4.22,0.1161288,-9.596628,-0.2709672,-0.3834384,0.0,0.0,0.0,0.0
4.239999999999999,0.1450848,-9.4338648,-0.2170176,-0.3834384,0.0,0.0,0.0,0.0
4.26,0.219456,-9.5423736,-0.2170176,-0.30662880000000003,0.0,0.0,0.0,0.0
4.279999999999999,0.1289304,-9.596628,-0.2709672,-0.23012400000000002,0.0,0.0,0.0,0.0
4.3,0.1389888,-9.596628,-0.2709672,-0.30662880000000003,0.0,0.0,0.0,0.0
4.319999999999999,0.11643360000000001,-9.5423736,-0.2170176,-0.3834384,0.0,0.0,0.0,0.0
4.34,0.0950976,-9.5423736,-0.2170176,-0.30662880000000003,0.0,0.0,0.0,0.0
4.359999999999999,0.210312,-9.596628,-0.2709672,-0.30662880000000003,0.0,0.0,0.0,0.0
4.38,0.056388,-9.5423736,-0.2170176,-0.30662880000000003,0.0,0.0,0.0,0.0
4.3999999999999995,0.006095999999999989,-9.488119200000002,-0.2709672,-0.30662880000000003,0.0,0.0,0.0,0.0
4.42,0.0649224,-9.5423736,-0.2170176,-0.23012400000000002,0.0,0.0,0.0,0.0
4.4399999999999995,0.028651199999999995,-9.2714064,-0.37947600000000004,-0.30662880000000003,0.0,0.0,0.0,0.0
4.46,0.038709600000000004,-9.6508824,-0.2170176,-0.3834384,0.0,0.0,0.0,0.0
4.4799999999999995,0.2602992,-9.6508824,-0.2170176,-0.3834384,0.0,0.0,0.0,0.0
4.5,0.30358080000000004,-9.596628,-0.2709672,-0.30662880000000003,0.0,0.0,0.0,0.0
4.52,0.27889200000000003,-9.488119200000002,-0.2709672,-0.3834384,0.0,0.0,0.0,0.0
4.54,0.1758696,-9.596628,-0.2709672,-0.30662880000000003,0.0,0.0,0.0,0.0
4.56,-0.07437120000000001,-9.2714064,0.16276320000000002,0.5367528,0.0,0.0,0.0,0.0
4.58,-0.08869679999999999,-8.7834216,-2.9279088,0.4599432,0.0,0.0,0.0,0.0
4.6,-0.21000720000000003,-9.7593912,-2.4941784,-1.0735056,0.0,0.0,0.0,0.0
4.62,-0.11399520000000002,-10.355580000000002,0.0542544,-0.4599432,0.0,0.0,0.0,0.0
4.64,-0.31455360000000004,3.2531304000000003,0.8674608,-2.9135831999999997,0.0,0.0,0.0,0.0
4.659999999999999,-0.1588008,-13.1207256,-10.952073600000002,-0.9201912000000001,0.0,0.0,0.0,0.0
4.68,-0.1728216,-5.096560800000001,-2.1686520000000002,-0.6900672,0.0,0.0,0.0,0.0
4.699999999999999,0.0691896,-10.626852000000001,1.7349216,-2.9135831999999997,0.0,0.0,0.0,0.0
4.72,-0.06400800000000001,-36.6515904,2.7108912000000003,-3.0672024,0.0,0.0,0.0,0.0
4.739999999999999,0.11856720000000001,-52.971192,-48.7423968,8.050987200000002,0.0,0.0,0.0,0.0
4.76,0.31211520000000004,-137.1179376,-17.729301600000003,-5.060594400000001,0.0,0.0,0.0,0.0
4.779999999999999,0.51054,-206.30052720000003,10.681106400000001,-23.4628944,0.0,0.0,0.0,0.0
4.8,0.9704832,-200.82449040000003,21.253704000000003,8.817864,0.0,0.0,0.0,0.0
4.819999999999999,1.0116312,-222.0781944,0.0,-17.0221656,0.0,0.0,0.0,0.0
4.84,1.5035784,-222.0781944,0.0,-31.897320000000004,0.0,0.0,0.0,0.0
4.859999999999999,1.9574256000000003,-222.0781944,0.0,-25.3797816,0.0,0.0,0.0,0.0
4.88,2.3109936,-222.0781944,0.0,-29.0602416,0.0,0.0,0.0,0.0
4.8999999999999995,2.9830775999999997,-222.0781944,0.0,-29.7503088,0.0,0.0,0.0,0.0
4.92,3.8173152,-222.0781944,0.0,-31.0539384,0.0,0.0,0.0,0.0
4.9399999999999995,4.7557944,-222.0781944,0.0,-30.6705,0.0,0.0,0.0,0.0
4.96,5.8100976,-222.0781944,0.0,-31.5138816,0.0,0.0,0.0,0.0
4.9799999999999995,7.0914768,-222.0781944,0.0,-32.0506344,0.0,0.0,0.0,0.0
5.0,8.3125056,-222.0781944,0.0,-34.810903200000006,0.0,0.0,0.0,0.0
5.02,9.7182432,-222.0781944,0.0,-34.8877128,0.0,0.0,0.0,0.0
5.04,11.2855248,-222.0781944,0.0,-35.8844088,0.0,0.0,0.0,0.0
5.06,12.925044000000002,-222.0781944,0.0,-33.8910168,0.0,0.0,0.0,0.0
5.08,14.7209256,-222.0781944,0.0,-34.1976456,0.0,0.0,0.0,0.0
5.1,16.6493952,-222.0781944,0.0,-36.6512856,0.0,0.0,0.0,0.0
5.119999999999999,18.67662,-222.0781944,0.0,-35.1178368,0.0,0.0,0.0,0.0
5.14,20.809915200000002,-222.0781944,0.0,-37.2645432,0.0,0.0,0.0,0.0
5.16,23.1712008,-222.0781944,0.0,-36.8046,0.0,0.0,0.0,0.0
5.18,25.588264800000005,-222.0781944,0.0,-39.028116,0.0,0.0,0.0,0.0
5.199999999999999,28.179674400000003,-222.0781944,0.0,-39.028116,0.0,0.0,0.0,0.0
5.22,30.865876800000002,-222.0781944,0.0,-40.331745600000005,0.0,0.0,0.0,0.0
5.239999999999999,33.7495896,-222.0781944,0.0,-38.4913632,0.0,0.0,0.0,0.0
5.26,36.5379,-222.0781944,0.0,-40.638374400000004,0.0,0.0,0.0,0.0
5.279999999999999,39.4301472,-222.0781944,0.0,-43.935396000000004,0.0,0.0,0.0,0.0
5.3,42.3827448,-222.0781944,0.0,-44.77908240000001,0.0,0.0,0.0,0.0
5.319999999999999,45.432268799999996,-222.0781944,0.0,-42.785385600000005,0.0,0.0,0.0,0.0
5.34,48.443692799999994,-222.0781944,0.0,-43.7055768,0.0,0.0,0.0,0.0
5.359999999999999,51.5578344,-222.0781944,0.0,-45.3155304,0.0,0.0,0.0,0.0
5.38,54.661308,-222.0781944,0.0,-47.002598400000004,0.0,0.0,0.0,0.0
5.3999999999999995,57.870852,-222.0781944,0.0,-47.692665600000005,0.0,0.0,0.0,0.0
5.42,61.0743,-222.0781944,0.0,-48.6893616,0.0,0.0,0.0,0.0
5.4399999999999995,63.9985512,-222.0781944,0.0,-48.842676000000004,0.0,0.0,0.0,0.0
5.46,67.01302319999999,-222.0781944,0.0,-50.6830584,0.0,0.0,0.0,0.0
5.4799999999999995,70.99279680000001,-222.0781944,0.0,-35.2711512,0.0,0.0,0.0,0.0
5.5,77.4356592,-144.220692,10.626852000000001,-21.776131200000002,0.0,0.0,0.0,0.0
5.52,87.4038384,-10.626852000000001,9.3256608,-6.5175384,0.0,0.0,0.0,0.0
5.54,100.984812,57.1460376,7.915960800000001,-2.9903928,0.0,0.0,0.0,0.0
5.56,114.6029712,110.00902560000002,14.476171200000001,11.1181896,0.0,0.0,0.0,0.0
5.58,127.4990592,140.5338312,9.217152,1.1500104,0.0,0.0,0.0,0.0
5.6,138.3965736,145.4133744,9.217152,3.910584,0.0,0.0,0.0,0.0
5.619999999999999,146.5393056,140.371068,9.9218496,5.827471200000001,0.0,0.0,0.0,0.0
5.64,152.4155448,134.5698096,7.6989432,6.1341,0.0,0.0,0.0,0.0
5.66,156.25206240000003,135.9252552,9.596628,2.5304496,0.0,0.0,0.0,0.0
5.68,158.62889280000002,130.12399680000001,10.735360799999999,5.2907184,0.0,0.0,0.0,0.0
5.699999999999999,159.83955840000002,132.12988560000002,-1.2469368,-1.7635728,0.0,0.0,0.0,0.0
5.72,162.13500720000002,121.7743056,4.012082400000001,1.1500104,0.0,0.0,0.0,0.0
5.74,163.76233440000001,118.250208,9.1628976,5.827471200000001,0.0,0.0,0.0,0.0
5.76,164.8718064,114.5090928,4.7713392,6.0572904,0.0,0.0,0.0,0.0
5.779999999999999,165.60728880000002,109.412532,9.108643200000001,3.2205168000000004,0.0,0.0,0.0,0.0
5.8,166.2595608,109.14156480000001,-1.030224,0.996696,0.0,0.0,0.0,0.0
5.819999999999999,166.8587976,106.0508928,-1.4097000000000002,4.2937176,0.0,0.0,0.0,0.0
5.84,167.50466880000002,102.47254080000002,8.6749128,7.6675488,0.0,0.0,0.0,0.0
5.859999999999999,168.21424320000003,100.4123976,7.915960800000001,1.3801344,0.0,0.0,0.0,0.0
5.88,168.90217680000003,98.94844320000001,9.488119200000002,2.0702016,0.0,0.0,0.0,0.0
5.8999999999999995,169.71690720000004,96.3460608,6.777228,6.364224,0.0,0.0,0.0,0.0
5.92,170.797728,90.49024320000001,15.8858712,5.4440328000000004,0.0,0.0,0.0,0.0
5.9399999999999995,172.0007736,86.369652,10.355580000000002,1.6102584000000002,0.0,0.0,0.0,0.0
5.96,173.28337200000004,87.02040000000001,9.813645600000001,3.68046,0.0,0.0,0.0,0.0
5.9799999999999995,174.83206080000002,82.95406320000001,6.9399912,3.9870888,0.0,0.0,0.0,0.0
6.0,176.48864880000002,79.59242400000001,10.3013256,4.370527200000001,0.0,0.0,0.0,0.0
6.02,178.40888880000003,82.411824,2.1686520000000002,3.2205168000000004,0.0,0.0,0.0,0.0
6.039999999999999,180.40258560000004,80.4056304,6.018276,4.1404032,0.0,0.0,0.0,0.0
6.06,182.67182160000002,77.803248,4.933797600000001,3.450336,0.0,0.0,0.0,0.0
6.08,185.0498712,74.6586264,3.6326064,6.5175384,0.0,0.0,0.0,0.0
6.1,187.53216240000003,75.58034160000001,-2.9279088,3.7572696000000003,0.0,0.0,0.0,0.0
6.119999999999999,190.00591920000002,70.2667632,4.554321600000001,2.8370784000000002,0.0,0.0,0.0,0.0
6.14,192.50497440000004,69.5078112,5.964021600000001,5.827471200000001,0.0,0.0,0.0,0.0
6.16,195.13936080000002,68.69460480000001,3.5240976,0.996696,0.0,0.0,0.0,0.0
6.18,197.72345520000002,67.9356528,-0.9217152000000001,4.2937176,0.0,0.0,0.0,0.0
6.199999999999999,200.33101920000001,63.706552800000004,3.8496240000000004,5.060594400000001,0.0,0.0,0.0,0.0
6.22,203.01051600000002,65.007744,3.0903671999999998,2.683764,0.0,0.0,0.0,0.0
6.24,205.70464320000002,63.92326560000001,3.198876,3.3738312000000006,0.0,0.0,0.0,0.0
6.26,208.23174000000003,62.8933464,4.8795432000000005,-0.30662880000000003,0.0,0.0,0.0,0.0
6.279999999999999,211.03102320000002,60.2906592,2.4941784,2.8370784000000002,0.0,0.0,0.0,0.0
6.3,213.53129760000002,58.935213600000004,4.3915584,8.1277968,0.0,0.0,0.0,0.0
6.319999999999999,216.1894584,57.471259200000006,8.3496912,1.6867632000000001,0.0,0.0,0.0,0.0
6.34,218.72143200000002,56.387085600000006,1.4097000000000002,5.750661600000001,0.0,0.0,0.0,0.0
6.359999999999999,221.18543520000003,53.13395520000001,4.7713392,3.68046,0.0,0.0,0.0,0.0
6.38,223.4799696,57.959244000000005,0.5964936000000001,4.2937176,0.0,0.0,0.0,0.0
6.3999999999999995,225.84978960000004,56.3328312,-0.16276320000000002,5.6741568000000004,0.0,0.0,0.0,0.0
6.42,228.00259200000002,52.754479200000006,-2.2229064000000003,2.223516,0.0,0.0,0.0,0.0
6.4399999999999995,230.33126400000003,52.266494400000006,6.1807343999999995,1.6102584000000002,0.0,0.0,0.0,0.0
6.46,232.56636240000003,50.80254000000001,0.8132064000000001,0.5367528,0.0,0.0,0.0,0.0
6.4799999999999995,234.62132400000002,45.651724800000004,5.8555128,7.5142344,0.0,0.0,0.0,0.0
6.5,236.83600080000002,47.7664272,2.8736544000000004,4.7539656,0.0,0.0,0.0,0.0
6.52,238.82451600000005,45.3807576,5.476036800000001,3.8337744,0.0,0.0,0.0,0.0
6.539999999999999,240.88770720000002,45.597470400000006,5.801258400000001,5.597347200000001,0.0,0.0,0.0,0.0
6.56,242.90670240000006,47.549409600000004,5.1508152,5.367223200000001,0.0,0.0,0.0,0.0
6.58,244.82877120000003,46.6819488,2.6566368,0.9201912000000001,0.0,0.0,0.0,0.0
6.6,246.68256480000002,43.266055200000004,4.012082400000001,0.996696,0.0,0.0,0.0,0.0
6.619999999999999,248.52965280000004,44.7300096,2.0061936,2.6069544000000002,0.0,0.0,0.0,0.0
6.64,250.39807680000004,43.1035968,1.8976848000000002,-1.2268200000000002,0.0,0.0,0.0,0.0
6.66,252.33660480000003,41.91060960000001,1.3554456000000001,3.2205168000000004,0.0,0.0,0.0,0.0
6.68,254.18186400000002,41.422929599999996,0.9759696,2.3768304000000002,0.0,0.0,0.0,0.0
6.699999999999999,255.9850608,42.39859440000001,-0.4337304,0.30662880000000003,0.0,0.0,0.0,0.0
6.72,257.8431216,38.8744968,4.8252888,1.6867632000000001,0.0,0.0,0.0,0.0
6.74,259.7484264,39.4709904,1.5182088,0.8433816000000001,0.0,0.0,0.0,0.0
6.76,261.54095520000004,38.7117336,4.6628304,3.5271456,0.0,0.0,0.0,0.0
6.779999999999999,263.33744640000003,36.7058448,4.8252888,6.0572904,0.0,0.0,0.0,0.0
6.8,265.2006888,36.5430816,0.8674608,3.8337744,0.0,0.0,0.0,0.0
6.82,267.003276,36.5430816,1.7349216,2.6069544000000002,0.0,0.0,0.0,0.0
6.84,268.7689824,35.567112,-0.1085088,1.5334488,0.0,0.0,0.0,0.0
6.859999999999999,270.4789104,34.916668800000004,2.7108912000000003,1.3801344,0.0,0.0,0.0,0.0
6.88,272.1949344,34.53719280000001,3.8496240000000004,1.0735056,0.0,0.0,0.0,0.0
6.8999999999999995,274.00361760000004,33.5612232,0.0542544,0.5367528,0.0,0.0,0.0,0.0
6.92,275.7714576,32.368235999999996,1.4639544,0.996696,0.0,0.0,0.0,0.0
6.9399999999999995,277.4362752,33.615477600000006,0.1085088,1.6102584000000002,0.0,0.0,0.0,0.0
6.959999999999999,279.15930960000003,32.9104752,1.1387328,2.3003256,0.0,0.0,0.0,0.0
6.9799999999999995,280.8738096,30.6875688,0.9759696,1.6867632000000001,0.0,0.0,0.0,0.0
7.0,282.58495680000004,31.5550296,2.0601432,2.5304496,0.0,0.0,0.0,0.0
7.02,284.2683672,30.199584,1.2469368,0.8433816000000001,0.0,0.0,0.0,0.0
7.039999999999999,285.93044160000005,29.711599200000002,1.5182088,1.5334488,0.0,0.0,0.0,0.0
7.06,287.565084,29.7658536,0.8132064000000001,4.984089600000001,0.0,0.0,0.0,0.0
7.08,289.1674176,29.386377600000003,0.2170176,-1.5334488,0.0,0.0,0.0,0.0
7.1,290.789868,27.2177256,2.6023824,1.4569440000000002,0.0,0.0,0.0,0.0
7.119999999999999,292.37208480000004,28.9526472,1.3011912,0.15331440000000002,0.0,0.0,0.0,0.0
7.14,293.92229760000004,28.8441384,-0.650748,0.9201912000000001,0.0,0.0,0.0,0.0
7.16,295.6035744,27.976677600000002,1.1926824,0.0768096,0.0,0.0,0.0,0.0
7.18,297.2312064,26.5127232,1.789176,0.6135624,0.0,0.0,0.0,0.0
7.199999999999999,298.7768472,27.1634712,0.16276320000000002,0.23012400000000002,0.0,0.0,0.0,0.0
7.22,300.41057520000004,26.729740800000002,2.1143976,-0.4599432,0.0,0.0,0.0,0.0
7.24,301.96261680000003,26.9464536,2.548128,2.3768304000000002,0.0,0.0,0.0,0.0
7.26,303.5555016,26.5127232,1.2469368,1.6867632000000001,0.0,0.0,0.0,0.0
7.279999999999999,305.1974592,24.8863104,1.789176,1.5334488,0.0,0.0,0.0,0.0
7.3,306.79613520000004,24.235562400000003,1.5724632,-0.6135624,0.0,0.0,0.0,0.0
7.32,308.28508320000003,23.6933232,1.8976848000000002,2.683764,0.0,0.0,0.0,0.0
7.34,309.90174240000005,23.9103408,1.2469368,3.450336,0.0,0.0,0.0,0.0
7.359999999999999,311.4946272,23.259592800000004,1.6806672000000002,-0.5367528,0.0,0.0,0.0,0.0
7.38,313.06678560000006,23.151084,0.16276320000000002,1.0735056,0.0,0.0,0.0,0.0
7.3999999999999995,314.56152480000003,21.904147200000004,-0.1085088,1.8400776,0.0,0.0,0.0,0.0
7.42,316.0026192000001,22.771608,-0.4337304,1.6102584000000002,0.0,0.0,0.0,0.0
7.4399999999999995,317.4607824,21.0366864,1.4097000000000002,2.1470112,0.0,0.0,0.0,0.0
7.459999999999999,318.91041120000006,21.361908,1.9519392,0.8433816000000001,0.0,0.0,0.0,0.0
7.4799999999999995,320.36674560000006,20.8739232,1.789176,1.6102584000000002,0.0,0.0,0.0,0.0
7.5,321.8663616,20.277734400000003,3.1446216000000002,2.0702016,0.0,0.0,0.0,0.0
7.52,323.23369440000005,20.440192800000002,2.0061936,0.7668768,0.0,0.0,0.0,0.0
7.539999999999999,324.6110856,20.6572104,2.2229064000000003,0.8433816000000001,0.0,0.0,0.0,0.0
7.56,326.0241384,19.844004,1.9519392,-0.23012400000000002,0.0,0.0,0.0,0.0
7.58,327.35946720000004,19.1390016,1.3554456000000001,0.6900672,0.0,0.0,0.0,0.0
7.6,328.75179360000004,19.952208,0.0,0.4599432,0.0,0.0,0.0,0.0
7.619999999999999,330.0984,18.217286400000003,1.3011912,0.7668768,0.0,0.0,0.0,0.0
7.64,331.4413488,18.81378,1.030224,0.8433816000000001,0.0,0.0,0.0,0.0
7.66,332.8092912,18.6510168,2.0601432,1.6867632000000001,0.0,0.0,0.0,0.0
7.68,334.15163040000004,17.3498256,1.1926824,0.6135624,0.0,0.0,0.0,0.0
7.699999999999999,335.49640800000003,18.2715408,0.4879848,0.6135624,0.0,0.0,0.0,0.0
7.72,336.69975840000006,17.8920648,0.3252216,1.5334488,0.0,0.0,0.0,0.0
7.74,338.0030832,16.970349600000002,1.2469368,1.3801344,0.0,0.0,0.0,0.0
7.76,339.28263360000005,16.590873600000002,0.7589520000000001,1.5334488,0.0,0.0,0.0,0.0
7.779999999999999,340.5557832,16.8618408,-0.0542544,0.0768096,0.0,0.0,0.0,0.0
7.8,341.8630704,16.482364800000003,1.6264128000000002,0.5367528,0.0,0.0,0.0,0.0
7.82,343.16304240000005,16.373856,1.4097000000000002,0.6900672,0.0,0.0,0.0,0.0
7.84,344.50690560000004,16.753332,0.9217152000000001,1.0735056,0.0,0.0,0.0,0.0
7.859999999999999,345.7678632,15.8858712,0.37947600000000004,0.7668768,0.0,0.0,0.0,0.0
7.88,347.1291,15.3978864,0.9759696,2.0702016,0.0,0.0,0.0,0.0
7.8999999999999995,348.5500776,15.506395200000002,0.9759696,0.3834384,0.0,0.0,0.0,0.0
7.92,349.82962800000007,15.181173600000001,1.3011912,0.0768096,0.0,0.0,0.0,0.0
7.9399999999999995,351.0604104000001,15.181173600000001,1.1926824,0.6900672,0.0,0.0,0.0,0.0
7.959999999999999,352.43262000000004,14.5304256,0.8674608,0.7668768,0.0,0.0,0.0,0.0
7.9799999999999995,353.70729360000007,14.693188800000001,-0.16276320000000002,0.30662880000000003,0.0,0.0,0.0,0.0
8.0,355.02067680000005,14.747443200000001,0.9759696,0.30662880000000003,0.0,0.0,0.0,0.0
8.02,356.2703568,15.0726648,-0.4337304,-0.5367528,0.0,0.0,0.0,0.0
8.04,357.4167096,14.205204,0.4337304,0.7668768,0.0,0.0,0.0,0.0
8.059999999999999,358.56214800000004,14.0424408,1.5724632,0.30662880000000003,0.0,0.0,0.0,0.0
8.08,359.73227520000006,13.554456,0.2170176,0.6135624,0.0,0.0,0.0,0.0
8.1,360.93836880000003,12.6327408,1.5724632,0.9201912000000001,0.0,0.0,0.0,0.0
8.12,361.96828800000003,13.3377432,1.0844784,0.8433816000000001,0.0,0.0,0.0,0.0
8.14,363.0451464,13.283488800000002,0.37947600000000004,0.15331440000000002,0.0,0.0,0.0,0.0
8.16,364.15187520000006,13.012521600000001,0.8674608,0.7668768,0.0,0.0,0.0,0.0
8.18,365.32200240000003,12.0908064,1.3554456000000001,0.8433816000000001,0.0,0.0,0.0,0.0
8.2,366.42659760000004,12.0908064,0.2709672,0.5367528,0.0,0.0,0.0,0.0
8.219999999999999,367.51381920000006,12.4702824,0.9759696,0.6900672,0.0,0.0,0.0,0.0
8.24,368.6711448000001,12.3075192,0.7046976,0.7668768,0.0,0.0,0.0,0.0
8.26,369.6961872,12.795504,-0.4337304,0.23012400000000002,0.0,0.0,0.0,0.0
8.28,370.8285192000001,11.928043200000001,1.1926824,0.6900672,0.0,0.0,0.0,0.0
8.3,371.9431728,12.361773600000001,-1.4097000000000002,0.6900672,0.0,0.0,0.0,0.0
8.32,372.9468792,11.657076,0.4879848,-0.0768096,0.0,0.0,0.0,0.0
8.34,373.99173360000003,11.6028216,-0.3252216,-0.23012400000000002,0.0,0.0,0.0,0.0
8.36,375.01128960000005,11.1690912,-0.4337304,-0.0768096,0.0,0.0,0.0,0.0
8.379999999999999,376.059192,11.277295200000001,-0.3252216,0.0768096,0.0,0.0,0.0,0.0
8.399999999999999,377.10953280000007,10.5725976,1.030224,0.3834384,0.0,0.0,0.0,0.0
8.42,378.08916000000005,11.0605824,-0.1085088,0.6135624,0.0,0.0,0.0,0.0
8.44,379.11968880000006,9.7051368,1.1387328,0.9201912000000001,0.0,0.0,0.0,0.0
8.459999999999999,380.170944,10.4640888,0.9217152000000001,0.0768096,0.0,0.0,0.0,0.0
8.48,381.0819912,10.247376,0.4879848,0.30662880000000003,0.0,0.0,0.0,0.0
8.5,382.04515920000006,9.379915200000001,0.2709672,0.6900672,0.0,0.0,0.0,0.0
8.52,383.07782160000005,10.0303584,0.2709672,0.4599432,0.0,0.0,0.0,0.0
8.54,384.07451760000004,10.193121600000001,0.0,0.15331440000000002,0.0,0.0,0.0,0.0
8.559999999999999,385.0535352,9.379915200000001,0.37947600000000004,0.0768096,0.0,0.0,0.0,0.0
8.58,385.9447704,9.1628976,1.030224,0.23012400000000002,0.0,0.0,0.0,0.0
8.6,386.8360056000001,9.813645600000001,-0.2709672,0.0768096,0.0,0.0,0.0,0.0
8.62,387.77692320000006,9.0543888,0.5964936000000001,0.3834384,0.0,0.0,0.0,0.0
8.64,388.71235440000004,9.0543888,0.16276320000000002,0.0768096,0.0,0.0,0.0,0.0
8.66,389.5956648,9.108643200000001,-0.2170176,0.6135624,0.0,0.0,0.0,0.0
8.68,390.55913760000004,8.4039456,0.37947600000000004,0.5367528,0.0,0.0,0.0,0.0
8.7,391.5543096,8.6206584,0.4879848,0.3834384,0.0,0.0,0.0,0.0
8.719999999999999,392.5516152000001,8.94588,0.0542544,-0.0768096,0.0,0.0,0.0,0.0
8.739999999999998,393.53947200000005,9.0001344,0.1085088,-0.6135624,0.0,0.0,0.0,0.0
8.76,394.49471520000003,8.837676,0.0542544,0.8433816000000001,0.0,0.0,0.0,0.0
8.78,395.4587976000001,8.4039456,-0.16276320000000002,0.30662880000000003,0.0,0.0,0.0,0.0
8.8,396.418308,8.5121496,-0.16276320000000002,-0.30662880000000003,0.0,0.0,0.0,0.0
8.82,397.3863528,8.3496912,-0.1085088,0.0768096,0.0,0.0,0.0,0.0
8.84,398.3617128,7.970215200000001,-0.37947600000000004,-0.0768096,0.0,0.0,0.0,0.0
8.86,399.3913272,8.186928,-0.0542544,0.6900672,0.0,0.0,0.0,0.0
8.879999999999999,400.39503360000003,7.6446888,0.37947600000000004,0.5367528,0.0,0.0,0.0,0.0
8.899999999999999,401.3630784,7.6446888,0.7046976,0.6900672,0.0,0.0,0.0,0.0
8.92,402.1540344,7.4822304,0.0,-0.3834384,0.0,0.0,0.0,0.0
8.94,403.00259760000006,7.427976000000001,0.7046976,-0.23012400000000002,0.0,0.0,0.0,0.0
8.96,403.86487680000005,7.1024496,0.4879848,-0.15331440000000002,0.0,0.0,0.0,0.0
8.98,404.67899760000006,7.5364848,-0.16276320000000002,-0.3834384,0.0,0.0,0.0,0.0
9.0,405.5138448000001,6.9399912,0.9759696,0.15331440000000002,0.0,0.0,0.0,0.0
9.02,406.27096800000004,7.2652128,-0.4337304,-0.15331440000000002,0.0,0.0,0.0,0.0
9.04,407.04790320000006,6.777228,0.37947600000000004,0.23012400000000002,0.0,0.0,0.0,0.0
9.059999999999999,407.8931136,6.506260800000001,0.8674608,0.4599432,0.0,0.0,0.0,0.0
9.08,408.67523040000003,7.3737216000000005,0.0,-0.0768096,0.0,0.0,0.0,0.0
9.1,409.50276240000005,6.777228,-0.2709672,0.30662880000000003,0.0,0.0,0.0,0.0
9.120000000000001,410.39399760000003,6.614769600000001,-0.1085088,0.0768096,0.0,0.0,0.0,0.0
9.14,411.303216,6.2349888,0.2709672,0.3834384,0.0,0.0,0.0,0.0
9.16,412.09447680000005,6.1267848,0.8132064000000001,0.30662880000000003,0.0,0.0,0.0,0.0
9.18,412.8336168,5.8555128,0.3252216,0.0768096,0.0,0.0,0.0,0.0
9.2,413.57915760000003,6.343497600000001,0.4879848,0.4599432,0.0,0.0,0.0,0.0
9.219999999999999,414.34268160000005,5.9097672,-0.0542544,-0.15331440000000002,0.0,0.0,0.0,0.0
9.239999999999998,415.1357712000001,6.0725304,0.1085088,0.15331440000000002,0.0,0.0,0.0,0.0
9.26,415.9672656,5.801258400000001,-0.0542544,0.23012400000000002,0.0,0.0,0.0,0.0
9.28,416.74542,5.8555128,0.2170176,0.0768096,0.0,0.0,0.0,0.0
9.3,417.5415576,5.5302912,0.4337304,0.7668768,0.0,0.0,0.0,0.0
9.32,418.2654576,5.6930544,0.0542544,0.5367528,0.0,0.0,0.0,0.0
9.34,419.040564,5.367528,0.7046976,0.30662880000000003,0.0,0.0,0.0,0.0
9.36,419.7745224,5.801258400000001,-0.0542544,0.0768096,0.0,0.0,0.0,0.0
9.379999999999999,420.48501120000003,5.5302912,0.1085088,0.0,0.0,0.0,0.0,0.0
9.399999999999999,421.1897088,5.367528,0.2709672,0.15331440000000002,0.0,0.0,0.0,0.0
9.42,421.91513280000004,5.3132736,0.0,-0.0768096,0.0,0.0,0.0,0.0
9.44,422.561004,5.0423064,0.37947600000000004,-0.0768096,0.0,0.0,0.0,0.0
9.46,423.2626536000001,4.933797600000001,0.37947600000000004,0.0768096,0.0,0.0,0.0,0.0
9.48,423.91523040000004,4.988052,0.0,-0.23012400000000002,0.0,0.0,0.0,0.0
9.5,424.5882288,4.8252888,0.0542544,0.4599432,0.0,0.0,0.0,0.0
9.52,425.2789056000001,4.7713392,0.2170176,0.23012400000000002,0.0,0.0,0.0,0.0
9.54,425.87722800000006,4.554321600000001,0.3252216,0.23012400000000002,0.0,0.0,0.0,0.0
9.559999999999999,426.6294744,4.7170848,0.2709672,0.15331440000000002,0.0,0.0,0.0,0.0
9.58,427.3302096,4.608576,0.2709672,0.0,0.0,0.0,0.0,0.0
9.6,427.93767600000007,4.7713392,0.2170176,0.23012400000000002,0.0,0.0,0.0,0.0
9.620000000000001,428.47961040000007,4.5000672,-0.37947600000000004,0.15331440000000002,0.0,0.0,0.0,0.0
9.64,429.1267008,4.554321600000001,-0.1085088,-0.30662880000000003,0.0,0.0,0.0,0.0
9.66,429.69210480000004,4.5000672,-0.37947600000000004,0.0768096,0.0,0.0,0.0,0.0
9.68,430.28768400000007,4.445812800000001,0.0,-0.15331440000000002,0.0,0.0,0.0,0.0
9.7,430.8863112,4.1748456,-0.37947600000000004,-0.30662880000000003,0.0,0.0,0.0,0.0
9.719999999999999,431.46390720000005,4.012082400000001,0.0,-0.5367528,0.0,0.0,0.0,0.0
9.739999999999998,432.2682744,3.957828,-0.16276320000000002,-0.23012400000000002,0.0,0.0,0.0,0.0
9.76,433.00985280000003,3.7411152,0.5964936000000001,0.15331440000000002,0.0,0.0,0.0,0.0
9.78,433.79440800000003,4.012082400000001,-0.4337304,-0.15331440000000002,0.0,0.0,0.0,0.0
9.8,434.32140720000007,4.0663368,-0.16276320000000002,0.0768096,0.0,0.0,0.0,0.0
9.82,435.05688960000003,3.7411152,0.0542544,0.0,0.0,0.0,0.0,0.0
9.84,435.6640512,3.6326064,0.5964936000000001,0.15331440000000002,0.0,0.0,0.0,0.0
9.86,436.37057760000005,3.5240976,0.2709672,-0.30662880000000003,0.0,0.0,0.0,0.0
9.879999999999999,436.9402488,3.5240976,0.5964936000000001,-0.15331440000000002,0.0,0.0,0.0,0.0
9.899999999999999,437.51754,4.012082400000001,0.0,0.0,0.0,0.0,0.0,0.0
9.92,438.12531120000006,3.5240976,0.16276320000000002,0.23012400000000002,0.0,0.0,0.0,0.0
9.94,438.83427600000005,3.198876,-0.0542544,0.3834384,0.0,0.0,0.0,0.0
9.96,439.48167120000005,3.3073848000000003,-0.16276320000000002,-0.15331440000000002,0.0,0.0,0.0,0.0
9.98,440.1991704,3.2531304000000003,0.1085088,-0.15331440000000002,0.0,0.0,0.0,0.0
10.0,440.890152,3.3616392,-0.3252216,-0.4599432,0.0,0.0,0.0,0.0
10.02,441.37386960000003,3.5240976,0.2709672,0.30662880000000003,0.0,0.0,0.0,0.0
10.04,441.9511608,2.8736544000000004,0.16276320000000002,0.0768096,0.0,0.0,0.0,0.0
10.059999999999999,442.47480720000004,3.4698432,0.0,-0.23012400000000002,0.0,0.0,0.0,0.0
10.08,442.97803200000004,3.2531304000000003,0.2170176,-0.3834384,0.0,0.0,0.0,0.0
10.1,443.5266720000001,2.8194000000000004,0.650748,0.0768096,0.0,0.0,0.0,0.0
10.120000000000001,444.10335360000005,2.8736544000000004,0.16276320000000002,0.15331440000000002,0.0,0.0,0.0,0.0
10.14,444.6303528,3.198876,0.0542544,0.23012400000000002,0.0,0.0,0.0,0.0
10.16,445.140588,3.198876,-0.0542544,-0.0768096,0.0,0.0,0.0,0.0
10.18,445.6989816,2.4941784,-0.2170176,0.23012400000000002,0.0,0.0,0.0,0.0
10.2,446.2122648,2.7651456,0.16276320000000002,-0.15331440000000002,0.0,0.0,0.0,0.0
10.219999999999999,446.71488000000005,3.0903671999999998,0.2709672,0.23012400000000002,0.0,0.0,0.0,0.0
10.239999999999998,447.2565096,2.6566368,-0.37947600000000004,-0.30662880000000003,0.0,0.0,0.0,0.0
10.26,447.69725040000003,2.548128,0.16276320000000002,-0.15331440000000002,0.0,0.0,0.0,0.0
10.28,448.13890560000004,2.548128,0.2709672,0.23012400000000002,0.0,0.0,0.0,0.0
10.3,448.633596,2.4941784,0.1085088,0.0,0.0,0.0,0.0,0.0
10.32,449.2224696,2.7108912000000003,-0.1085088,-0.23012400000000002,0.0,0.0,0.0,0.0
10.34,449.69521440000005,2.3856696,-0.1085088,-0.0768096,0.0,0.0,0.0,0.0
10.36,450.0576216,2.6023824,0.1085088,-0.23012400000000002,0.0,0.0,0.0,0.0
10.379999999999999,450.48678000000007,2.2229064000000003,0.37947600000000004,-0.15331440000000002,0.0,0.0,0.0,0.0
10.399999999999999,450.9259968,2.3314152,0.2709672,-0.30662880000000003,0.0,0.0,0.0,0.0
10.42,451.42312560000005,2.4399240000000004,-0.2709672,0.0,0.0,0.0,0.0,0.0
10.44,451.83552000000003,2.3856696,-0.3252216,-0.3834384,0.0,0.0,0.0,0.0
10.46,452.28692880000006,2.3314152,0.37947600000000004,-0.15331440000000002,0.0,0.0,0.0,0.0
10.48,452.71090560000005,2.1143976,0.16276320000000002,-0.0768096,0.0,0.0,0.0,0.0
10.5,453.0757512,2.0601432,0.3252216,-0.0768096,0.0,0.0,0.0,0.0
10.52,453.4896696,2.548128,-0.2709672,0.0,0.0,0.0,0.0,0.0
10.54,453.86030640000007,2.2229064000000003,-0.0542544,0.23012400000000002,0.0,0.0,0.0,0.0
10.559999999999999,454.3050096,2.2771608000000003,-0.3252216,-0.30662880000000003,0.0,0.0,0.0,0.0
10.58,454.80213840000005,2.1143976,-0.2709672,-0.23012400000000002,0.0,0.0,0.0,0.0
10.6,455.3449872,2.1686520000000002,-0.2170176,-0.0768096,0.0,0.0,0.0,0.0
10.620000000000001,455.71592880000003,1.8976848000000002,0.0542544,-0.3834384,0.0,0.0,0.0,0.0
10.64,456.14904960000007,1.6264128000000002,0.3252216,-0.0768096,0.0,0.0,0.0,0.0
10.66,456.6736104000001,1.8434304000000001,0.1085088,0.0768096,0.0,0.0,0.0,0.0
10.68,457.1280672000001,1.5182088,-0.1085088,-0.15331440000000002,0.0,0.0,0.0,0.0
10.7,457.60843200000005,1.5724632,0.2709672,0.0,0.0,0.0,0.0,0.0
10.719999999999999,458.0244840000001,1.6806672000000002,0.37947600000000004,0.15331440000000002,0.0,0.0,0.0,0.0
10.739999999999998,458.38597680000004,1.789176,0.0542544,-0.4599432,0.0,0.0,0.0,0.0
10.76,458.7627096,1.8434304000000001,0.1085088,-0.30662880000000003,0.0,0.0,0.0,0.0
10.78,459.1897344,1.5182088,-0.3252216,-0.30662880000000003,0.0,0.0,0.0,0.0
10.8,459.47624640000004,1.4639544,-0.16276320000000002,-0.0768096,0.0,0.0,0.0,0.0
10.82,459.7795224,1.3554456000000001,0.2709672,-0.15331440000000002,0.0,0.0,0.0,0.0
10.84,460.1465016000001,1.7349216,0.0,-0.15331440000000002,0.0,0.0,0.0,0.0
10.86,460.44642480000005,1.1387328,0.16276320000000002,0.0768096,0.0,0.0,0.0,0.0
10.879999999999999,460.81370880000003,1.6264128000000002,-0.1085088,-0.23012400000000002,0.0,0.0,0.0,0.0
10.899999999999999,461.2389048,1.6806672000000002,-0.16276320000000002,-0.5367528,0.0,0.0,0.0,0.0
10.92,461.62691520000004,1.3554456000000001,-0.16276320000000002,0.0,0.0,0.0,0.0,0.0
10.94,461.95884240000004,1.2469368,-0.0542544,0.0768096,0.0,0.0,0.0,0.0
10.96,462.3057048,1.7349216,0.1085088,-0.30662880000000003,0.0,0.0,0.0,0.0
10.98,462.7147464,1.3554456000000001,-0.16276320000000002,-0.0768096,0.0,0.0,0.0,0.0
11.0,463.07837280000007,1.4097000000000002,-0.2170176,-0.15331440000000002,0.0,0.0,0.0,0.0
11.02,463.3792104000001,1.2469368,-0.16276320000000002,-0.30662880000000003,0.0,0.0,0.0,0.0
11.04,463.7861184,1.1926824,-0.2170176,-0.15331440000000002,0.0,0.0,0.0,0.0
11.059999999999999,464.1369432,0.9759696,0.0,-0.0768096,0.0,0.0,0.0,0.0
11.08,464.3664576,1.3011912,-0.3252216,-0.0768096,0.0,0.0,0.0,0.0
11.1,464.6529696,1.030224,0.0542544,-0.15331440000000002,0.0,0.0,0.0,0.0
11.120000000000001,464.9772768,1.3554456000000001,-0.16276320000000002,0.0,0.0,0.0,0.0,0.0
11.14,465.28482,1.1387328,-0.16276320000000002,-0.23012400000000002,0.0,0.0,0.0,0.0
11.16,465.60364080000005,0.9759696,-0.1085088,-0.23012400000000002,0.0,0.0,0.0,0.0
11.18,466.00506240000004,1.030224,-0.2709672,-0.23012400000000002,0.0,0.0,0.0,0.0
11.2,466.33058880000004,1.3554456000000001,-0.37947600000000004,-0.4599432,0.0,0.0,0.0,0.0
11.219999999999999,466.62837840000003,1.1926824,0.0,-0.15331440000000002,0.0,0.0,0.0,0.0
11.239999999999998,466.8783144000001,1.1926824,0.0,-0.15331440000000002,0.0,0.0,0.0,0.0
11.26,467.09959920000006,1.1387328,-0.16276320000000002,-0.23012400000000002,0.0,0.0,0.0,0.0
11.28,467.37209040000005,0.7046976,0.0542544,-0.23012400000000002,0.0,0.0,0.0,0.0
11.3,467.6890824,0.650748,0.0,-0.23012400000000002,0.0,0.0,0.0,0.0
11.32,467.9826048,1.2469368,-0.37947600000000004,-0.30662880000000003,0.0,0.0,0.0,0.0
11.34,468.2075472,1.0844784,-0.2170176,-0.15331440000000002,0.0,0.0,0.0,0.0
11.36,468.46083600000003,1.1926824,-0.2170176,-0.0768096,0.0,0.0,0.0,0.0
11.379999999999999,468.6531648,0.8674608,-0.3252216,0.0,0.0,0.0,0.0,0.0
11.399999999999999,468.86743920000004,1.030224,-0.16276320000000002,-0.30662880000000003,0.0,0.0,0.0,0.0
11.42,469.078056,1.0844784,-0.4337304,-0.15331440000000002,0.0,0.0,0.0,0.0
11.44,469.24935360000006,0.8674608,-0.2170176,-0.3834384,0.0,0.0,0.0,0.0
11.46,469.3871232000001,0.7589520000000001,0.0,0.0,0.0,0.0,0.0,0.0
11.48,469.6587,0.7046976,-0.2709672,-0.0768096,0.0,0.0,0.0,0.0
11.5,469.87297440000003,0.5964936000000001,-0.0542544,-0.3834384,0.0,0.0,0.0,0.0
11.52,470.12412960000006,0.5422392,0.1085088,-0.5367528,0.0,0.0,0.0,0.0
11.54,470.3219448000001,0.7589520000000001,-0.1085088,-0.4599432,0.0,0.0,0.0,0.0
11.559999999999999,470.59778880000005,0.650748,-0.1085088,-0.0768096,0.0,0.0,0.0,0.0
11.58,470.8660128,0.7046976,-0.2709672,-0.3834384,0.0,0.0,0.0,0.0
11.6,471.16502160000005,0.8132064000000001,-0.16276320000000002,-0.15331440000000002,0.0,0.0,0.0,0.0
11.620000000000001,471.43995120000005,0.5422392,-0.2170176,-0.23012400000000002,0.0,0.0,0.0,0.0
11.64,471.546936,0.5422392,-0.2170176,-0.15331440000000002,0.0,0.0,0.0,0.0
11.66,471.69537360000004,0.4337304,0.0,-0.30662880000000003,0.0,0.0,0.0,0.0
11.68,471.9788376,0.650748,-0.3252216,-0.30662880000000003,0.0,0.0,0.0,0.0
11.7,472.1437344,0.4879848,0.0542544,-0.15331440000000002,0.0,0.0,0.0,0.0
11.719999999999999,472.4052528,0.5422392,-0.3252216,-0.23012400000000002,0.0,0.0,0.0,0.0
11.739999999999998,472.57655040000003,0.4879848,-0.0542544,-0.3834384,0.0,0.0,0.0,0.0
11.76,472.75760160000004,0.37947600000000004,0.0542544,-0.0768096,0.0,0.0,0.0,0.0
11.78,472.9834584000001,0.4337304,-0.3252216,0.0,0.0,0.0,0.0,0.0
11.8,473.16237600000005,0.4879848,-0.0542544,-0.4599432,0.0,0.0,0.0,0.0
11.82,473.26509360000006,0.37947600000000004,-0.16276320000000002,-0.23012400000000002,0.0,0.0,0.0,0.0
11.84,473.32757760000004,0.4337304,-0.2170176,-0.0768096,0.0,0.0,0.0,0.0
11.86,473.5046664,0.3252216,-0.1085088,-0.30662880000000003,0.0,0.0,0.0,0.0
11.879999999999999,473.5967160000001,0.4337304,-0.1085088,-0.30662880000000003,0.0,0.0,0.0,0.0
11.899999999999999,473.83720320000003,0.2170176,0.1085088,-0.4599432,0.0,0.0,0.0,0.0
11.92,474.04538160000004,0.37947600000000004,0.0542544,-0.15331440000000002,0.0,0.0,0.0,0.0
11.94,474.2755056000001,0.4337304,-0.2170176,-0.3834384,0.0,0.0,0.0,0.0
11.96,474.36359280000005,0.4879848,-0.0542544,-0.30662880000000003,0.0,0.0,0.0,0.0
11.98,474.6138336,0.37947600000000004,-0.0542544,-0.15331440000000002,0.0,0.0,0.0,0.0
12.0,474.79305600000004,0.37947600000000004,-0.16276320000000002,-0.15331440000000002,0.0,0.0,0.0,0.0
12.02,474.875352,0.2709672,-0.16276320000000002,-0.15331440000000002,0.0,0.0,0.0,0.0
12.04,474.9488088,0.3252216,-0.1085088,-0.30662880000000003,0.0,0.0,0.0,0.0
12.059999999999999,475.10151360000003,0.37947600000000004,-0.2709672,-0.30662880000000003,0.0,0.0,0.0,0.0
12.08,475.25025600000004,0.4879848,-0.2709672,-0.15331440000000002,0.0,0.0,0.0,0.0
12.1,475.2469032,0.4337304,-0.1085088,-0.30662880000000003,0.0,0.0,0.0,0.0
12.120000000000001,475.471236,0.16276320000000002,-0.16276320000000002,-0.23012400000000002,0.0,0.0,0.0,0.0
12.14,475.49836320000003,0.1085088,0.0,-0.23012400000000002,0.0,0.0,0.0,0.0
12.16,475.6147968,0.1085088,0.1085088,-0.23012400000000002,0.0,0.0,0.0,0.0
12.18,475.6733184,0.2170176,0.0,-0.30662880000000003,0.0,0.0,0.0,0.0
12.2,475.84248240000005,0.3252216,-0.3252216,-0.23012400000000002,0.0,0.0,0.0,0.0
12.219999999999999,475.8982608,0.3252216,-0.1085088,-0.0768096,0.0,0.0,0.0,0.0
12.239999999999998,475.9921392,0.37947600000000004,-0.16276320000000002,-0.23012400000000002,0.0,0.0,0.0,0.0
12.26,476.05828080000003,0.16276320000000002,-0.2709672,-0.3834384,0.0,0.0,0.0,0.0
12.28,476.1631320000001,0.37947600000000004,-0.2709672,-0.0768096,0.0,0.0,0.0,0.0
12.3,476.22714,0.16276320000000002,-0.0542544,-0.23012400000000002,0.0,0.0,0.0,0.0
12.32,476.26889760000006,0.3252216,-0.3252216,-0.30662880000000003,0.0,0.0,0.0,0.0
12.34,476.3786256,0.1085088,0.0,-0.30662880000000003,0.0,0.0,0.0,0.0
12.36,476.48561040000004,0.0542544,-0.0542544,-0.23012400000000002,0.0,0.0,0.0,0.0
12.379999999999999,476.5167,0.37947600000000004,-0.16276320000000002,-0.15331440000000002,0.0,0.0,0.0,0.0
12.399999999999999,476.6672712000001,0.1085088,-0.2170176,-0.30662880000000003,0.0,0.0,0.0,0.0
12.42,476.71207680000003,0.3252216,-0.1085088,-0.15331440000000002,0.0,0.0,0.0,0.0
12.44,476.78858160000004,0.2709672,-0.0542544,-0.23012400000000002,0.0,0.0,0.0,0.0
12.46,476.83155840000006,0.16276320000000002,-0.16276320000000002,-0.30662880000000003,0.0,0.0,0.0,0.0
12.48,476.91934080000004,0.3252216,-0.2170176,-0.30662880000000003,0.0,0.0,0.0,0.0
12.5,476.96048880000006,0.2709672,-0.16276320000000002,-0.4599432,0.0,0.0,0.0,0.0
12.52,476.99858880000005,0.37947600000000004,-0.0542544,-0.23012400000000002,0.0,0.0,0.0,0.0
12.54,476.9242176,0.37947600000000004,-0.2709672,-0.30662880000000003,0.0,0.0,0.0,0.0
12.559999999999999,476.86539120000003,0.37947600000000004,-0.2709672,-0.30662880000000003,0.0,0.0,0.0,0.0
12.58,476.87087760000003,0.4337304,-0.3252216,-0.23012400000000002,0.0,0.0,0.0,0.0
12.6,476.9196456000001,0.37947600000000004,-0.2709672,-0.23012400000000002,0.0,0.0,0.0,0.0
12.620000000000001,477.05558640000004,0.4337304,-0.1085088,-0.0768096,0.0,0.0,0.0,0.0
12.64,477.129348,0.3252216,-0.1085088,-0.0768096,0.0,0.0,0.0,0.0
12.66,477.03973680000007,0.37947600000000004,-0.2709672,0.0,0.0,0.0,0.0,0.0
12.68,477.08149440000005,0.4337304,-0.3252216,-0.0768096,0.0,0.0,0.0,0.0
12.7,477.11380320000006,0.37947600000000004,-0.16276320000000002,-0.0768096,0.0,0.0,0.0,0.0
12.719999999999999,477.1500744,0.5964936000000001,-0.2709672,-0.23012400000000002,0.0,0.0,0.0,0.0
12.739999999999998,477.16531440000006,0.4879848,-0.16276320000000002,-0.23012400000000002,0.0,0.0,0.0,0.0
12.759999999999998,477.24852480000004,0.37947600000000004,-0.16276320000000002,-0.15331440000000002,0.0,0.0,0.0,0.0
12.780000000000001,477.2674224,0.3252216,-0.1085088,-0.0768096,0.0,0.0,0.0,0.0
12.8,477.243648,0.4337304,-0.2170176,-0.23012400000000002,0.0,0.0,0.0,0.0
12.82,477.23237040000004,0.5422392,-0.4337304,-0.0768096,0.0,0.0,0.0,0.0
12.84,477.12203280000006,0.4879848,-0.2709672,-0.0768096,0.0,0.0,0.0,0.0
12.86,477.07631280000004,0.37947600000000004,-0.16276320000000002,-0.23012400000000002,0.0,0.0,0.0,0.0
12.879999999999999,477.01230480000004,0.3252216,-0.3252216,-0.15331440000000002,0.0,0.0,0.0,0.0
12.899999999999999,476.90867280000003,0.4879848,-0.37947600000000004,-0.23012400000000002,0.0,0.0,0.0,0.0
12.919999999999998,476.78553360000006,0.2709672,0.0542544,-0.0768096,0.0,0.0,0.0,0.0
12.940000000000001,476.78187600000007,0.2170176,-0.2170176,-0.23012400000000002,0.0,0.0,0.0,0.0
12.96,476.733108,0.3252216,-0.1085088,-0.30662880000000003,0.0,0.0,0.0,0.0
12.98,476.75718720000003,0.3252216,-0.4337304,-0.23012400000000002,0.0,0.0,0.0,0.0
13.0,476.67062400000003,0.4337304,-0.3252216,-0.23012400000000002,0.0,0.0,0.0,0.0
13.02,476.63862000000006,0.3252216,-0.5422392,-0.15331440000000002,0.0,0.0,0.0,0.0
13.04,476.51791920000005,0.2170176,-0.2170176,-0.15331440000000002,0.0,0.0,0.0,0.0
13.059999999999999,476.42129760000006,0.2709672,-0.37947600000000004,-0.0768096,0.0,0.0,0.0,0.0
13.079999999999998,476.29602480000005,0.4337304,-0.3252216,-0.23012400000000002,0.0,0.0,0.0,0.0
13.100000000000001,476.2704216,0.37947600000000004,-0.2709672,-0.15331440000000002,0.0,0.0,0.0,0.0
13.120000000000001,476.19452640000003,0.2709672,-0.2709672,-0.30662880000000003,0.0,0.0,0.0,0.0
13.14,476.088456,0.37947600000000004,-0.0542544,0.0,0.0,0.0,0.0,0.0
13.16,476.0073792,0.2709672,-0.2709672,-0.15331440000000002,0.0,0.0,0.0,0.0
13.18,475.8366912,0.16276320000000002,-0.16276320000000002,0.0,0.0,0.0,0.0,0.0
13.2,475.78639920000006,0.37947600000000004,-0.16276320000000002,0.0768096,0.0,0.0,0.0,0.0
13.219999999999999,475.7053224,0.4337304,-0.4337304,-0.23012400000000002,0.0,0.0,0.0,0.0
13.239999999999998,475.72086720000004,0.2170176,-0.2170176,-0.0768096,0.0,0.0,0.0,0.0
13.259999999999998,475.6702704,0.4337304,-0.3252216,-0.23012400000000002,0.0,0.0,0.0,0.0
13.280000000000001,475.5751728,0.2170176,-0.1085088,-0.0768096,0.0,0.0,0.0,0.0
13.3,475.529148,0.3252216,-0.2170176,-0.15331440000000002,0.0,0.0,0.0,0.0
13.32,475.38894,0.37947600000000004,-0.37947600000000004,-0.15331440000000002,0.0,0.0,0.0,0.0
13.34,475.19325840000005,0.2170176,-0.1085088,-0.15331440000000002,0.0,0.0,0.0,0.0
13.36,475.062804,0.4337304,-0.3252216,-0.15331440000000002,0.0,0.0,0.0,0.0
13.379999999999999,474.9140616,0.3252216,-0.2170176,-0.23012400000000002,0.0,0.0,0.0,0.0
13.399999999999999,474.84852960000006,0.3252216,-0.2170176,-0.3834384,0.0,0.0,0.0,0.0
13.419999999999998,474.7445928000001,0.5964936000000001,-0.37947600000000004,0.0,0.0,0.0,0.0,0.0
13.440000000000001,474.60712800000005,0.4337304,-0.1085088,-0.15331440000000002,0.0,0.0,0.0,0.0
13.46,474.47880720000006,0.4337304,-0.2170176,-0.30662880000000003,0.0,0.0,0.0,0.0
13.48,474.39620640000004,0.4337304,-0.4337304,-0.30662880000000003,0.0,0.0,0.0,0.0
13.5,474.19138080000005,0.4337304,0.1085088,0.0,0.0,0.0,0.0,0.0
13.52,474.06854640000006,0.5422392,-0.2170176,-0.23012400000000002,0.0,0.0,0.0,0.0
13.54,473.9789352,0.5422392,-0.1085088,-0.23012400000000002,0.0,0.0,0.0,0.0
13.559999999999999,473.64761760000005,0.5422392,-0.2170176,-0.0768096,0.0,0.0,0.0,0.0
13.579999999999998,473.503752,0.5422392,-0.3252216,-0.30662880000000003,0.0,0.0,0.0,0.0
13.600000000000001,473.2757616,0.5422392,0.0,-0.0768096,0.0,0.0,0.0,0.0
13.620000000000001,473.17395840000006,0.4879848,0.0542544,0.0,0.0,0.0,0.0,0.0
13.64,473.0447232000001,0.5964936000000001,-0.16276320000000002,-0.23012400000000002,0.0,0.0,0.0,0.0
13.66,472.87921680000005,0.7046976,-0.0542544,-0.23012400000000002,0.0,0.0,0.0,0.0
13.68,472.7444952,0.7589520000000001,-0.3252216,-0.23012400000000002,0.0,0.0,0.0,0.0
13.7,472.50126480000006,0.5964936000000001,-0.37947600000000004,-0.15331440000000002,0.0,0.0,0.0,0.0
13.719999999999999,472.3260048,0.9217152000000001,-0.37947600000000004,-0.3834384,0.0,0.0,0.0,0.0
13.739999999999998,472.1352,0.650748,0.0,-0.23012400000000002,0.0,0.0,0.0,0.0
13.759999999999998,471.98127600000004,0.9217152000000001,-0.16276320000000002,-0.30662880000000003,0.0,0.0,0.0,0.0
13.780000000000001,471.79717680000005,0.7046976,-0.2709672,-0.15331440000000002,0.0,0.0,0.0,0.0
13.8,471.575892,-0.4879848,-0.37947600000000004,-0.4599432,0.0,0.0,0.0,0.0
13.82,471.3966696,-3.3616392,-1.7349216,-0.7668768,0.0,0.0,0.0,0.0
13.84,471.1961112000001,-77.9117568,-144.16643760000002,-91.3979376,0.0,0.0,0.0,0.0
13.86,470.99189520000004,24.45258,27.380184,97.14890400000002,0.0,0.0,0.0,0.0
13.879999999999999,470.7843264,103.17754320000002,-6.4520064,62.797944,0.0,0.0,0.0,0.0
13.899999999999999,471.3655800000001,208.68619680000003,-13.283488800000002,-40.791688799999996,0.0,0.0,0.0,0.0
13.919999999999998,473.0962344,221.9696856,0.0,29.980432800000003,0.0,0.0,0.0,0.0
13.940000000000001,473.31812880000007,5.7470040000000004,55.08589440000001,-1.1500104,0.0,0.0,0.0,0.0
13.96,473.5689792,2.4941784,178.7036304,-31.437376800000003,0.0,0.0,0.0,0.0
13.98,472.20469440000005,7.3194672,57.200292,-9.2013024,0.0,0.0,0.0,0.0
14.0,471.51401760000005,-8.186928,18.054828,-1.6867632000000001,0.0,0.0,0.0,0.0
14.02,471.4323312,-222.0781944,0.0,-157.03296000000003,0.0,0.0,0.0,0.0
14.04,471.35765520000007,-0.0542544,-222.02394,-3.910584,0.0,0.0,0.0,0.0
14.059999999999999,467.8353864,-19.1390016,9.596628,16.7920416,0.0,0.0,0.0,0.0
14.079999999999998,464.58743760000004,192.14957760000001,7.807452,86.1840288,0.0,0.0,0.0,0.0
14.100000000000001,463.47126000000003,-3.9035736000000005,-16.2653472,44.9323968,0.0,0.0,0.0,0.0
14.120000000000001,462.27888240000004,1.3011912,-8.241182400000001,23.999647200000002,0.0,0.0,0.0,0.0
14.14,463.9001136,-0.3252216,-9.3256608,23.846332800000003,0.0,0.0,0.0,0.0
14.16,464.8925424,10.4098344,-8.241182400000001,22.08276,0.0,0.0,0.0,0.0
14.18,465.62528160000005,5.9097672,-14.58468,7.5142344,0.0,0.0,0.0,0.0
14.2,466.31870160000005,-32.3139816,13.771473600000002,36.267847200000006,0.0,0.0,0.0,0.0
14.219999999999999,467.00328240000005,-5.7470040000000004,2.2771608000000003,-2.4536400000000005,0.0,0.0,0.0,0.0
14.239999999999998,467.46048240000005,27.705405600000002,-1.030224,-8.357616,0.0,0.0,0.0,0.0
