time,baro_altitude,accl_x,accl_y,accl_z,gps_altitude,gyro_roll,gyro_pitch,gyro_yaw
0.0,0.0,-3.9035736000000005,-1.0844784,-9.4311216,0.0,0.0,0.0,0.0
0.020000000000000018,0.08412480000000001,-3.7411152,-1.1387328,-9.5079312,0.0,0.0,0.0,0.0
0.040000000000000036,0.10210799999999999,-3.8496240000000004,-1.1387328,-9.5079312,0.0,0.0,0.0,0.0
0.06000000000000005,0.0707136,-3.957828,-1.1387328,-9.2778072,0.0,0.0,0.0,0.0
0.08000000000000007,0.14782800000000001,-3.9035736000000005,-1.0844784,-9.5079312,0.0,0.0,0.0,0.0
0.10000000000000009,0.1258824,-3.6868608000000003,-1.0844784,-9.5079312,0.0,0.0,0.0,0.0
0.1200000000000001,0.011277600000000002,-3.7953696000000003,-1.1926824,-9.4311216,0.0,0.0,0.0,0.0
0.14000000000000012,0.0679704,-4.012082400000001,-1.0844784,-9.3546168,0.0,0.0,0.0,0.0
0.16000000000000014,0.26456640000000003,-3.6868608000000003,-1.0844784,-9.4311216,0.0,0.0,0.0,0.0
0.18000000000000016,0.188976,-3.7953696000000003,-1.1926824,-9.4311216,0.0,0.0,0.0,0.0
0.20000000000000018,0.22494240000000001,-4.012082400000001,-1.1926824,-9.4311216,0.0,0.0,0.0,0.0
0.2200000000000002,0.31699200000000005,-3.8496240000000004,-1.1387328,-9.5079312,0.0,0.0,0.0,0.0
0.2400000000000002,0.2862072,-3.6326064,-1.1387328,-9.5079312,0.0,0.0,0.0,0.0
0.26000000000000023,0.2581656,-3.9035736000000005,-1.3011912,-9.3546168,0.0,0.0,0.0,0.0
0.28000000000000025,0.39867840000000004,-3.957828,-1.1387328,-9.2778072,0.0,0.0,0.0,0.0
0.2999999999999998,0.2599944,-3.7411152,-1.030224,-9.5079312,0.0,0.0,0.0,0.0
0.31999999999999984,0.22860000000000003,-3.7953696000000003,-1.1926824,-9.3546168,0.0,0.0,0.0,0.0
0.33999999999999986,0.1524,-4.0663368,-1.1387328,-9.2778072,0.0,0.0,0.0,0.0
0.3599999999999999,0.2401824,-3.8496240000000004,-1.1387328,-9.5079312,0.0,0.0,0.0,0.0
0.3799999999999999,0.1435608,-3.578352,-1.0844784,-9.584436,0.0,0.0,0.0,0.0
0.3999999999999999,0.2813304,-3.9035736000000005,-1.3011912,-9.3546168,0.0,0.0,0.0,0.0
0.41999999999999993,0.2764536,-3.9035736000000005,-1.0844784,-9.5079312,0.0,0.0,0.0,0.0
0.43999999999999995,0.12131040000000001,-3.6868608000000003,-1.0844784,-9.5079312,0.0,0.0,0.0,0.0
0.45999999999999996,-0.0643128,-3.7953696000000003,-1.1926824,-9.3546168,0.0,0.0,0.0,0.0
0.48,-0.12649200000000002,-3.8496240000000004,-1.1387328,-9.2778072,0.0,0.0,0.0,0.0
0.5,-0.13472160000000002,-3.7953696000000003,-1.0844784,-9.5079312,0.0,0.0,0.0,0.0
0.52,-0.08199120000000001,-3.7953696000000003,-1.0844784,-9.5079312,0.0,0.0,0.0,0.0
0.54,0.030175200000000003,-3.9035736000000005,-1.1926824,-9.4311216,0.0,0.0,0.0,0.0
0.56,0.2063496,-3.9035736000000005,-1.0844784,-9.4311216,0.0,0.0,0.0,0.0
0.5800000000000001,0.31181040000000004,-3.6868608000000003,-1.0844784,-9.4311216,0.0,0.0,0.0,0.0
0.6000000000000001,0.3422904,-3.9035736000000005,-1.3011912,-9.4311216,0.0,0.0,0.0,0.0
0.6200000000000001,0.5251704,-3.9035736000000005,-1.0844784,-9.5079312,0.0,0.0,0.0,0.0
0.6400000000000001,0.5986272000000001,-3.8496240000000004,-1.1387328,-9.5079312,0.0,0.0,0.0,0.0
0.6600000000000001,0.5309616,-3.8496240000000004,-1.1387328,-9.4311216,0.0,0.0,0.0,0.0
0.6800000000000002,0.5007864000000001,-3.8496240000000004,-1.2469368,-9.3546168,0.0,0.0,0.0,0.0
0.7000000000000002,0.6010656000000001,-3.7953696000000003,-1.0844784,-9.4311216,0.0,0.0,0.0,0.0
0.7200000000000002,0.37703760000000003,-3.9035736000000005,-1.1926824,-9.5079312,0.0,0.0,0.0,0.0
0.7400000000000002,0.3267456,-3.9035736000000005,-1.1926824,-9.4311216,0.0,0.0,0.0,0.0
0.7600000000000002,0.36728400000000005,-3.7953696000000003,-1.1926824,-9.3546168,0.0,0.0,0.0,0.0
0.7800000000000002,0.3325368,-3.9035736000000005,-1.0844784,-9.584436,0.0,0.0,0.0,0.0
0.7999999999999998,0.23835360000000003,-3.8496240000000004,-1.2469368,-9.4311216,0.0,0.0,0.0,0.0
0.8199999999999998,0.33101280000000005,-3.7411152,-1.1387328,-9.4311216,0.0,0.0,0.0,0.0
0.8399999999999999,0.23987760000000002,-3.7411152,-1.1387328,-9.5079312,0.0,0.0,0.0,0.0
0.8599999999999999,0.3194304,-3.9035736000000005,-1.1926824,-9.5079312,0.0,0.0,0.0,0.0
0.8799999999999999,0.249936,-3.9035736000000005,-1.1926824,-9.3546168,0.0,0.0,0.0,0.0
0.8999999999999999,0.19903440000000003,-3.7953696000000003,-1.1926824,-9.4311216,0.0,0.0,0.0,0.0
0.9199999999999999,0.1438656,-3.7953696000000003,-1.0844784,-9.4311216,0.0,0.0,0.0,0.0
0.94,0.18836640000000002,-3.8496240000000004,-1.2469368,-9.4311216,0.0,0.0,0.0,0.0
0.96,0.1594104,-3.7953696000000003,-1.1926824,-9.5079312,0.0,0.0,0.0,0.0
0.98,0.1578864,-3.8496240000000004,-1.030224,-9.4311216,0.0,0.0,0.0,0.0
1.0,0.224028,-3.8496240000000004,-1.1387328,-9.4311216,0.0,0.0,0.0,0.0
1.02,0.22890480000000002,-3.8496240000000004,-1.2469368,-9.5079312,0.0,0.0,0.0,0.0
1.04,0.2517648,-3.7953696000000003,-1.1926824,-9.4311216,0.0,0.0,0.0,0.0
1.06,0.22067520000000002,-3.7411152,-1.1387328,-9.5079312,0.0,0.0,0.0,0.0
1.08,0.2127504,-3.8496240000000004,-1.1387328,-9.5079312,0.0,0.0,0.0,0.0
1.1,0.37094160000000004,-3.7411152,-1.2469368,-9.3546168,0.0,0.0,0.0,0.0
1.12,0.381,-3.9035736000000005,-1.0844784,-9.5079312,0.0,0.0,0.0,0.0
1.1400000000000001,0.2859024,-3.8496240000000004,-1.1387328,-9.5079312,0.0,0.0,0.0,0.0
1.1600000000000001,0.24323039999999999,-3.8496240000000004,-1.1387328,-9.4311216,0.0,0.0,0.0,0.0
1.1800000000000002,0.15880080000000002,-3.7411152,-1.1387328,-9.5079312,0.0,0.0,0.0,0.0
1.2000000000000002,0.17526,-3.8496240000000004,-1.1387328,-9.4311216,0.0,0.0,0.0,0.0
1.2200000000000002,0.2898648,-3.8496240000000004,-1.1387328,-9.2778072,0.0,0.0,0.0,0.0
1.2400000000000002,0.214884,-3.6326064,-1.1387328,-9.5079312,0.0,0.0,0.0,0.0
1.2600000000000002,0.2231136,-3.7953696000000003,-1.0844784,-9.5079312,0.0,0.0,0.0,0.0
1.2800000000000002,0.23042880000000002,-3.7953696000000003,-1.1926824,-9.4311216,0.0,0.0,0.0,0.0
1.2999999999999998,0.12039600000000002,-3.9035736000000005,-1.0844784,-9.5079312,0.0,0.0,0.0,0.0
1.3199999999999998,0.051206400000000006,-3.6868608000000003,-0.9759696,-9.5079312,0.0,0.0,0.0,0.0
1.3399999999999999,0.1155192,-3.8496240000000004,-1.1387328,-9.4311216,0.0,0.0,0.0,0.0
1.3599999999999999,0.1374648,-3.9035736000000005,-1.1926824,-9.3546168,0.0,0.0,0.0,0.0
1.38,0.2048256,-3.7411152,-1.1387328,-9.5079312,0.0,0.0,0.0,0.0
1.4,0.19263360000000002,-3.8496240000000004,-1.1387328,-9.4311216,0.0,0.0,0.0,0.0
1.42,0.1511808,-3.8496240000000004,-1.2469368,-9.2778072,0.0,0.0,0.0,0.0
1.44,0.07101840000000001,-3.8496240000000004,-1.030224,-9.584436,0.0,0.0,0.0,0.0
1.46,0.09144000000000002,-3.8496240000000004,-1.1387328,-9.3546168,0.0,0.0,0.0,0.0
1.48,0.1414272,-3.8496240000000004,-1.030224,-9.4311216,0.0,0.0,0.0,0.0
1.5,0.10027920000000001,-3.9035736000000005,-1.0844784,-9.4311216,0.0,0.0,0.0,0.0
1.52,0.13472160000000002,-3.7953696000000003,-1.0844784,-9.2778072,0.0,0.0,0.0,0.0
1.54,0.014935200000000003,-3.7953696000000003,-0.9759696,-9.4311216,0.0,0.0,0.0,0.0
1.56,0.16764,-3.7953696000000003,-1.1926824,-9.3546168,0.0,0.0,0.0,0.0
1.58,0.009753600000000001,-3.8496240000000004,-1.030224,-9.584436,0.0,0.0,0.0,0.0
1.6,-0.1298448,-3.7953696000000003,-1.1926824,-9.5079312,0.0,0.0,0.0,0.0
1.62,-0.12009120000000001,-3.8496240000000004,-1.2469368,-9.5079312,0.0,0.0,0.0,0.0
1.6400000000000001,-0.17465040000000004,-3.7953696000000003,-1.1926824,-9.5079312,0.0,0.0,0.0,0.0
1.6600000000000001,-0.260604,-3.8496240000000004,-1.1387328,-9.5079312,0.0,0.0,0.0,0.0
1.68,-0.1258824,-3.8496240000000004,-1.030224,-9.5079312,0.0,0.0,0.0,0.0
1.7,-0.062484,-3.8496240000000004,-1.1387328,-9.3546168,0.0,0.0,0.0,0.0
1.72,0.006096000000000002,-3.7953696000000003,-1.0844784,-9.4311216,0.0,0.0,0.0,0.0
1.74,0.0432816,-3.7953696000000003,-1.1926824,-9.3546168,0.0,0.0,0.0,0.0
1.76,0.023774400000000005,-3.7953696000000003,-1.0844784,-9.4311216,0.0,0.0,0.0,0.0
1.78,0.007010400000000003,-3.8496240000000004,-1.1387328,-9.4311216,0.0,0.0,0.0,0.0
1.8,0.1405128,-3.7953696000000003,-1.1926824,-9.3546168,0.0,0.0,0.0,0.0
1.82,0.07741920000000001,-3.8496240000000004,-1.1387328,-9.4311216,0.0,0.0,0.0,0.0
1.84,0.008839200000000004,-3.7953696000000003,-1.1926824,-9.4311216,0.0,0.0,0.0,0.0
1.86,0.10271759999999999,-3.7411152,-1.030224,-9.5079312,0.0,0.0,0.0,0.0
1.8800000000000001,0.1088136,-3.7953696000000003,-1.1926824,-9.2778072,0.0,0.0,0.0,0.0
1.9000000000000001,0.06126480000000001,-3.7411152,-1.1387328,-9.4311216,0.0,0.0,0.0,0.0
1.92,0.1030224,-3.7953696000000003,-1.0844784,-9.4311216,0.0,0.0,0.0,0.0
1.94,0.11856720000000001,-3.8496240000000004,-1.2469368,-9.4311216,0.0,0.0,0.0,0.0
1.96,0.1441704,-3.9035736000000005,-1.0844784,-9.5079312,0.0,0.0,0.0,0.0
1.98,-0.019507200000000002,-3.7953696000000003,-1.1926824,-9.5079312,0.0,0.0,0.0,0.0
2.0,0.06583680000000001,-3.7411152,-1.1387328,-9.5079312,0.0,0.0,0.0,0.0
2.02,-0.0316992,-3.7953696000000003,-1.1926824,-9.3546168,0.0,0.0,0.0,0.0
2.04,0.041452800000000005,-3.957828,-1.1387328,-9.5079312,0.0,0.0,0.0,0.0
2.06,0.016154400000000003,-3.7411152,-1.1387328,-9.4311216,0.0,0.0,0.0,0.0
2.08,0.014630400000000003,-3.7953696000000003,-1.1926824,-9.5079312,0.0,0.0,0.0,0.0
2.1,0.2919984,-3.9035736000000005,-1.1926824,-9.4311216,0.0,0.0,0.0,0.0
2.12,0.19690080000000001,-3.957828,-1.030224,-9.5079312,0.0,0.0,0.0,0.0
2.14,0.13380720000000002,-3.7411152,-1.1387328,-9.4311216,0.0,0.0,0.0,0.0
2.16,0.1155192,-3.8496240000000004,-1.1387328,-9.4311216,0.0,0.0,0.0,0.0
2.1799999999999997,0.0664464,-3.8496240000000004,-1.2469368,-9.5079312,0.0,0.0,0.0,0.0
2.2,0.1609344,-3.8496240000000004,-1.030224,-9.5079312,0.0,0.0,0.0,0.0
2.2199999999999998,0.1853184,-3.9035736000000005,-1.1926824,-9.4311216,0.0,0.0,0.0,0.0
2.24,0.15057120000000002,-3.8496240000000004,-1.2469368,-9.4311216,0.0,0.0,0.0,0.0
2.26,0.12405360000000001,-3.9035736000000005,-1.0844784,-9.3546168,0.0,0.0,0.0,0.0
2.2800000000000002,0.1362456,-3.7411152,-1.1387328,-9.5079312,0.0,0.0,0.0,0.0
2.3,0.011887200000000002,-3.7953696000000003,-1.1926824,-9.4311216,0.0,0.0,0.0,0.0
2.3200000000000003,-0.10088879999999999,-4.012082400000001,-1.1926824,-9.4311216,0.0,0.0,0.0,0.0
2.34,-0.038709600000000004,-3.7953696000000003,-1.1926824,-9.5079312,0.0,0.0,0.0,0.0
2.3600000000000003,0.2121408,-3.7411152,-1.1387328,-9.5079312,0.0,0.0,0.0,0.0
2.38,0.16276320000000002,-3.7953696000000003,-1.1926824,-9.4311216,0.0,0.0,0.0,0.0
2.4000000000000004,0.140208,-3.9035736000000005,-1.0844784,-9.584436,0.0,0.0,0.0,0.0
2.42,-0.0445008,-3.7411152,-1.1387328,-9.5079312,0.0,0.0,0.0,0.0
2.44,-0.1069848,-3.9035736000000005,-1.1926824,-9.3546168,0.0,0.0,0.0,0.0
2.46,-0.11856720000000001,-3.957828,-1.2469368,-9.4311216,0.0,0.0,0.0,0.0
2.48,-0.007315199999999998,-3.7411152,-1.030224,-9.4311216,0.0,0.0,0.0,0.0
2.5,-0.0161544,-3.7953696000000003,-1.1926824,-9.3546168,0.0,0.0,0.0,0.0
2.52,-0.1033272,-3.957828,-1.1387328,-9.4311216,0.0,0.0,0.0,0.0
2.54,-0.13563600000000003,-3.7953696000000003,-1.0844784,-9.5079312,0.0,0.0,0.0,0.0
2.56,-0.29138880000000006,-3.6868608000000003,-1.0844784,-9.5079312,0.0,0.0,0.0,0.0
2.58,-0.2432304,-3.8496240000000004,-1.2469368,-9.4311216,0.0,0.0,0.0,0.0
2.6,-0.11734800000000001,-3.9035736000000005,-1.0844784,-9.4311216,0.0,0.0,0.0,0.0
2.62,-0.062484,-3.7411152,-1.1387328,-9.3546168,0.0,0.0,0.0,0.0
2.64,0.06370320000000002,-3.7411152,-1.1387328,-9.4311216,0.0,0.0,0.0,0.0
2.66,0.030175200000000003,-3.8496240000000004,-1.2469368,-9.4311216,0.0,0.0,0.0,0.0
2.68,0.033528,-3.8496240000000004,-0.9217152000000001,-9.4311216,0.0,0.0,0.0,0.0
2.7,-0.014325599999999997,-3.7411152,-1.1387328,-9.4311216,0.0,0.0,0.0,0.0
2.72,0.0280416,-3.7953696000000003,-1.3011912,-9.4311216,0.0,0.0,0.0,0.0
2.74,0.239268,-3.8496240000000004,-1.2469368,-9.5079312,0.0,0.0,0.0,0.0
2.76,0.2218944,-3.8496240000000004,-1.030224,-9.5079312,0.0,0.0,0.0,0.0
2.7800000000000002,0.21793200000000001,-3.7953696000000003,-1.1926824,-9.3546168,0.0,0.0,0.0,0.0
2.8,0.1271016,-3.8496240000000004,-1.2469368,-9.3546168,0.0,0.0,0.0,0.0
2.8200000000000003,0.1487424,-3.9035736000000005,-1.0844784,-9.5079312,0.0,0.0,0.0,0.0
2.84,0.1472184,-3.7411152,-1.1387328,-9.5079312,0.0,0.0,0.0,0.0
2.86,0.176784,-3.8496240000000004,-1.2469368,-9.2778072,0.0,0.0,0.0,0.0
2.88,0.1795272,-3.7953696000000003,-1.0844784,-9.3546168,0.0,0.0,0.0,0.0
2.9,0.2785872,-3.8496240000000004,-1.1387328,-9.4311216,0.0,0.0,0.0,0.0
2.92,0.2694432,-3.7953696000000003,-1.1926824,-9.5079312,0.0,0.0,0.0,0.0
2.94,0.3243072,-3.7953696000000003,-1.1926824,-9.3546168,0.0,0.0,0.0,0.0
2.96,0.11795760000000001,-3.7411152,-1.1387328,-9.5079312,0.0,0.0,0.0,0.0
2.98,0.10088880000000001,-3.7411152,-1.1387328,-9.4311216,0.0,0.0,0.0,0.0
3.0,0.006400800000000002,-3.7953696000000003,-1.1926824,-9.5079312,0.0,0.0,0.0,0.0
3.02,-0.23134320000000003,-3.7411152,-1.1387328,-9.3546168,0.0,0.0,0.0,0.0
3.04,-0.2807208,-4.012082400000001,-1.3011912,-9.5079312,0.0,0.0,0.0,0.0
3.06,-0.2267712,-3.957828,-1.3554456000000001,-9.5079312,0.0,0.0,0.0,0.0
3.08,-0.109728,-3.7953696000000003,-1.1926824,-9.4311216,0.0,0.0,0.0,0.0
3.1,-0.0768096,-3.6868608000000003,-0.7589520000000001,-9.5079312,0.0,0.0,0.0,0.0
3.12,-0.048768000000000006,-4.5000672,-1.5724632,-10.5814368,0.0,0.0,0.0,0.0
3.14,-0.1216152,0.0,-0.7589520000000001,-2.6069544000000002,0.0,0.0,0.0,0.0
3.16,-0.24201120000000004,-11.4943128,-1.0844784,-14.0317728,0.0,0.0,0.0,0.0
3.18,-0.2825496,-3.1446216000000002,-1.7349216,-7.9744824,0.0,0.0,0.0,0.0
3.2,-0.24262080000000003,-1.4639544,0.4879848,-9.2778072,0.0,0.0,0.0,0.0
3.22,-0.20604480000000003,-2.8736544000000004,0.7046976,-10.5046272,0.0,0.0,0.0,0.0
3.24,-0.12374880000000002,-5.421782400000001,-2.6023824,-11.9615712,0.0,0.0,0.0,0.0
3.26,-0.006705599999999998,-3.4698432,-2.0601432,-8.6645496,0.0,0.0,0.0,0.0
3.2800000000000002,-0.0652272,-6.2892432000000005,0.650748,-10.3513128,0.0,0.0,0.0,0.0
3.3,0.003048000000000003,-3.7411152,0.0542544,-6.9009768,0.0,0.0,0.0,0.0
3.32,-0.24262080000000003,-1.5724632,-1.030224,-9.814560000000002,0.0,0.0,0.0,0.0
3.34,-0.17129760000000002,-1.1926824,-0.4337304,-10.1979984,0.0,0.0,0.0,0.0
3.36,-0.131064,-4.2291,-2.4941784,-10.044684,0.0,0.0,0.0,0.0
3.38,-0.0493776,-6.614769600000001,-0.7589520000000001,-10.428122400000001,0.0,0.0,0.0,0.0
3.4,-0.16764,-4.3376088,0.0,-8.8943688,0.0,0.0,0.0,0.0
3.42,0.0176784,-3.198876,-0.5964936000000001,-9.4311216,0.0,0.0,0.0,0.0
3.44,0.032613600000000006,-1.8434304000000001,-0.2170176,-7.8976728000000005,0.0,0.0,0.0,0.0
3.46,0.1045464,-2.1143976,-2.1143976,-9.814560000000002,0.0,0.0,0.0,0.0
3.48,-0.056692799999999995,-3.7411152,-0.4879848,-10.1979984,0.0,0.0,0.0,0.0
3.5,0.026212800000000005,-4.8252888,-2.2229064000000003,-9.3546168,0.0,0.0,0.0,0.0
3.52,-0.0758952,-4.933797600000001,-0.37947600000000004,-9.3546168,0.0,0.0,0.0,0.0
3.54,-0.15605760000000002,-2.8194000000000004,-0.4337304,-8.2043016,0.0,0.0,0.0,0.0
3.56,-0.16885920000000001,-1.3554456000000001,-0.2709672,-9.737750400000001,0.0,0.0,0.0,0.0
3.58,-0.029260800000000003,-3.4158936000000004,-1.2469368,-9.2013024,0.0,0.0,0.0,0.0
3.6,-0.016763999999999998,-4.7713392,-2.4941784,-12.7281432,0.0,0.0,0.0,0.0
3.62,-0.15758160000000002,-11.5485672,-3.3073848000000003,-24.6132096,0.0,0.0,0.0,0.0
3.64,-0.829056,-16.753332,-5.801258400000001,-47.079103200000006,0.0,0.0,0.0,0.0
3.66,-1.5648432,3.198876,-3.6326064,-90.2479272,0.0,0.0,0.0,0.0
3.68,-3.3241488,-33.39846,-50.74828560000001,-150.9756696,0.0,0.0,0.0,0.0
3.7,-5.8341768,-60.670135200000004,11.657076,-112.2541824,0.0,0.0,0.0,0.0
3.72,-7.882128,-56.820816,24.5065296,-120.91842720000001,0.0,0.0,0.0,0.0
3.74,-9.704222399999999,-46.8989664,22.175419200000004,-116.24127120000001,0.0,0.0,0.0,0.0
3.7600000000000002,-10.9036104,-54.4894008,15.343632000000001,-117.31477680000002,0.0,0.0,0.0,0.0
3.7800000000000002,-11.981687999999998,-52.754479200000006,20.1149712,-116.8545288,0.0,0.0,0.0,0.0
3.8,-12.644628,-55.140148800000006,20.22348,-114.17106960000001,0.0,0.0,0.0,0.0
3.8200000000000003,-12.9588768,-47.549409600000004,24.560784,-107.57672160000001,0.0,0.0,0.0,0.0
3.84,-13.256666400000002,-56.7665616,20.765719200000003,-111.94724880000001,0.0,0.0,0.0,0.0
3.86,-13.094817599999999,-51.77850960000001,18.2715408,-107.3469024,0.0,0.0,0.0,0.0
3.88,-12.9533904,-53.5134312,19.572732000000002,-109.0336656,0.0,0.0,0.0,0.0
3.9,-12.455652,-48.959109600000005,19.3560192,-106.58002560000001,0.0,0.0,0.0,0.0
3.92,-12.199315200000001,-50.6940312,19.789749600000004,-107.65353120000002,0.0,0.0,0.0,0.0
3.94,-11.6317776,-47.224188000000005,19.464223200000003,-102.20949840000002,0.0,0.0,0.0,0.0
3.96,-11.3092992,-44.6218056,18.3800496,-99.602544,0.0,0.0,0.0,0.0
3.98,-10.9856016,-43.9710576,19.3560192,-98.91247680000001,0.0,0.0,0.0,0.0
4.0,-10.5360216,-45.4892664,16.645128,-102.056184,0.0,0.0,0.0,0.0
4.02,-10.053828000000001,-44.6218056,17.6210976,-99.8323632,0.0,0.0,0.0,0.0
4.04,-9.6274128,-41.91060960000001,15.8858712,-92.1648144,0.0,0.0,0.0,0.0
4.0600000000000005,-9.3957648,-38.9287512,19.844004,-93.5449488,0.0,0.0,0.0,0.0
4.08,-9.0781632,-38.765988,18.9222888,-91.24462319999999,0.0,0.0,0.0,0.0
4.1,-8.6816184,-40.013229599999995,16.0486344,-88.8677928,0.0,0.0,0.0,0.0
4.12,-8.3478624,-37.573305600000005,17.512588800000003,-86.3373432,0.0,0.0,0.0,0.0
4.14,-8.0348328,-39.9047208,12.5787912,-83.5770744,0.0,0.0,0.0,0.0
4.16,-7.8077568,-43.3203096,15.6691584,-89.0979168,0.0,0.0,0.0,0.0
4.18,-7.6666344,-41.3144208,12.795504,-83.8837032,0.0,0.0,0.0,0.0
4.2,-7.3264776000000005,-40.175688,14.8016976,-81.5836824,0.0,0.0,0.0,0.0
4.22,-7.175296799999999,-38.6035296,14.096695200000001,-76.6764024,0.0,0.0,0.0,0.0
4.24,-7.0893432,-38.8744968,13.608710400000001,-77.3664696,0.0,0.0,0.0,0.0
4.26,-6.9168264,-40.826436,14.476171200000001,-76.59959280000001,0.0,0.0,0.0,0.0
4.28,-6.948830399999999,-38.9287512,13.771473600000002,-74.9128296,0.0,0.0,0.0,0.0
4.3,-6.7305936,-37.62756,14.964156000000001,-70.31217840000001,0.0,0.0,0.0,0.0
4.32,-6.7516248,-38.332257600000005,14.1509496,-70.31217840000001,0.0,0.0,0.0,0.0
4.34,-6.6272664,-36.8683032,14.313712800000001,-72.53569440000001,0.0,0.0,0.0,0.0
4.36,-6.3346583999999995,-36.976812,16.373856,-76.59959280000001,0.0,0.0,0.0,0.0
4.38,-6.1853064,-31.121299200000003,16.8075864,-69.0853584,0.0,0.0,0.0,0.0
4.4,-6.116726399999999,-30.199584,15.777667200000002,-69.0085488,0.0,0.0,0.0,0.0
4.42,-5.713171200000001,-29.603090400000003,16.0486344,-66.8618424,0.0,0.0,0.0,0.0
4.44,-5.2931568,-27.976677600000002,18.434304,-71.99894160000001,0.0,0.0,0.0,0.0
4.46,-4.8487584,-27.1634712,19.247510400000003,-70.69561680000001,0.0,0.0,0.0,0.0
4.48,-4.1218104,-25.1030232,15.560649600000001,-59.73074160000001,0.0,0.0,0.0,0.0
4.5,-3.4158936000000004,-25.8080256,14.421916800000002,-59.347303200000006,0.0,0.0,0.0,0.0
4.52,-2.8166568,-28.735629600000003,15.181173600000001,-57.813854400000004,0.0,0.0,0.0,0.0
4.54,-1.9970496000000002,-29.386377600000003,11.7110256,-56.9704728,0.0,0.0,0.0,0.0
4.5600000000000005,-1.5907512000000001,-29.928616800000004,11.0605824,-54.440023200000006,0.0,0.0,0.0,0.0
4.58,-1.0701528,-31.1755536,11.2230408,-51.3731256,0.0,0.0,0.0,0.0
4.6,-0.5785104,-30.7418232,11.006328,-51.21981120000001,0.0,0.0,0.0,0.0
4.62,0.23469600000000002,-28.5731712,11.006328,-51.0664968,0.0,0.0,0.0,0.0
4.640000000000001,0.6717792000000001,-27.271675200000004,10.8978192,-49.686057600000005,0.0,0.0,0.0,0.0
4.66,0.9881616000000001,-25.86228,10.789310400000002,-50.2228104,0.0,0.0,0.0,0.0
4.68,1.4090904,-25.1030232,11.2230408,-49.8396768,0.0,0.0,0.0,0.0
4.7,1.76784,-22.4463864,10.843564800000001,-48.459542400000004,0.0,0.0,0.0,0.0
4.72,2.3289768,-20.1692256,9.4338648,-49.302924000000004,0.0,0.0,0.0,0.0
4.74,2.7514296,-19.3017648,10.4098344,-48.536047200000006,0.0,0.0,0.0,0.0
4.76,3.3784032,-18.8680344,8.7834216,-47.76917040000001,0.0,0.0,0.0,0.0
4.78,3.9203376000000003,-19.898258400000003,8.5121496,-46.235721600000005,0.0,0.0,0.0,0.0
4.8,4.4756832,-19.952208,10.0846128,-46.0059024,0.0,0.0,0.0,0.0
4.82,4.988966400000001,-20.494447200000003,9.867595200000002,-42.6320712,0.0,0.0,0.0,0.0
4.84,5.6183784,-22.012656,10.952073600000002,-40.71518400000001,0.0,0.0,0.0,0.0
4.86,6.387998400000001,-23.2053384,11.8195344,-38.9516112,0.0,0.0,0.0,0.0
4.88,7.048804800000001,-21.4161624,11.5485672,-37.878105600000005,0.0,0.0,0.0,0.0
4.9,7.687970400000001,-20.494447200000003,11.8195344,-37.3413528,0.0,0.0,0.0,0.0
4.92,8.09244,-19.247510400000003,10.247376,-37.3413528,0.0,0.0,0.0,0.0
4.9399999999999995,8.8248744,-17.783556,8.7834216,-36.7277904,0.0,0.0,0.0,0.0
4.96,9.5850456,-15.994380000000001,7.1024496,-37.034724,0.0,0.0,0.0,0.0
4.98,10.311384,-15.235428,7.210958400000001,-36.267847200000006,0.0,0.0,0.0,0.0
5.0,11.174577600000001,-15.994380000000001,6.885736800000001,-34.35096,0.0,0.0,0.0,0.0
5.02,11.994489600000001,-15.2896824,4.8795432000000005,-34.120836,0.0,0.0,0.0,0.0
5.04,13.0359912,-15.2896824,5.638800000000001,-32.203948800000006,0.0,0.0,0.0,0.0
5.0600000000000005,14.182344,-16.2653472,7.4822304,-30.900624,0.0,0.0,0.0,0.0
5.08,15.220188000000002,-13.0664712,9.2714064,-30.7473096,0.0,0.0,0.0,0.0
5.1,16.492728,-14.205204,9.5423736,-29.213556,0.0,0.0,0.0,0.0
5.12,17.5616616,-15.614904,6.8314824000000005,-27.986736,0.0,0.0,0.0,0.0
5.140000000000001,18.7430664,-13.174980000000001,4.5000672,-26.376477600000005,0.0,0.0,0.0,0.0
5.16,20.0875392,-14.096695200000001,4.554321600000001,-25.533096,0.0,0.0,0.0,0.0
5.18,21.2387688,-12.4702824,6.9399912,-21.5460072,0.0,0.0,0.0,0.0
5.2,22.377806399999997,-12.5787912,3.1446216000000002,-24.229771200000002,0.0,0.0,0.0,0.0
5.22,23.636020799999997,-12.2532648,2.6023824,-23.1562656,0.0,0.0,0.0,0.0
5.24,24.965863199999998,-11.277295200000001,1.8434304000000001,-23.1562656,0.0,0.0,0.0,0.0
5.26,26.230173599999997,-11.006328,2.8736544000000004,-21.1625688,0.0,0.0,0.0,0.0
5.28,27.456079199999998,-9.867595200000002,3.0361128,-19.782434400000003,0.0,0.0,0.0,0.0
5.3,28.6316928,-8.241182400000001,3.0361128,-18.4023,0.0,0.0,0.0,0.0
5.32,29.7807888,-9.108643200000001,3.578352,-16.715536800000002,0.0,0.0,0.0,0.0
5.34,30.96006,-5.801258400000001,2.8736544000000004,-16.0254696,0.0,0.0,0.0,0.0
5.36,32.113728,-5.8555128,3.2531304000000003,-15.105278400000001,0.0,0.0,0.0,0.0
5.38,33.147914400000005,-6.5605152,2.7651456,-14.185087200000002,0.0,0.0,0.0,0.0
5.4,34.1059008,-5.205069600000001,2.0601432,-12.421514400000001,0.0,0.0,0.0,0.0
5.42,35.0584008,-4.7713392,3.6868608000000003,-10.274503200000002,0.0,0.0,0.0,0.0
5.4399999999999995,36.1885992,-4.554321600000001,2.1686520000000002,-11.3480088,0.0,0.0,0.0,0.0
5.46,37.2691152,-5.8555128,-0.5422392,-9.891369599999999,0.0,0.0,0.0,0.0
5.48,38.2484376,-5.6930544,-0.9217152000000001,-8.817864,0.0,0.0,0.0,0.0
5.5,39.2137392,-4.7170848,-1.3554456000000001,-8.050987200000002,0.0,0.0,0.0,0.0
5.52,40.208301600000006,-1.789176,1.030224,-5.750661600000001,0.0,0.0,0.0,0.0
5.54,41.299180799999995,-3.4158936000000004,-0.4879848,-5.903976000000001,0.0,0.0,0.0,0.0
5.5600000000000005,42.3324528,-3.198876,-1.030224,-4.2937176,0.0,0.0,0.0,0.0
5.58,43.4114448,-1.030224,-0.9217152000000001,-3.2970216000000003,0.0,0.0,0.0,0.0
5.6,44.577609599999995,1.6806672000000002,0.2709672,-0.8433816000000001,0.0,0.0,0.0,0.0
5.62,45.618806400000004,1.8434304000000001,0.4337304,-0.8433816000000001,0.0,0.0,0.0,0.0
5.640000000000001,46.6712808,2.548128,-0.5964936000000001,-1.2268200000000002,0.0,0.0,0.0,0.0
5.66,47.781971999999996,1.4639544,0.2709672,-0.15331440000000002,0.0,0.0,0.0,0.0
5.68,48.8347512,0.0542544,-0.2709672,-0.4599432,0.0,0.0,0.0,0.0
5.7,50.0652288,-0.37947600000000004,0.37947600000000004,0.6135624,0.0,0.0,0.0,0.0
5.720000000000001,51.303326399999996,0.5422392,0.3252216,2.5304496,0.0,0.0,0.0,0.0
5.74,52.5722088,2.8736544000000004,0.37947600000000004,7.591044000000001,0.0,0.0,0.0,0.0
5.76,53.9233872,-3.7953696000000003,1.7349216,3.2205168000000004,0.0,0.0,0.0,0.0
5.78,55.309008000000006,-1.5724632,1.030224,-0.8433816000000001,0.0,0.0,0.0,0.0
5.8,56.71870800000001,-1.3554456000000001,2.9818584,1.6867632000000001,0.0,0.0,0.0,0.0
5.82,58.08817440000001,4.988052,2.9279088,-0.7668768,0.0,0.0,0.0,0.0
5.84,59.371382399999995,3.4698432,-0.1085088,0.6900672,0.0,0.0,0.0,0.0
5.859999999999999,60.482683200000004,-18.3257952,10.626852000000001,18.939052800000002,0.0,0.0,0.0,0.0
5.88,61.55436,3.5240976,2.9818584,7.36092,0.0,0.0,0.0,0.0
5.9,62.5583712,2.0601432,-1.8434304000000001,9.6612456,0.0,0.0,0.0,0.0
5.92,63.5648208,0.2709672,1.5724632,5.367223200000001,0.0,0.0,0.0,0.0
5.9399999999999995,64.3847328,-1.6264128000000002,-2.1686520000000002,0.4599432,0.0,0.0,0.0,0.0
5.96,65.3332704,-0.4337304,1.9519392,0.6900672,0.0,0.0,0.0,0.0
5.98,66.0733248,-4.8252888,3.4158936000000004,1.4569440000000002,0.0,0.0,0.0,0.0
6.0,66.650616,9.6508824,4.120591200000001,-0.0768096,0.0,0.0,0.0,0.0
6.02,67.3675056,8.295436800000001,1.789176,-0.23012400000000002,0.0,0.0,0.0,0.0
6.04,67.9350432,11.5485672,10.8978192,-0.15331440000000002,0.0,0.0,0.0,0.0
6.0600000000000005,68.65467600000001,-14.096695200000001,44.025312,-9.3546168,0.0,0.0,0.0,0.0
6.08,69.5449968,47.3326968,15.018410400000002,-10.9645704,0.0,0.0,0.0,0.0
6.1,70.7401176,10.138867200000002,-1.6806672000000002,-9.6612456,0.0,0.0,0.0,0.0
6.12,72.6143328,10.247376,4.5000672,4.907280000000001,0.0,0.0,0.0,0.0
6.140000000000001,74.307192,5.367528,2.9818584,11.9615712,0.0,0.0,0.0,0.0
6.16,75.91044,5.801258400000001,5.5845456,3.5271456,0.0,0.0,0.0,0.0
6.18,77.3942064,4.933797600000001,4.933797600000001,4.7539656,0.0,0.0,0.0,0.0
6.2,78.91485360000001,4.554321600000001,6.506260800000001,5.597347200000001,0.0,0.0,0.0,0.0
6.220000000000001,80.44860720000001,1.2469368,6.777228,4.2172128,0.0,0.0,0.0,0.0
6.24,81.85800240000002,4.2833544,5.6930544,4.370527200000001,0.0,0.0,0.0,0.0
6.26,83.20643760000002,4.988052,5.096560800000001,3.3738312000000006,0.0,0.0,0.0,0.0
6.28,84.47440560000003,4.7170848,4.7170848,3.9870888,0.0,0.0,0.0,0.0
6.3,85.8033336,4.7713392,5.5302912,4.4473368,0.0,0.0,0.0,0.0
6.32,86.99266320000002,5.096560800000001,4.120591200000001,4.523841600000001,0.0,0.0,0.0,0.0
6.34,88.25270640000001,4.608576,4.608576,3.910584,0.0,0.0,0.0,0.0
6.359999999999999,89.40576480000001,5.964021600000001,5.3132736,3.8337744,0.0,0.0,0.0,0.0
6.38,90.5033496,5.096560800000001,4.7713392,3.7572696000000003,0.0,0.0,0.0,0.0
6.4,91.5555192,5.5845456,4.5000672,2.9135831999999997,0.0,0.0,0.0,0.0
6.42,92.65218960000001,5.9097672,4.933797600000001,2.0702016,0.0,0.0,0.0,0.0
6.4399999999999995,93.71807520000002,5.096560800000001,6.1807343999999995,3.2205168000000004,0.0,0.0,0.0,0.0
6.46,94.7598816,4.8252888,5.367528,2.6069544000000002,0.0,0.0,0.0,0.0
6.48,95.83125360000001,3.4158936000000004,5.9097672,3.6036504000000003,0.0,0.0,0.0,0.0
6.5,96.90475920000002,3.7953696000000003,5.8555128,3.0672024,0.0,0.0,0.0,0.0
6.52,97.87463280000001,3.0361128,5.638800000000001,3.9870888,0.0,0.0,0.0,0.0
6.54,98.91308640000001,3.0903671999999998,5.1508152,3.8337744,0.0,0.0,0.0,0.0
6.5600000000000005,99.82291440000002,2.8194000000000004,5.096560800000001,3.9870888,0.0,0.0,0.0,0.0
6.58,100.80345600000001,3.9035736000000005,4.554321600000001,4.1404032,0.0,0.0,0.0,0.0
6.6,101.9306064,3.8496240000000004,4.3915584,4.1404032,0.0,0.0,0.0,0.0
6.62,103.09951440000002,4.988052,3.9035736000000005,4.0638984,0.0,0.0,0.0,0.0
6.640000000000001,104.29554960000002,4.8795432000000005,3.6868608000000003,4.2937176,0.0,0.0,0.0,0.0
6.66,105.40563120000002,5.096560800000001,4.012082400000001,4.1404032,0.0,0.0,0.0,0.0
6.68,106.57332000000001,5.3132736,4.012082400000001,3.450336,0.0,0.0,0.0,0.0
6.7,107.69528880000001,4.933797600000001,4.2833544,2.5304496,0.0,0.0,0.0,0.0
6.720000000000001,108.8986392,4.608576,4.608576,2.223516,0.0,0.0,0.0,0.0
6.74,110.0980272,4.3915584,4.933797600000001,2.223516,0.0,0.0,0.0,0.0
6.76,111.29467200000002,4.3376088,5.964021600000001,2.9903928,0.0,0.0,0.0,0.0
6.78,112.40383920000001,3.5240976,6.2349888,2.9903928,0.0,0.0,0.0,0.0
6.8,113.48496480000001,4.8795432000000005,3.7953696000000003,3.6036504000000003,0.0,0.0,0.0,0.0
6.82,114.72306240000002,4.554321600000001,4.7713392,4.1404032,0.0,0.0,0.0,0.0
6.84,116.03553120000001,3.6868608000000003,5.096560800000001,3.68046,0.0,0.0,0.0,0.0
6.859999999999999,117.21846000000002,3.7953696000000003,4.445812800000001,3.8337744,0.0,0.0,0.0,0.0
6.88,118.38340560000002,4.608576,3.5240976,3.6036504000000003,0.0,0.0,0.0,0.0
6.9,119.51177520000002,4.3915584,3.6326064,3.3738312000000006,0.0,0.0,0.0,0.0
6.92,120.71299200000001,4.445812800000001,3.6868608000000003,3.2205168000000004,0.0,0.0,0.0,0.0
6.9399999999999995,121.8349608,4.554321600000001,4.6628304,3.1437072,0.0,0.0,0.0,0.0
6.96,122.93650800000002,4.988052,4.445812800000001,2.3768304000000002,0.0,0.0,0.0,0.0
6.98,124.03287360000002,4.3376088,4.554321600000001,2.5304496,0.0,0.0,0.0,0.0
7.0,125.1731304,3.6868608000000003,4.8795432000000005,2.3768304000000002,0.0,0.0,0.0,0.0
7.02,126.44719440000001,3.4158936000000004,5.0423064,3.450336,0.0,0.0,0.0,0.0
7.04,127.57099200000002,2.9279088,4.7713392,4.1404032,0.0,0.0,0.0,0.0
7.0600000000000005,128.66217600000002,2.3314152,5.9097672,3.2205168000000004,0.0,0.0,0.0,0.0
7.08,129.7737816,2.9279088,4.7713392,3.68046,0.0,0.0,0.0,0.0
7.1,130.8302184,4.7713392,4.3376088,3.1437072,0.0,0.0,0.0,0.0
7.12,131.9262792,3.7953696000000003,4.8795432000000005,4.6006512,0.0,0.0,0.0,0.0
7.140000000000001,133.15218480000001,3.4698432,5.964021600000001,3.1437072,0.0,0.0,0.0,0.0
7.16,134.30859600000002,4.5000672,5.1508152,2.3003256,0.0,0.0,0.0,0.0
7.18,135.440928,3.6326064,5.1508152,2.5304496,0.0,0.0,0.0,0.0
7.2,136.5528384,4.1748456,4.5000672,2.8370784000000002,0.0,0.0,0.0,0.0
7.220000000000001,137.63579280000002,3.957828,3.957828,2.7602688,0.0,0.0,0.0,0.0
7.24,138.80165280000003,4.608576,3.8496240000000004,3.5271456,0.0,0.0,0.0,0.0
7.26,140.0409696,3.6868608000000003,3.9035736000000005,3.6036504000000003,0.0,0.0,0.0,0.0
7.28,141.29186880000003,4.0663368,3.5240976,3.68046,0.0,0.0,0.0,0.0
7.3,142.48150320000002,4.012082400000001,3.7953696000000003,4.2172128,0.0,0.0,0.0,0.0
7.32,143.6641272,3.0903671999999998,4.608576,3.9870888,0.0,0.0,0.0,0.0
7.34,144.75805440000002,3.2531304000000003,4.554321600000001,3.8337744,0.0,0.0,0.0,0.0
7.359999999999999,145.9918848,2.9279088,4.120591200000001,3.2205168000000004,0.0,0.0,0.0,0.0
7.38,147.16353600000002,3.0361128,4.7713392,3.2205168000000004,0.0,0.0,0.0,0.0
7.4,148.39096560000002,3.9035736000000005,4.012082400000001,2.7602688,0.0,0.0,0.0,0.0
7.42,149.46203280000003,3.8496240000000004,3.8496240000000004,2.3768304000000002,0.0,0.0,0.0,0.0
7.4399999999999995,150.603204,3.7953696000000003,3.578352,2.7602688,0.0,0.0,0.0,0.0
7.46,151.6965216,5.096560800000001,3.2531304000000003,2.7602688,0.0,0.0,0.0,0.0
7.48,152.761188,3.198876,4.3915584,2.7602688,0.0,0.0,0.0,0.0
7.5,153.887424,4.3376088,3.9035736000000005,3.2970216000000003,0.0,0.0,0.0,0.0
7.52,155.09016480000003,3.7411152,3.4158936000000004,3.1437072,0.0,0.0,0.0,0.0
7.54,156.1530024,3.957828,3.3073848000000003,3.5271456,0.0,0.0,0.0,0.0
7.56,157.363668,3.2531304000000003,4.012082400000001,3.6036504000000003,0.0,0.0,0.0,0.0
7.58,158.57707680000004,2.6023824,4.012082400000001,3.68046,0.0,0.0,0.0,0.0
7.6,159.77006400000002,2.9818584,3.957828,3.5271456,0.0,0.0,0.0,0.0
7.62,160.89690960000001,2.9279088,3.9035736000000005,3.450336,0.0,0.0,0.0,0.0
7.64,162.05210160000001,2.7651456,3.957828,2.8370784000000002,0.0,0.0,0.0,0.0
7.66,163.2557568,2.9279088,3.578352,2.9135831999999997,0.0,0.0,0.0,0.0
7.68,164.39083200000002,3.2531304000000003,3.1446216000000002,2.683764,0.0,0.0,0.0,0.0
7.7,165.55242480000004,3.3616392,3.0361128,2.3768304000000002,0.0,0.0,0.0,0.0
7.72,166.68841440000003,3.7411152,3.0903671999999998,2.7602688,0.0,0.0,0.0,0.0
7.74,167.8265376,3.6326064,2.8736544000000004,2.5304496,0.0,0.0,0.0,0.0
7.76,168.83512080000003,4.0663368,2.7651456,1.8400776,0.0,0.0,0.0,0.0
7.78,169.95007920000003,3.8496240000000004,2.4399240000000004,1.6867632000000001,0.0,0.0,0.0,0.0
7.8,171.0479688,3.198876,3.3073848000000003,2.0702016,0.0,0.0,0.0,0.0
7.82,172.12056,3.3616392,3.2531304000000003,2.683764,0.0,0.0,0.0,0.0
7.84,173.18492160000002,2.4941784,3.3616392,3.3738312000000006,0.0,0.0,0.0,0.0
7.86,174.374556,2.548128,3.8496240000000004,2.9903928,0.0,0.0,0.0,0.0
7.88,175.64587680000002,2.0601432,3.578352,2.3003256,0.0,0.0,0.0,0.0
7.9,176.69987520000004,2.0061936,3.6326064,2.223516,0.0,0.0,0.0,0.0
7.92,177.8803656,2.0601432,4.2291,2.3768304000000002,0.0,0.0,0.0,0.0
7.94,178.90327440000002,2.6566368,3.3073848000000003,2.8370784000000002,0.0,0.0,0.0,0.0
7.96,180.033168,3.0361128,3.2531304000000003,2.3768304000000002,0.0,0.0,0.0,0.0
7.98,181.1231328,2.7108912000000003,3.1446216000000002,2.3768304000000002,0.0,0.0,0.0,0.0
8.0,182.21309760000003,2.7108912000000003,2.8194000000000004,2.223516,0.0,0.0,0.0,0.0
8.02,183.2954424,2.9279088,3.0361128,2.223516,0.0,0.0,0.0,0.0
8.04,184.332372,2.8736544000000004,2.7651456,1.9936968000000002,0.0,0.0,0.0,0.0
8.059999999999999,185.452512,3.2531304000000003,2.7108912000000003,1.9936968000000002,0.0,0.0,0.0,0.0
8.08,186.5622888,3.1446216000000002,2.6023824,1.9168872,0.0,0.0,0.0,0.0
8.1,187.58763600000003,3.1446216000000002,3.0361128,1.9936968000000002,0.0,0.0,0.0,0.0
8.120000000000001,188.68704960000002,3.0361128,2.9279088,2.0702016,0.0,0.0,0.0,0.0
8.14,189.65814240000003,3.0903671999999998,3.0903671999999998,1.9936968000000002,0.0,0.0,0.0,0.0
8.16,190.7493264,2.7108912000000003,2.9279088,2.0702016,0.0,0.0,0.0,0.0
8.18,191.82252720000002,2.4399240000000004,3.198876,1.8400776,0.0,0.0,0.0,0.0
8.2,192.83446320000002,1.789176,3.5240976,1.9936968000000002,0.0,0.0,0.0,0.0
8.219999999999999,193.90217760000002,2.0601432,3.2531304000000003,2.1470112,0.0,0.0,0.0,0.0
8.24,195.05340720000004,1.3011912,3.2531304000000003,2.1470112,0.0,0.0,0.0,0.0
8.26,196.10771040000003,1.5724632,3.7411152,2.223516,0.0,0.0,0.0,0.0
8.280000000000001,197.1635376,2.1686520000000002,3.2531304000000003,1.7635728,0.0,0.0,0.0,0.0
8.3,198.2214984,2.1143976,3.0903671999999998,1.7635728,0.0,0.0,0.0,0.0
8.32,199.24471200000002,2.6023824,2.4941784,1.9168872,0.0,0.0,0.0,0.0
8.34,200.27554560000002,2.6566368,2.6566368,1.6867632000000001,0.0,0.0,0.0,0.0
8.36,201.39629520000003,2.9279088,2.1686520000000002,1.9168872,0.0,0.0,0.0,0.0
8.379999999999999,202.46279040000002,2.8736544000000004,2.2229064000000003,2.0702016,0.0,0.0,0.0,0.0
8.4,203.603352,2.9818584,2.0061936,2.4536400000000005,0.0,0.0,0.0,0.0
8.42,204.66070320000003,2.3314152,2.3314152,2.223516,0.0,0.0,0.0,0.0
8.440000000000001,205.73329440000003,2.4941784,2.3856696,2.1470112,0.0,0.0,0.0,0.0
8.46,206.7217608,2.3856696,2.3856696,1.9936968000000002,0.0,0.0,0.0,0.0
8.48,207.6849288,2.3314152,2.3314152,1.9936968000000002,0.0,0.0,0.0,0.0
8.5,208.83554880000003,1.789176,3.0903671999999998,1.9168872,0.0,0.0,0.0,0.0
8.52,209.8200528,1.9519392,2.9279088,1.6867632000000001,0.0,0.0,0.0,0.0
8.54,210.90178800000004,1.8434304000000001,2.7108912000000003,1.5334488,0.0,0.0,0.0,0.0
8.559999999999999,211.85276400000004,1.6806672000000002,3.198876,1.1500104,0.0,0.0,0.0,0.0
8.58,212.9192592,1.8976848000000002,2.8736544000000004,1.2268200000000002,0.0,0.0,0.0,0.0
8.6,213.85804320000003,1.5182088,3.1446216000000002,1.2268200000000002,0.0,0.0,0.0,0.0
8.620000000000001,214.8660168,1.8434304000000001,3.1446216000000002,1.3036296,0.0,0.0,0.0,0.0
8.64,215.79382800000002,1.5724632,2.7651456,1.3801344,0.0,0.0,0.0,0.0
8.66,216.9487152,2.1143976,2.3314152,1.4569440000000002,0.0,0.0,0.0,0.0
8.68,218.0392896,2.2229064000000003,2.3314152,1.6102584000000002,0.0,0.0,0.0,0.0
8.7,219.08475360000003,2.0061936,2.2229064000000003,1.8400776,0.0,0.0,0.0,0.0
8.719999999999999,220.1152824,2.1143976,2.1143976,1.9168872,0.0,0.0,0.0,0.0
8.74,221.17872960000003,1.8976848000000002,1.789176,1.8400776,0.0,0.0,0.0,0.0
8.76,222.07819440000003,1.8976848000000002,1.789176,2.223516,0.0,0.0,0.0,0.0
8.780000000000001,223.0578216,2.0061936,1.6806672000000002,2.223516,0.0,0.0,0.0,0.0
8.8,224.1294984,2.0601432,1.9519392,1.8400776,0.0,0.0,0.0,0.0
8.82,225.18319200000005,2.1686520000000002,1.9519392,1.8400776,0.0,0.0,0.0,0.0
8.84,226.13508240000002,2.1686520000000002,2.0601432,1.6867632000000001,0.0,0.0,0.0,0.0
8.86,227.18146080000002,2.0061936,2.3314152,1.5334488,0.0,0.0,0.0,0.0
8.879999999999999,228.11994000000004,2.0601432,2.2771608000000003,1.2268200000000002,0.0,0.0,0.0,0.0
8.9,229.13340000000002,2.0061936,2.4399240000000004,0.7668768,0.0,0.0,0.0,0.0
8.92,230.06547840000002,1.7349216,2.1686520000000002,1.1500104,0.0,0.0,0.0,0.0
8.940000000000001,231.09966480000003,1.8976848000000002,2.6566368,0.996696,0.0,0.0,0.0,0.0
8.96,232.15884480000003,1.8434304000000001,2.6023824,0.9201912000000001,0.0,0.0,0.0,0.0
8.98,233.10768720000002,1.6264128000000002,2.4941784,1.2268200000000002,0.0,0.0,0.0,0.0
9.0,234.0348888,1.3554456000000001,2.6566368,1.2268200000000002,0.0,0.0,0.0,0.0
9.02,234.94502160000002,1.5182088,2.4941784,1.0735056,0.0,0.0,0.0,0.0
9.04,235.8636888,1.4097000000000002,2.6023824,1.4569440000000002,0.0,0.0,0.0,0.0
9.059999999999999,236.7814416,1.789176,2.0061936,1.2268200000000002,0.0,0.0,0.0,0.0
9.08,237.69675600000002,1.4097000000000002,2.2771608000000003,1.4569440000000002,0.0,0.0,0.0,0.0
9.1,238.76812800000002,1.1387328,2.4399240000000004,1.6867632000000001,0.0,0.0,0.0,0.0
9.120000000000001,239.73282,1.5724632,1.8976848000000002,1.6102584000000002,0.0,0.0,0.0,0.0
9.14,240.7380504,1.3554456000000001,2.0061936,1.3801344,0.0,0.0,0.0,0.0
9.16,241.68049200000004,1.6264128000000002,1.9519392,1.3801344,0.0,0.0,0.0,0.0
9.18,242.64366000000004,1.7349216,1.5182088,1.3801344,0.0,0.0,0.0,0.0
9.2,243.538248,1.789176,1.5724632,1.3801344,0.0,0.0,0.0,0.0
9.219999999999999,244.48556640000004,1.6806672000000002,1.5724632,1.3801344,0.0,0.0,0.0,0.0
9.24,245.45483040000002,1.6806672000000002,1.6806672000000002,1.3036296,0.0,0.0,0.0,0.0
9.26,246.439944,1.5724632,1.6806672000000002,1.4569440000000002,0.0,0.0,0.0,0.0
9.280000000000001,247.39274880000002,1.1926824,1.9519392,1.3801344,0.0,0.0,0.0,0.0
9.3,248.36628000000002,1.6264128000000002,1.9519392,1.0735056,0.0,0.0,0.0,0.0
9.32,249.24867600000002,1.5182088,1.7349216,1.1500104,0.0,0.0,0.0,0.0
9.34,250.31760960000003,1.4097000000000002,1.9519392,1.0735056,0.0,0.0,0.0,0.0
9.36,251.31857280000003,1.4097000000000002,1.8434304000000001,1.1500104,0.0,0.0,0.0,0.0
9.379999999999999,252.3555024,1.6806672000000002,1.5724632,0.996696,0.0,0.0,0.0,0.0
9.4,253.35128400000002,1.5182088,1.4097000000000002,0.996696,0.0,0.0,0.0,0.0
9.42,254.31079440000002,1.4639544,1.6806672000000002,0.9201912000000001,0.0,0.0,0.0,0.0
9.440000000000001,255.30048000000002,1.3554456000000001,1.6806672000000002,0.996696,0.0,0.0,0.0,0.0
9.46,256.2429216,1.1926824,1.8434304000000001,1.0735056,0.0,0.0,0.0,0.0
9.48,257.20334640000004,1.1926824,1.7349216,1.0735056,0.0,0.0,0.0,0.0
9.5,258.09793440000004,1.030224,1.6806672000000002,1.0735056,0.0,0.0,0.0,0.0
9.52,258.959604,1.030224,1.789176,0.996696,0.0,0.0,0.0,0.0
9.54,259.8057288,0.9217152000000001,1.789176,0.9201912000000001,0.0,0.0,0.0,0.0
9.559999999999999,260.7865752,1.030224,2.0061936,0.7668768,0.0,0.0,0.0,0.0
9.58,261.6991464,1.3011912,1.7349216,0.6135624,0.0,0.0,0.0,0.0
9.6,262.67542080000004,1.1387328,1.6806672000000002,0.5367528,0.0,0.0,0.0,0.0
9.620000000000001,263.5995744,1.2469368,1.789176,0.5367528,0.0,0.0,0.0,0.0
9.64,264.48898080000004,1.4639544,1.4639544,0.4599432,0.0,0.0,0.0,0.0
9.66,265.4234976,1.2469368,1.4639544,0.6900672,0.0,0.0,0.0,0.0
9.68,266.3461272,1.6264128000000002,1.4097000000000002,0.6135624,0.0,0.0,0.0,0.0
9.7,267.11666160000004,1.3011912,1.4097000000000002,0.7668768,0.0,0.0,0.0,0.0
9.719999999999999,268.0307568,1.2469368,1.3554456000000001,0.8433816000000001,0.0,0.0,0.0,0.0
9.74,268.82110320000004,1.3011912,1.3011912,0.9201912000000001,0.0,0.0,0.0,0.0
9.76,269.6861256,1.2469368,1.030224,0.8433816000000001,0.0,0.0,0.0,0.0
9.780000000000001,270.665448,1.1387328,1.3554456000000001,1.1500104,0.0,0.0,0.0,0.0
9.8,271.572228,1.0844784,1.3011912,1.1500104,0.0,0.0,0.0,0.0
9.82,272.439384,0.8674608,1.4097000000000002,1.1500104,0.0,0.0,0.0,0.0
9.84,273.2995296,0.8132064000000001,1.4639544,1.1500104,0.0,0.0,0.0,0.0
9.86,274.2242928,0.5964936000000001,1.5724632,0.9201912000000001,0.0,0.0,0.0,0.0
9.879999999999999,275.1347304,0.7589520000000001,1.7349216,0.8433816000000001,0.0,0.0,0.0,0.0
9.9,276.00645840000004,0.5422392,1.8434304000000001,0.6135624,0.0,0.0,0.0,0.0
9.92,276.90714240000005,0.5422392,1.8434304000000001,0.7668768,0.0,0.0,0.0,0.0
9.940000000000001,277.8187992,0.5964936000000001,1.5724632,0.5367528,0.0,0.0,0.0,0.0
9.96,278.68199280000005,0.3252216,1.6264128000000002,0.5367528,0.0,0.0,0.0,0.0
9.98,279.4534416,0.7046976,1.6806672000000002,0.6135624,0.0,0.0,0.0,0.0
10.0,280.30688160000005,0.8132064000000001,1.4639544,0.5367528,0.0,0.0,0.0,0.0
10.02,281.2426176,0.9759696,1.4097000000000002,0.4599432,0.0,0.0,0.0,0.0
10.04,282.1265376,1.0844784,1.3011912,0.7668768,0.0,0.0,0.0,0.0
10.059999999999999,283.0156392,0.9759696,1.0844784,0.23012400000000002,0.0,0.0,0.0,0.0
10.08,283.8843192,0.9759696,1.1926824,0.15331440000000002,0.0,0.0,0.0,0.0
10.1,284.7831744,0.9217152000000001,1.2469368,0.6135624,0.0,0.0,0.0,0.0
10.120000000000001,285.7091568,1.0844784,0.9759696,0.7668768,0.0,0.0,0.0,0.0
10.14,286.6470264,1.1387328,0.9217152000000001,0.6135624,0.0,0.0,0.0,0.0
10.16,287.5788,1.0844784,0.8674608,0.7668768,0.0,0.0,0.0,0.0
10.18,288.43589760000003,0.8674608,0.8674608,0.8433816000000001,0.0,0.0,0.0,0.0
10.2,289.3371912,1.030224,0.9217152000000001,0.8433816000000001,0.0,0.0,0.0,0.0
10.219999999999999,290.22598800000003,1.030224,0.9217152000000001,0.7668768,0.0,0.0,0.0,0.0
10.24,291.1306344,0.8674608,0.9759696,0.8433816000000001,0.0,0.0,0.0,0.0
10.26,291.97401600000006,1.030224,0.9217152000000001,0.9201912000000001,0.0,0.0,0.0,0.0
10.280000000000001,292.85184000000004,0.7589520000000001,0.9759696,0.8433816000000001,0.0,0.0,0.0,0.0
10.3,293.7574008,0.7589520000000001,1.0844784,0.6900672,0.0,0.0,0.0,0.0
10.32,294.64010160000004,0.9217152000000001,1.1387328,0.6900672,0.0,0.0,0.0,0.0
10.34,295.463976,0.9217152000000001,1.1387328,0.6135624,0.0,0.0,0.0,0.0
10.36,296.2643808,0.8132064000000001,1.3554456000000001,0.5367528,0.0,0.0,0.0,0.0
10.379999999999999,297.08307360000003,0.7589520000000001,0.9759696,0.6135624,0.0,0.0,0.0,0.0
10.4,297.94108560000006,0.4337304,0.9759696,0.30662880000000003,0.0,0.0,0.0,0.0
10.42,298.7616072,0.7046976,1.1387328,0.15331440000000002,0.0,0.0,0.0,0.0
10.440000000000001,299.6202288,0.7589520000000001,1.1926824,0.15331440000000002,0.0,0.0,0.0,0.0
10.46,300.56206080000004,0.7046976,1.1387328,0.15331440000000002,0.0,0.0,0.0,0.0
10.48,301.381668,0.4879848,1.1387328,0.0,0.0,0.0,0.0,0.0
10.5,302.3012496,0.5422392,1.3011912,0.0768096,0.0,0.0,0.0,0.0
10.52,303.04069440000006,0.4337304,1.1926824,0.15331440000000002,0.0,0.0,0.0,0.0
10.54,303.7862352,0.5422392,1.1926824,0.15331440000000002,0.0,0.0,0.0,0.0
10.559999999999999,304.60736640000005,0.5964936000000001,1.2469368,0.0,0.0,0.0,0.0,0.0
10.58,305.4458712,0.5964936000000001,1.1387328,0.15331440000000002,0.0,0.0,0.0,0.0
10.6,306.25237200000004,0.5964936000000001,1.030224,0.23012400000000002,0.0,0.0,0.0,0.0
10.620000000000001,307.1905464,0.5964936000000001,1.030224,0.30662880000000003,0.0,0.0,0.0,0.0
10.64,308.0083248,0.5964936000000001,1.030224,0.23012400000000002,0.0,0.0,0.0,0.0
10.66,308.8328088,0.650748,0.9759696,0.30662880000000003,0.0,0.0,0.0,0.0
10.68,309.68990640000004,0.5964936000000001,0.9217152000000001,0.23012400000000002,0.0,0.0,0.0,0.0
10.7,310.6021728,0.5422392,0.9759696,0.15331440000000002,0.0,0.0,0.0,0.0
10.719999999999999,311.478168,0.5422392,0.9759696,0.23012400000000002,0.0,0.0,0.0,0.0
10.74,312.2676,0.5964936000000001,0.9217152000000001,0.30662880000000003,0.0,0.0,0.0,0.0
10.76,312.94456080000003,0.5422392,0.8674608,0.3834384,0.0,0.0,0.0,0.0
10.780000000000001,313.63859039999994,0.5964936000000001,0.8132064000000001,0.5367528,0.0,0.0,0.0,0.0
10.8,314.382912,0.5964936000000001,0.8132064000000001,0.23012400000000002,0.0,0.0,0.0,0.0
10.82,315.1034592,0.4337304,0.650748,0.5367528,0.0,0.0,0.0,0.0
10.84,315.8995968,0.5422392,0.8674608,0.3834384,0.0,0.0,0.0,0.0
10.86,316.7231664,0.37947600000000004,0.8132064000000001,0.4599432,0.0,0.0,0.0,0.0
10.879999999999999,317.54734559999997,0.37947600000000004,0.8132064000000001,0.30662880000000003,0.0,0.0,0.0,0.0
10.9,318.3108696,0.5964936000000001,0.9217152000000001,0.15331440000000002,0.0,0.0,0.0,0.0
10.92,319.1070072,0.4337304,0.7589520000000001,0.15331440000000002,0.0,0.0,0.0,0.0
10.940000000000001,319.83426,0.37947600000000004,0.8132064000000001,0.15331440000000002,0.0,0.0,0.0,0.0
10.96,320.6151576,0.5422392,0.7589520000000001,0.23012400000000002,0.0,0.0,0.0,0.0
10.98,321.32930400000004,0.5422392,0.650748,0.15331440000000002,0.0,0.0,0.0,0.0
11.0,322.03826879999997,0.4879848,0.5964936000000001,0.15331440000000002,0.0,0.0,0.0,0.0
11.02,322.8398928,0.3252216,0.650748,0.15331440000000002,0.0,0.0,0.0,0.0
11.04,323.63603040000004,0.4879848,0.7046976,0.15331440000000002,0.0,0.0,0.0,0.0
11.059999999999999,324.3072,0.3252216,0.650748,0.0,0.0,0.0,0.0,0.0
11.08,325.0521312,0.4337304,0.7589520000000001,0.0768096,0.0,0.0,0.0,0.0
11.1,325.7659728,0.3252216,0.7589520000000001,0.0768096,0.0,0.0,0.0,0.0
11.120000000000001,326.5983816,0.3252216,0.7589520000000001,0.15331440000000002,0.0,0.0,0.0,0.0
11.14,327.3503232,0.3252216,0.8674608,0.0768096,0.0,0.0,0.0,0.0
11.16,328.16596799999996,0.2709672,0.7046976,0.0768096,0.0,0.0,0.0,0.0
11.18,329.02398,0.16276320000000002,0.8132064000000001,0.0768096,0.0,0.0,0.0,0.0
11.2,329.84663520000004,0.2709672,1.030224,0.0,0.0,0.0,0.0,0.0
11.219999999999999,330.6586224,0.2709672,0.9217152000000001,-0.0768096,0.0,0.0,0.0,0.0
11.24,331.4751816,0.2709672,0.8132064000000001,-0.23012400000000002,0.0,0.0,0.0,0.0
11.26,332.370684,0.16276320000000002,1.030224,0.0,0.0,0.0,0.0,0.0
11.280000000000001,333.16011599999996,0.16276320000000002,0.8132064000000001,-0.15331440000000002,0.0,0.0,0.0,0.0
11.3,333.9187632,0.37947600000000004,0.8132064000000001,-0.15331440000000002,0.0,0.0,0.0,0.0
11.32,334.73532240000003,0.2170176,0.7589520000000001,-0.0768096,0.0,0.0,0.0,0.0
11.34,335.50463759999997,0.37947600000000004,0.5964936000000001,0.0768096,0.0,0.0,0.0,0.0
11.36,336.2962032,0.2709672,0.7046976,-0.30662880000000003,0.0,0.0,0.0,0.0
11.379999999999999,337.0210176,0.2709672,0.7046976,0.0,0.0,0.0,0.0,0.0
11.4,337.74888,0.37947600000000004,0.7046976,0.0,0.0,0.0,0.0,0.0
11.42,338.5029552,0.2170176,0.650748,0.0,0.0,0.0,0.0,0.0
11.440000000000001,339.25764,0.2709672,0.7046976,-0.0768096,0.0,0.0,0.0,0.0
11.46,339.9995232,0.3252216,0.4337304,-0.0768096,0.0,0.0,0.0,0.0
11.48,340.71001199999995,0.2170176,0.650748,-0.0768096,0.0,0.0,0.0,0.0
11.5,341.3543592,0.2170176,0.5422392,-0.0768096,0.0,0.0,0.0,0.0
11.52,342.0977664,0.16276320000000002,0.5964936000000001,-0.0768096,0.0,0.0,0.0,0.0
11.54,342.82623839999997,0.2709672,0.4879848,-0.0768096,0.0,0.0,0.0,0.0
11.559999999999999,343.5138672,0.2170176,0.650748,-0.15331440000000002,0.0,0.0,0.0,0.0
11.579999999999998,344.30238479999997,0.2170176,0.5422392,-0.15331440000000002,0.0,0.0,0.0,0.0
11.600000000000001,345.1104096,0.2709672,0.5964936000000001,-0.0768096,0.0,0.0,0.0,0.0
11.620000000000001,345.87058079999997,0.16276320000000002,0.5964936000000001,0.0,0.0,0.0,0.0,0.0
11.64,346.6091112,0.0,0.1085088,-0.0768096,0.0,0.0,0.0,0.0
11.66,347.3509944,0.1085088,0.5422392,0.0768096,0.0,0.0,0.0,0.0
11.68,348.11512799999997,0.1085088,0.5422392,0.0768096,0.0,0.0,0.0,0.0
11.7,348.8088528,0.0,0.650748,-0.0768096,0.0,0.0,0.0,0.0
11.719999999999999,349.5251328,0.1085088,0.5422392,0.0,0.0,0.0,0.0,0.0
11.739999999999998,350.1789288,-0.1085088,0.5422392,0.0,0.0,0.0,0.0,0.0
11.760000000000002,350.9037432,0.0542544,0.5964936000000001,-0.23012400000000002,0.0,0.0,0.0,0.0
11.780000000000001,351.6014304,0.1085088,0.650748,-0.23012400000000002,0.0,0.0,0.0,0.0
11.8,352.2918024,0.16276320000000002,0.4879848,0.0,0.0,0.0,0.0,0.0
11.82,353.0007672,0.16276320000000002,0.4879848,0.0,0.0,0.0,0.0,0.0
11.84,353.6118912,0.0542544,0.5964936000000001,-0.0768096,0.0,0.0,0.0,0.0
11.86,354.27787920000003,0.0542544,0.5964936000000001,0.0,0.0,0.0,0.0,0.0
11.879999999999999,355.0779792,0.16276320000000002,0.5964936000000001,-0.15331440000000002,0.0,0.0,0.0,0.0
11.899999999999999,355.79395439999996,0.0,0.4337304,-0.15331440000000002,0.0,0.0,0.0,0.0
11.920000000000002,356.5017,0.0,0.4337304,-0.15331440000000002,0.0,0.0,0.0,0.0
11.940000000000001,357.2380968,0.4337304,0.2170176,-0.0768096,0.0,0.0,0.0,0.0
11.96,357.9351744,0.0542544,0.37947600000000004,-0.15331440000000002,0.0,0.0,0.0,0.0
11.98,358.63743359999995,0.0542544,0.4879848,-0.23012400000000002,0.0,0.0,0.0,0.0
12.0,359.261664,0.2170176,0.4337304,-0.15331440000000002,0.0,0.0,0.0,0.0
12.02,360.0264072,0.2170176,0.2170176,-0.0768096,0.0,0.0,0.0,0.0
12.04,360.759756,0.0542544,0.16276320000000002,-0.0768096,0.0,0.0,0.0,0.0
12.059999999999999,361.4595768,0.0542544,0.37947600000000004,0.0,0.0,0.0,0.0,0.0
12.079999999999998,362.22736799999996,-0.1085088,0.2170176,0.0,0.0,0.0,0.0,0.0
12.100000000000001,362.9168256,0.1085088,0.3252216,-0.0768096,0.0,0.0,0.0,0.0
12.120000000000001,363.635544,0.2170176,0.9759696,-0.7668768,0.0,0.0,0.0,0.0
12.14,364.2241128,-0.0542544,0.2709672,-0.0768096,0.0,0.0,0.0,0.0
12.16,364.8961968,0.2170176,0.1085088,-0.0768096,0.0,0.0,0.0,0.0
12.18,365.5563936,-0.2170176,0.2170176,-0.15331440000000002,0.0,0.0,0.0,0.0
12.2,366.13002720000003,-0.1085088,0.3252216,0.0768096,0.0,0.0,0.0,0.0
12.219999999999999,366.81643679999996,0.0542544,0.2709672,0.15331440000000002,0.0,0.0,0.0,0.0
12.239999999999998,367.4290848,-0.1085088,0.3252216,-0.15331440000000002,0.0,0.0,0.0,0.0
12.260000000000002,368.0758704,0.0,0.3252216,-0.0768096,0.0,0.0,0.0,0.0
12.280000000000001,368.704368,0.1085088,0.4337304,-0.23012400000000002,0.0,0.0,0.0,0.0
12.3,369.34353359999994,0.0,0.4337304,-0.23012400000000002,0.0,0.0,0.0,0.0
12.32,369.9497808,0.0,0.3252216,-0.23012400000000002,0.0,0.0,0.0,0.0
12.34,370.6758144,0.0,0.3252216,-0.23012400000000002,0.0,0.0,0.0,0.0
12.36,371.3305248,0.0542544,0.37947600000000004,-0.5367528,0.0,0.0,0.0,0.0
12.379999999999999,372.0522912,-0.0542544,0.37947600000000004,-0.30662880000000003,0.0,0.0,0.0,0.0
12.399999999999999,372.6219624,-0.0542544,0.37947600000000004,-0.30662880000000003,0.0,0.0,0.0,0.0
12.420000000000002,373.21175039999997,0.0,0.3252216,-0.30662880000000003,0.0,0.0,0.0,0.0
12.440000000000001,373.9048656,-0.0542544,0.4879848,-0.30662880000000003,0.0,0.0,0.0,0.0
12.46,374.634252,0.0,0.2170176,-0.4599432,0.0,0.0,0.0,0.0
12.48,375.2526912,-0.0542544,0.37947600000000004,-0.3834384,0.0,0.0,0.0,0.0
12.5,375.9918312,0.0,0.3252216,-0.30662880000000003,0.0,0.0,0.0,0.0
12.52,376.61850000000004,-0.0542544,0.2709672,-0.30662880000000003,0.0,0.0,0.0,0.0
12.54,377.4329256,-0.0542544,0.2709672,-0.5367528,0.0,0.0,0.0,0.0
12.559999999999999,378.136404,-0.16276320000000002,0.37947600000000004,-0.4599432,0.0,0.0,0.0,0.0
12.579999999999998,378.77678879999996,-0.0542544,0.37947600000000004,-0.4599432,0.0,0.0,0.0,0.0
12.600000000000001,379.5814608,-0.1085088,0.3252216,-0.5367528,0.0,0.0,0.0,0.0
12.620000000000001,380.3221248,0.0,0.3252216,-0.5367528,0.0,0.0,0.0,0.0
12.64,380.97805439999996,-0.16276320000000002,0.16276320000000002,-0.5367528,0.0,0.0,0.0,0.0
12.66,381.6117336,-0.2170176,0.1085088,-0.30662880000000003,0.0,0.0,0.0,0.0
12.68,382.3749528,-0.0542544,0.2709672,-0.4599432,0.0,0.0,0.0,0.0
12.7,383.0019264,-0.16276320000000002,0.2709672,-0.3834384,0.0,0.0,0.0,0.0
12.719999999999999,383.69534639999995,-0.16276320000000002,0.37947600000000004,-0.4599432,0.0,0.0,0.0,0.0
12.739999999999998,384.3384744,-0.16276320000000002,0.37947600000000004,-0.4599432,0.0,0.0,0.0,0.0
12.760000000000002,384.9870888,0.0,0.2170176,-0.3834384,0.0,0.0,0.0,0.0
12.780000000000001,385.6753272,-0.0542544,0.37947600000000004,-0.3834384,0.0,0.0,0.0,0.0
12.8,386.3992272,-0.1085088,0.2170176,-0.3834384,0.0,0.0,0.0,0.0
12.82,387.1033152,-0.0542544,0.16276320000000002,-0.3834384,0.0,0.0,0.0,0.0
12.84,387.69035999999994,-0.0542544,0.37947600000000004,-0.3834384,0.0,0.0,0.0,0.0
12.86,388.3048368,-0.1085088,0.2170176,-0.4599432,0.0,0.0,0.0,0.0
12.879999999999999,388.854696,-0.0542544,0.37947600000000004,-0.4599432,0.0,0.0,0.0,0.0
12.899999999999999,389.4499704,-0.0542544,0.2709672,-0.3834384,0.0,0.0,0.0,0.0
12.920000000000002,390.20556960000005,0.0,0.3252216,-0.30662880000000003,0.0,0.0,0.0,0.0
12.940000000000001,390.7468944,-0.16276320000000002,0.2709672,-0.4599432,0.0,0.0,0.0,0.0
12.96,391.2879144,-0.0542544,0.2709672,-0.3834384,0.0,0.0,0.0,0.0
12.98,391.9593888,-0.2170176,0.1085088,-0.30662880000000003,0.0,0.0,0.0,0.0
13.0,392.56411199999997,-0.16276320000000002,0.16276320000000002,-0.3834384,0.0,0.0,0.0,0.0
13.02,393.2581416,-0.16276320000000002,0.2709672,-0.4599432,0.0,0.0,0.0,0.0
13.04,393.9070608,-0.2170176,0.2170176,-0.30662880000000003,0.0,0.0,0.0,0.0
13.059999999999999,394.4550912,-0.0542544,0.2709672,-0.30662880000000003,0.0,0.0,0.0,0.0
13.079999999999998,395.00434079999997,-0.0542544,0.16276320000000002,-0.3834384,0.0,0.0,0.0,0.0
13.100000000000001,395.55359039999996,-0.1085088,0.1085088,-0.3834384,0.0,0.0,0.0,0.0
13.120000000000001,396.12844320000005,-0.16276320000000002,0.16276320000000002,-0.30662880000000003,0.0,0.0,0.0,0.0
13.14,396.657576,-0.1085088,0.2170176,-0.30662880000000003,0.0,0.0,0.0,0.0
13.16,397.33209839999995,-0.1085088,0.2170176,-0.30662880000000003,0.0,0.0,0.0,0.0
13.18,397.85147759999995,-0.16276320000000002,0.16276320000000002,-0.3834384,0.0,0.0,0.0,0.0
13.2,398.2693584,-0.2709672,0.2709672,-0.4599432,0.0,0.0,0.0,0.0
13.219999999999999,398.7494184,-0.2709672,0.16276320000000002,-0.30662880000000003,0.0,0.0,0.0,0.0
13.239999999999998,399.21027599999996,-0.1085088,0.1085088,-0.4599432,0.0,0.0,0.0,0.0
13.260000000000002,399.7311792,0.2709672,0.9217152000000001,-0.8433816000000001,0.0,0.0,0.0,0.0
13.280000000000001,400.17039600000004,-0.2170176,0.3252216,-0.5367528,0.0,0.0,0.0,0.0
13.3,400.6477128,-0.2170176,0.1085088,-0.15331440000000002,0.0,0.0,0.0,0.0
13.32,401.1271632,-0.37947600000000004,0.0542544,-0.23012400000000002,0.0,0.0,0.0,0.0
13.34,401.74072559999996,-0.1085088,0.1085088,-0.3834384,0.0,0.0,0.0,0.0
13.36,402.1903056,-0.2709672,0.0542544,-0.3834384,0.0,0.0,0.0,0.0
13.379999999999999,402.73102079999995,-0.2170176,0.1085088,-0.4599432,0.0,0.0,0.0,0.0
13.399999999999999,403.28484239999995,-0.16276320000000002,0.16276320000000002,-0.3834384,0.0,0.0,0.0,0.0
13.420000000000002,403.8664008,-0.3252216,0.3252216,-0.3834384,0.0,0.0,0.0,0.0
13.440000000000001,404.29982640000003,-0.16276320000000002,0.16276320000000002,-0.3834384,0.0,0.0,0.0,0.0
13.46,404.79207840000004,-0.16276320000000002,0.16276320000000002,-0.4599432,0.0,0.0,0.0,0.0
13.48,405.283416,-0.2170176,0.2170176,-0.3834384,0.0,0.0,0.0,0.0
13.5,405.7860312,-0.2170176,0.2170176,-0.4599432,0.0,0.0,0.0,0.0
13.52,406.28864639999995,-0.2170176,0.2170176,-0.4599432,0.0,0.0,0.0,0.0
13.54,406.7775456,-0.2709672,0.0542544,-0.5367528,0.0,0.0,0.0,0.0
13.559999999999999,407.2518144,-20.8739232,-5.5845456,-10.5814368,0.0,0.0,0.0,0.0
13.579999999999998,407.72273040000005,-0.0542544,-222.02394,156.9561504,0.0,0.0,0.0,0.0
13.600000000000001,408.19029359999996,-199.30658640000001,22.771608,-157.03296000000003,0.0,0.0,0.0,0.0
13.620000000000001,408.6548088,-59.1522312,112.0691688,29.7503088,0.0,0.0,0.0,0.0
13.64,409.1156664,-72.76094160000001,93.5809152,-86.9509056,0.0,0.0,0.0,0.0
13.66,439.0412352,162.8717088,59.0979768,156.9561504,0.0,0.0,0.0,0.0
13.68,464.55817679999996,130.12399680000001,-86.640924,156.9561504,0.0,0.0,0.0,0.0
13.7,485.3400504,133.7566032,-88.2130824,126.66908880000001,0.0,0.0,0.0,0.0
13.719999999999999,502.54418159999994,-72.76094160000001,91.95419760000001,20.4725016,0.0,0.0,0.0,0.0
13.739999999999998,517.2672408,-44.29627920000001,-177.78191520000001,-157.03296000000003,0.0,0.0,0.0,0.0
13.760000000000002,528.130008,-217.9576032,4.120591200000001,156.9561504,0.0,0.0,0.0,0.0
13.780000000000001,535.8405336,-76.0683264,96.56277360000001,156.9561504,0.0,0.0,0.0,0.0
13.8,541.0221336,17.1331128,-40.013229599999995,-7.8208632,0.0,0.0,0.0,0.0
13.82,544.1551728,109.95477120000001,-112.0149144,5.2907184,0.0,0.0,0.0,0.0
13.84,545.6358912000001,-39.4709904,-16.8075864,-2.9135831999999997,0.0,0.0,0.0,0.0
13.86,545.712396,-12.2532648,-4.988052,2.9903928,0.0,0.0,0.0,0.0
13.879999999999999,544.5172752,-7.5364848,-10.138867200000002,-1.0735056,0.0,0.0,0.0,0.0
13.899999999999999,542.451036,-64.4655048,-14.909901600000001,156.9561504,0.0,0.0,0.0,0.0
13.920000000000002,539.7172848,-74.2791504,31.446520800000002,-73.3025712,0.0,0.0,0.0,0.0
13.940000000000001,536.6433767999999,-22.609149600000002,24.560784,156.9561504,0.0,0.0,0.0,0.0
13.96,533.2274832,-32.260032,-32.693762400000004,5.2907184,0.0,0.0,0.0,0.0
13.98,529.6476071999999,-16.8618408,5.801258400000001,-11.271504,0.0,0.0,0.0,0.0
14.0,526.2353712,22.4463864,-22.2293688,42.248632799999996,0.0,0.0,0.0,0.0
14.02,523.103856,-23.747577600000003,-1.0844784,-5.137404,0.0,0.0,0.0,0.0
14.04,520.0080024,-8.4039456,-26.5127232,8.58774,0.0,0.0,0.0,0.0
14.059999999999999,517.1517216,-22.825862400000002,-8.837676,2.3003256,0.0,0.0,0.0,0.0
14.079999999999998,514.470396,-27.5972016,-6.5605152,2.9903928,0.0,0.0,0.0,0.0
14.100000000000001,512.0844216,-25.645262400000004,-7.6446888,-5.2139088000000005,0.0,0.0,0.0,0.0
14.120000000000001,510.25927920000004,-62.6220744,-159.45612,156.9561504,0.0,0.0,0.0,0.0
14.14,509.45155919999996,-45.7059792,176.3722152,156.9561504,0.0,0.0,0.0,0.0
14.16,508.52953920000004,-222.0781944,0.0,4.984089600000001,0.0,0.0,0.0,0.0
14.18,508.1750568,-142.1062944,3.5240976,-89.1744216,0.0,0.0,0.0,0.0
14.2,507.93456960000003,-15.343632000000001,92.1169608,60.6509328,0.0,0.0,0.0,0.0
14.219999999999999,507.3749568,-98.67717120000002,-27.2177256,-37.801296,0.0,0.0,0.0,0.0
14.239999999999998,507.0853968,-9.5423736,-30.1453296,-4.907280000000001,0.0,0.0,0.0,0.0
14.260000000000002,507.097284,-6.614769600000001,-31.5550296,-52.29331680000001,0.0,0.0,0.0,0.0
14.280000000000001,507.3844056,-84.4180176,-29.7658536,9.967874400000001,0.0,0.0,0.0,0.0
14.3,507.7855224,-30.958536,-23.6933232,9.967874400000001,0.0,0.0,0.0,0.0
14.32,508.1189736,-24.7778016,-8.5121496,-18.2489856,0.0,0.0,0.0,0.0
14.34,508.6066536,0.7046976,-42.34434,-5.827471200000001,0.0,0.0,0.0,0.0
14.36,509.2055856,-146.2808352,-34.157412,12.8817624,0.0,0.0,0.0,0.0
14.379999999999999,509.7572736,-100.46665200000001,-62.4053616,-12.5748288,0.0,0.0,0.0,0.0
14.399999999999999,510.16113359999997,-41.2601664,-33.3442056,-1.2268200000000002,0.0,0.0,0.0,0.0
14.420000000000002,510.61620000000005,-26.566977600000005,-38.820242400000005,-11.5781328,0.0,0.0,0.0,0.0
14.440000000000001,511.0209744,-37.62756,-31.988760000000003,10.5046272,0.0,0.0,0.0,0.0
14.46,511.3663128,-40.013229599999995,-29.928616800000004,8.2811112,0.0,0.0,0.0,0.0
14.48,511.8372288,-29.061156,34.6996512,86.7975912,0.0,0.0,0.0,0.0
14.5,512.1938448,24.723547200000002,6.7229735999999995,-6.747662400000001,0.0,0.0,0.0,0.0
14.52,512.6342807999999,126.70810320000001,-1.1387328,111.64062,0.0,0.0,0.0,0.0
14.54,513.1250088,14.0424408,-31.500775200000003,-2.3768304000000002,0.0,0.0,0.0,0.0
14.559999999999999,513.48894,-22.0669104,-25.1030232,-55.8201576,0.0,0.0,0.0,0.0
14.579999999999998,513.8769503999999,-24.018849600000003,-27.488692800000003,-27.756916800000003,0.0,0.0,0.0,0.0
14.600000000000001,514.255512,-102.25582800000001,-32.205777600000005,-73.7625144,0.0,0.0,0.0,0.0
14.620000000000001,514.5822576,-20.6572104,-1.6806672000000002,19.2456816,0.0,0.0,0.0,0.0
14.64,514.9647815999999,-48.5253792,-23.368101600000003,-4.523841600000001,0.0,0.0,0.0,0.0
14.66,515.0766432,58.39297440000001,-42.7783752,156.9561504,0.0,0.0,0.0,0.0
14.68,515.154672,-11.277295200000001,10.4098344,-5.5205376,0.0,0.0,0.0,0.0
14.7,515.160768,-3.5240976,2.4399240000000004,-6.4407288000000005,0.0,0.0,0.0,0.0
14.719999999999999,515.1580248,-15.343632000000001,-1.2469368,-17.405604,0.0,0.0,0.0,0.0
14.739999999999998,514.9928232,-24.9405648,-19.518477600000004,6.2874144,0.0,0.0,0.0,0.0
14.760000000000002,514.8297552,-23.964595199999998,7.4822304,-0.8433816000000001,0.0,0.0,0.0,0.0
14.780000000000001,514.6925951999999,-17.3498256,-6.614769600000001,-11.501323200000002,0.0,0.0,0.0,0.0
14.8,514.7300855999999,-8.6206584,-13.174980000000001,-8.5109304,0.0,0.0,0.0,0.0
14.82,514.5203832,-7.1024496,-4.1748456,-2.9135831999999997,0.0,0.0,0.0,0.0
14.84,514.389624,-5.7470040000000004,-4.2291,-1.7635728,0.0,0.0,0.0,0.0
