time,baro_altitude,accl_x,accl_y,accl_z,gps_altitude,gyro_roll,gyro_pitch,gyro_yaw
0.0,0.0,-9.2714064,-2.2229064000000003,-4.0638984,0.0,0.0,0.0,0.0
0.020000000000000018,0.01767840000000049,-9.379915200000001,-2.2229064000000003,-4.1404032,0.0,0.0,0.0,0.0
0.040000000000000036,-0.2139696,-9.379915200000001,-2.1143976,-4.1404032,0.0,0.0,0.0,0.0
0.06000000000000005,-0.21366479999999963,-9.5423736,-2.0601432,-4.0638984,0.0,0.0,0.0,0.0
0.08000000000000007,-0.12496799999999951,-9.379915200000001,-2.1143976,-4.2172128,0.0,0.0,0.0,0.0
0.10000000000000009,-0.08778239999999954,-9.3256608,-2.0601432,-4.0638984,0.0,0.0,0.0,0.0
0.1200000000000001,0.1127760000000003,-9.4338648,-2.1686520000000002,-4.1404032,0.0,0.0,0.0,0.0
0.14000000000000012,0.2740152000000003,-9.379915200000001,-2.2229064000000003,-4.0638984,0.0,0.0,0.0,0.0
0.1599999999999997,0.2767584000000004,-9.2714064,-2.3314152,-4.1404032,0.0,0.0,0.0,0.0
0.17999999999999972,0.3928872000000002,-9.3256608,-2.2771608000000003,-4.1404032,0.0,0.0,0.0,0.0
0.19999999999999973,0.2697480000000005,-9.3256608,-2.3856696,-4.0638984,0.0,0.0,0.0,0.0
0.21999999999999975,-0.013715999999999978,-9.379915200000001,-2.3314152,-4.1404032,0.0,0.0,0.0,0.0
0.23999999999999977,-0.010972799999999875,-9.3256608,-2.2771608000000003,-4.0638984,0.0,0.0,0.0,0.0
0.2599999999999998,0.07589520000000018,-9.379915200000001,-2.2229064000000003,-4.1404032,0.0,0.0,0.0,0.0
0.2799999999999998,0.026822400000000295,-9.4338648,-2.1686520000000002,-4.1404032,0.0,0.0,0.0,0.0
0.2999999999999998,0.12222480000000048,-9.379915200000001,-2.1143976,-4.0638984,0.0,0.0,0.0,0.0
0.31999999999999984,0.04450080000000024,-9.379915200000001,-2.1143976,-4.2172128,0.0,0.0,0.0,0.0
0.33999999999999986,-0.0798575999999996,-9.379915200000001,-2.1143976,-4.2172128,0.0,0.0,0.0,0.0
0.3599999999999999,-0.044195999999999874,-9.379915200000001,-2.1143976,-4.1404032,0.0,0.0,0.0,0.0
0.3799999999999999,-0.18044159999999962,-9.379915200000001,-2.2229064000000003,-4.2172128,0.0,0.0,0.0,0.0
0.3999999999999999,-0.13319759999999983,-9.3256608,-2.2771608000000003,-4.1404032,0.0,0.0,0.0,0.0
0.41999999999999993,-0.1377696,-9.2714064,-2.2229064000000003,-4.1404032,0.0,0.0,0.0,0.0
0.43999999999999995,-0.08869679999999958,-9.3256608,-2.3856696,-4.0638984,0.0,0.0,0.0,0.0
0.45999999999999996,-0.09936479999999961,-9.3256608,-2.2771608000000003,-4.1404032,0.0,0.0,0.0,0.0
0.48,-0.11917680000000001,-9.379915200000001,-2.3314152,-4.0638984,0.0,0.0,0.0,0.0
0.5,0.09540240000000019,-9.4338648,-2.2771608000000003,-4.0638984,0.0,0.0,0.0,0.0
0.52,-0.09784079999999992,-9.3256608,-2.1686520000000002,-4.0638984,0.0,0.0,0.0,0.0
0.54,-0.18379439999999994,-9.3256608,-2.1686520000000002,-4.1404032,0.0,0.0,0.0,0.0
0.56,-0.0832103999999999,-9.3256608,-2.1686520000000002,-4.2172128,0.0,0.0,0.0,0.0
0.5800000000000001,-0.15057119999999993,-9.379915200000001,-2.2229064000000003,-4.1404032,0.0,0.0,0.0,0.0
0.6000000000000001,0.06217920000000019,-9.3256608,-2.1686520000000002,-4.2172128,0.0,0.0,0.0,0.0
0.6200000000000001,0.04876800000000005,-9.4338648,-2.1686520000000002,-4.2172128,0.0,0.0,0.0,0.0
0.6400000000000001,0.0036576000000001388,-9.379915200000001,-2.2229064000000003,-4.1404032,0.0,0.0,0.0,0.0
0.6599999999999997,0.1786128000000001,-9.3256608,-2.2771608000000003,-4.0638984,0.0,0.0,0.0,0.0
0.6799999999999997,0.14965680000000045,-9.4338648,-2.2771608000000003,-3.9870888,0.0,0.0,0.0,0.0
0.6999999999999997,0.13868400000000003,-9.3256608,-2.3856696,-3.9870888,0.0,0.0,0.0,0.0
0.7199999999999998,0.12679680000000013,-9.4338648,-2.3856696,-4.0638984,0.0,0.0,0.0,0.0
0.7399999999999998,0.1459992000000003,-9.2714064,-2.2229064000000003,-4.1404032,0.0,0.0,0.0,0.0
0.7599999999999998,0.07467600000000031,-9.3256608,-2.1686520000000002,-4.0638984,0.0,0.0,0.0,0.0
0.7799999999999998,0.17769840000000006,-9.2714064,-2.2229064000000003,-4.1404032,0.0,0.0,0.0,0.0
0.7999999999999998,-0.02194559999999975,-9.3256608,-2.1686520000000002,-4.2172128,0.0,0.0,0.0,0.0
0.8199999999999998,-0.1322831999999998,-9.379915200000001,-2.1143976,-4.0638984,0.0,0.0,0.0,0.0
0.8399999999999999,-0.05029199999999974,-9.379915200000001,-2.1143976,-4.2172128,0.0,0.0,0.0,0.0
0.8599999999999999,-0.2798063999999998,-9.379915200000001,-2.2229064000000003,-4.0638984,0.0,0.0,0.0,0.0
0.8799999999999999,-0.27462479999999995,-9.3256608,-2.1686520000000002,-4.0638984,0.0,0.0,0.0,0.0
0.8999999999999999,-0.08077199999999964,-9.488119200000002,-2.2229064000000003,-4.0638984,0.0,0.0,0.0,0.0
0.9199999999999999,-0.10820399999999959,-9.379915200000001,-2.3314152,-4.0638984,0.0,0.0,0.0,0.0
0.94,0.10698480000000027,-9.379915200000001,-2.3314152,-3.9870888,0.0,0.0,0.0,0.0
0.96,0.15880080000000024,-9.3256608,-2.3856696,-4.0638984,0.0,0.0,0.0,0.0
0.98,0.18044160000000017,-9.3256608,-2.2771608000000003,-4.0638984,0.0,0.0,0.0,0.0
1.0,0.14569440000000047,-9.4338648,-2.2771608000000003,-4.1404032,0.0,0.0,0.0,0.0
1.02,0.1459992000000003,-9.379915200000001,-2.2229064000000003,-4.2172128,0.0,0.0,0.0,0.0
1.04,0.2249424000000004,-9.488119200000002,-2.0061936,-4.0638984,0.0,0.0,0.0,0.0
1.06,0.3529584000000004,-9.379915200000001,-2.2229064000000003,-4.1404032,0.0,0.0,0.0,0.0
1.08,0.21640800000000027,-9.4338648,-2.0601432,-4.0638984,0.0,0.0,0.0,0.0
1.1,0.1341120000000004,-9.4338648,-2.1686520000000002,-3.9870888,0.0,0.0,0.0,0.0
1.12,0.0627888000000004,-9.379915200000001,-2.2229064000000003,-4.1404032,0.0,0.0,0.0,0.0
1.1400000000000001,-0.02194559999999975,-9.3256608,-2.2771608000000003,-4.1404032,0.0,0.0,0.0,0.0
1.1599999999999997,-0.13929359999999968,-9.4338648,-2.2771608000000003,-4.1404032,0.0,0.0,0.0,0.0
1.1799999999999997,0.04084320000000011,-9.379915200000001,-2.3314152,-4.1404032,0.0,0.0,0.0,0.0
1.1999999999999997,-0.17830799999999972,-9.379915200000001,-2.3314152,-4.1404032,0.0,0.0,0.0,0.0
1.2199999999999998,-0.08900159999999994,-9.4338648,-2.2771608000000003,-4.0638984,0.0,0.0,0.0,0.0
1.2399999999999998,-0.0734567999999999,-9.379915200000001,-2.3314152,-4.2172128,0.0,0.0,0.0,0.0
1.2599999999999998,-0.09357359999999958,-9.3256608,-2.1686520000000002,-4.0638984,0.0,0.0,0.0,0.0
1.2799999999999998,-0.05547359999999958,-9.4338648,-2.1686520000000002,-3.9870888,0.0,0.0,0.0,0.0
1.2999999999999998,-0.006705599999999532,-9.379915200000001,-2.2229064000000003,-4.1404032,0.0,0.0,0.0,0.0
1.3199999999999998,-0.16946879999999975,-9.379915200000001,-2.1143976,-4.2172128,0.0,0.0,0.0,0.0
1.3399999999999999,-0.009143999999999805,-9.379915200000001,-2.1143976,-4.1404032,0.0,0.0,0.0,0.0
1.3599999999999999,0.06644639999999999,-9.3256608,-2.1686520000000002,-4.0638984,0.0,0.0,0.0,0.0
1.38,0.058826400000000424,-9.379915200000001,-2.2229064000000003,-4.1404032,0.0,0.0,0.0,0.0
1.4,-0.012191999999999741,-9.3256608,-2.1686520000000002,-4.1404032,0.0,0.0,0.0,0.0
1.42,-0.25237439999999983,-9.2714064,-2.3314152,-4.2937176,0.0,0.0,0.0,0.0
1.44,-0.24201119999999962,-9.379915200000001,-2.3314152,-4.1404032,0.0,0.0,0.0,0.0
1.46,-0.36057839999999997,-9.3256608,-2.2771608000000003,-4.2172128,0.0,0.0,0.0,0.0
1.48,-0.3157727999999999,-9.3256608,-2.2771608000000003,-4.1404032,0.0,0.0,0.0,0.0
1.5,-0.15727680000000002,-9.379915200000001,-2.2229064000000003,-4.0638984,0.0,0.0,0.0,0.0
1.52,-0.04602479999999994,-9.488119200000002,-2.2229064000000003,-4.0638984,0.0,0.0,0.0,0.0
1.5399999999999998,0.17160240000000018,-9.379915200000001,-2.1143976,-4.1404032,0.0,0.0,0.0,0.0
1.5599999999999998,0.3931920000000003,-9.379915200000001,-2.2229064000000003,-4.1404032,0.0,0.0,0.0,0.0
1.5799999999999998,0.20878800000000017,-9.3256608,-2.0601432,-4.2937176,0.0,0.0,0.0,0.0
1.5999999999999999,0.5196840000000004,-9.379915200000001,-2.1143976,-4.2172128,0.0,0.0,0.0,0.0
1.6199999999999999,0.2895600000000003,-9.379915200000001,-2.2229064000000003,-4.0638984,0.0,0.0,0.0,0.0
1.64,0.19903440000000017,-9.4338648,-2.2771608000000003,-4.1404032,0.0,0.0,0.0,0.0
1.66,-0.017373599999999576,-9.379915200000001,-2.2229064000000003,-4.1404032,0.0,0.0,0.0,0.0
1.68,-0.2822447999999995,-9.379915200000001,-2.2229064000000003,-4.0638984,0.0,0.0,0.0,0.0
1.7,-0.3874007999999997,-9.379915200000001,-2.2229064000000003,-3.9870888,0.0,0.0,0.0,0.0
1.72,-0.47884079999999996,-9.3256608,-2.2771608000000003,-4.0638984,0.0,0.0,0.0,0.0
1.74,-0.49164239999999987,-9.379915200000001,-2.3314152,-4.0638984,0.0,0.0,0.0,0.0
1.76,-0.4724399999999997,-9.3256608,-2.1686520000000002,-4.1404032,0.0,0.0,0.0,0.0
1.7799999999999998,-0.4968239999999997,-9.379915200000001,-2.2229064000000003,-4.1404032,0.0,0.0,0.0,0.0
1.7999999999999998,-0.45902879999999957,-9.379915200000001,-2.2229064000000003,-4.1404032,0.0,0.0,0.0,0.0
1.8199999999999998,-0.3364991999999998,-9.379915200000001,-2.1143976,-4.2172128,0.0,0.0,0.0,0.0
1.8399999999999999,-0.1828799999999999,-9.2714064,-2.1143976,-4.2172128,0.0,0.0,0.0,0.0
1.8599999999999999,-0.3389375999999995,-9.379915200000001,-2.1143976,-4.1404032,0.0,0.0,0.0,0.0
1.88,-0.23164799999999994,-9.379915200000001,-2.0061936,-4.0638984,0.0,0.0,0.0,0.0
1.9,-0.21244559999999976,-9.379915200000001,-2.2229064000000003,-3.9870888,0.0,0.0,0.0,0.0
1.92,-0.03017519999999952,-9.4338648,-2.2771608000000003,-4.0638984,0.0,0.0,0.0,0.0
1.94,-0.33832799999999985,-9.4338648,-2.3856696,-4.0638984,0.0,0.0,0.0,0.0
1.96,-0.18592799999999984,-9.4338648,-2.3856696,-4.0638984,0.0,0.0,0.0,0.0
1.98,0.0359664000000001,-9.379915200000001,-2.2229064000000003,-4.0638984,0.0,0.0,0.0,0.0
2.0,0.03992880000000007,-9.4338648,-2.2771608000000003,-4.2172128,0.0,0.0,0.0,0.0
2.02,-0.06156959999999999,-9.3256608,-2.1686520000000002,-4.1404032,0.0,0.0,0.0,0.0
2.04,0.08442960000000031,-9.379915200000001,-2.3314152,-4.0638984,0.0,0.0,0.0,0.0
2.0599999999999996,0.28011120000000017,-9.3256608,-2.1686520000000002,-4.2172128,0.0,0.0,0.0,0.0
2.08,0.28986480000000014,-9.379915200000001,-2.1143976,-4.1404032,0.0,0.0,0.0,0.0
2.0999999999999996,0.21915120000000038,-9.379915200000001,-2.1143976,-4.0638984,0.0,0.0,0.0,0.0
2.12,0.05638800000000015,-9.4338648,-2.1686520000000002,-4.1404032,0.0,0.0,0.0,0.0
2.1399999999999997,-0.12618719999999992,-9.3256608,-2.1686520000000002,-4.0638984,0.0,0.0,0.0,0.0
2.16,-0.22006559999999986,-9.3256608,-2.1686520000000002,-4.2172128,0.0,0.0,0.0,0.0
2.1799999999999997,-0.39563040000000005,-9.3256608,-2.2771608000000003,-4.2172128,0.0,0.0,0.0,0.0
2.2,-0.39105839999999986,-9.4338648,-2.3856696,-3.9870888,0.0,0.0,0.0,0.0
2.2199999999999998,-0.44927519999999954,-9.4338648,-2.3856696,-4.1404032,0.0,0.0,0.0,0.0
2.24,-0.4181856,-9.3256608,-2.2771608000000003,-4.1404032,0.0,0.0,0.0,0.0
2.26,-0.26944319999999955,-9.379915200000001,-2.3314152,-4.0638984,0.0,0.0,0.0,0.0
2.28,-0.26426159999999976,-9.4338648,-2.2771608000000003,-4.1404032,0.0,0.0,0.0,0.0
2.3,-0.2724911999999995,-9.4338648,-2.1686520000000002,-4.1404032,0.0,0.0,0.0,0.0
2.32,-0.1621536,-9.379915200000001,-2.1143976,-4.2172128,0.0,0.0,0.0,0.0
2.34,-0.004876800000000005,-9.4338648,-2.0601432,-4.0638984,0.0,0.0,0.0,0.0
2.36,0.1502664000000001,-9.4338648,-2.0601432,-4.1404032,0.0,0.0,0.0,0.0
2.38,0.14843760000000003,-9.2714064,-2.1143976,-4.2172128,0.0,0.0,0.0,0.0
2.4,0.2414016000000005,-9.3256608,-2.2771608000000003,-4.0638984,0.0,0.0,0.0,0.0
2.42,0.24201120000000015,-9.3256608,-2.2771608000000003,-4.2172128,0.0,0.0,0.0,0.0
2.44,0.3745992000000003,-9.3256608,-2.2771608000000003,-4.1404032,0.0,0.0,0.0,0.0
2.46,0.39380160000000025,-9.379915200000001,-2.3314152,-4.0638984,0.0,0.0,0.0,0.0
2.48,0.4495800000000002,-9.5423736,-2.3856696,-4.0638984,0.0,0.0,0.0,0.0
2.5,0.43312080000000036,-9.3256608,-2.3856696,-4.1404032,0.0,0.0,0.0,0.0
2.52,0.3596640000000002,-9.4338648,-2.2771608000000003,-4.0638984,0.0,0.0,0.0,0.0
2.54,0.27584400000000037,-9.4338648,-2.2771608000000003,-4.0638984,0.0,0.0,0.0,0.0
2.56,0.02194560000000029,-9.379915200000001,-2.1143976,-4.1404032,0.0,0.0,0.0,0.0
2.58,-0.22433279999999967,-9.2714064,-2.1143976,-4.2172128,0.0,0.0,0.0,0.0
2.5999999999999996,-0.34533839999999977,-9.379915200000001,-2.1143976,-4.2172128,0.0,0.0,0.0,0.0
2.62,-0.2987039999999996,-9.3256608,-2.1686520000000002,-4.1404032,0.0,0.0,0.0,0.0
2.6399999999999997,-0.3179063999999998,-9.3256608,-2.1686520000000002,-4.1404032,0.0,0.0,0.0,0.0
2.66,-0.3441191999999999,-9.3256608,-2.2771608000000003,-4.2172128,0.0,0.0,0.0,0.0
2.6799999999999997,-0.21793199999999996,-9.4338648,-2.2771608000000003,-4.0638984,0.0,0.0,0.0,0.0
2.7,-0.1621536,-9.488119200000002,-2.3314152,-4.0638984,0.0,0.0,0.0,0.0
2.7199999999999998,-0.24353519999999987,-9.379915200000001,-2.3314152,-4.0638984,0.0,0.0,0.0,0.0
2.7399999999999998,-0.1377696,-9.3256608,-2.2771608000000003,-4.0638984,0.0,0.0,0.0,0.0
2.76,-0.16733519999999985,-9.379915200000001,-2.2229064000000003,-4.1404032,0.0,0.0,0.0,0.0
2.78,-0.05730239999999965,-9.3256608,-2.2771608000000003,-4.2172128,0.0,0.0,0.0,0.0
2.8,0.048158400000000386,-9.3256608,-2.2771608000000003,-4.1404032,0.0,0.0,0.0,0.0
2.82,0.0789432000000001,-9.3256608,-2.1686520000000002,-4.2172128,0.0,0.0,0.0,0.0
2.84,-0.12496799999999951,-9.3256608,-2.0601432,-4.2172128,0.0,0.0,0.0,0.0
2.86,0.005791200000000039,-9.379915200000001,-2.1143976,-4.1404032,0.0,0.0,0.0,0.0
2.88,-0.07680959999999967,-9.3256608,-2.1686520000000002,-4.1404032,0.0,0.0,0.0,0.0
2.9,-0.15727680000000002,-9.379915200000001,-2.2229064000000003,-4.1404032,0.0,0.0,0.0,0.0
2.92,-0.3864863999999997,-9.379915200000001,-2.2229064000000003,-4.0638984,0.0,0.0,0.0,0.0
2.94,-0.2139696,-9.2714064,-2.2229064000000003,-4.0638984,0.0,0.0,0.0,0.0
2.96,0.038709600000000205,-9.3256608,-2.2771608000000003,-4.0638984,0.0,0.0,0.0,0.0
2.98,0.07162800000000037,-9.379915200000001,-2.3314152,-4.1404032,0.0,0.0,0.0,0.0
3.0,-0.0374903999999998,-9.3256608,-2.2771608000000003,-4.1404032,0.0,0.0,0.0,0.0
3.02,0.07437120000000047,-9.3256608,-2.2771608000000003,-4.1404032,0.0,0.0,0.0,0.0
3.04,-0.05821679999999968,-9.3256608,-2.2771608000000003,-4.2172128,0.0,0.0,0.0,0.0
3.06,-0.23225759999999962,-9.3256608,-2.1686520000000002,-4.1404032,0.0,0.0,0.0,0.0
3.08,-0.08503919999999998,-9.4338648,-2.0601432,-4.1404032,0.0,0.0,0.0,0.0
3.1,-0.0036575999999995975,-9.379915200000001,-2.1143976,-4.0638984,0.0,0.0,0.0,0.0
3.12,0.09631680000000023,-9.379915200000001,-2.1143976,-4.1404032,0.0,0.0,0.0,0.0
3.1399999999999997,0.03566160000000027,-9.4338648,-2.1686520000000002,-4.0638984,0.0,0.0,0.0,0.0
3.16,0.08412480000000049,-9.3256608,-2.1686520000000002,-4.1404032,0.0,0.0,0.0,0.0
3.1799999999999997,0.08351520000000028,-9.379915200000001,-2.1143976,-4.1404032,0.0,0.0,0.0,0.0
3.1999999999999997,0.031089600000000096,-9.379915200000001,-2.2229064000000003,-4.0638984,0.0,0.0,0.0,0.0
3.2199999999999998,0.08808720000000045,-9.379915200000001,-2.3314152,-4.1404032,0.0,0.0,0.0,0.0
3.2399999999999998,0.03840480000000038,-9.2714064,-2.3314152,-4.2172128,0.0,0.0,0.0,0.0
3.26,0.09418320000000033,-9.379915200000001,-2.3314152,-4.1404032,0.0,0.0,0.0,0.0
3.28,-0.13106399999999993,-9.3256608,-2.2771608000000003,-4.2172128,0.0,0.0,0.0,0.0
3.3,-0.1926335999999999,-9.2714064,-2.2229064000000003,-4.1404032,0.0,0.0,0.0,0.0
3.32,-0.1871471999999997,-9.379915200000001,-2.2229064000000003,-4.0638984,0.0,0.0,0.0,0.0
3.34,-0.19751039999999992,-9.379915200000001,-2.1143976,-4.1404032,0.0,0.0,0.0,0.0
3.36,-0.2334768,-9.4338648,-2.1686520000000002,-4.0638984,0.0,0.0,0.0,0.0
3.38,-0.08747759999999971,-9.379915200000001,-2.1143976,-4.0638984,0.0,0.0,0.0,0.0
3.4,-0.0381,-9.379915200000001,-2.2229064000000003,-4.1404032,0.0,0.0,0.0,0.0
3.42,-0.02956559999999986,-9.379915200000001,-2.2229064000000003,-4.1404032,0.0,0.0,0.0,0.0
3.44,0.042672000000000175,-9.3256608,-2.1686520000000002,-4.1404032,0.0,0.0,0.0,0.0
3.46,0.2892552000000002,-9.488119200000002,-2.1143976,-4.1404032,0.0,0.0,0.0,0.0
3.48,0.3008376000000003,-9.3256608,-2.3856696,-4.0638984,0.0,0.0,0.0,0.0
3.5,0.2886456000000003,-95.04456480000002,-38.8744968,-35.807904,0.0,0.0,0.0,0.0
3.52,0.35631120000000016,-125.6239296,-33.8864448,-40.791688799999996,0.0,0.0,0.0,0.0
3.54,0.5998464000000003,-116.2982688,-20.8739232,-36.0377232,0.0,0.0,0.0,0.0
3.56,0.8985504000000002,-115.8645384,-15.4521408,-31.8205104,0.0,0.0,0.0,0.0
3.58,0.6745224000000003,-111.58118400000001,-2.2771608000000003,-54.976776,0.0,0.0,0.0,0.0
3.6,0.6132576000000002,-131.5336968,-26.7836904,-41.021812800000006,0.0,0.0,0.0,0.0
3.62,0.6870192000000002,-131.9674272,-25.0487688,-47.1559128,0.0,0.0,0.0,0.0
3.6399999999999997,0.6995160000000002,-132.4011576,-15.9401256,-40.5618696,0.0,0.0,0.0,0.0
3.66,0.7019544000000003,-132.4011576,-15.8316168,-53.4433272,0.0,0.0,0.0,0.0
3.6799999999999997,0.6278880000000002,-131.42518800000002,-25.9162296,-46.695969600000005,0.0,0.0,0.0,0.0
3.6999999999999997,0.5120640000000002,-135.60003360000002,-25.753771200000003,-43.398643199999995,0.0,0.0,0.0,0.0
3.7199999999999998,0.43677840000000023,-132.94339680000002,-24.181307999999998,-51.21981120000001,0.0,0.0,0.0,0.0
3.7399999999999998,0.4431792000000002,-134.6783184,-27.651456,-45.3155304,0.0,0.0,0.0,0.0
3.76,0.3639312000000003,-134.7325728,-22.609149600000002,-46.1592168,0.0,0.0,0.0,0.0
3.78,0.22402800000000037,-134.5698096,-26.133247200000003,-47.76917040000001,0.0,0.0,0.0,0.0
3.8,0.16703040000000002,-136.9554792,-26.458468800000002,-46.0824072,0.0,0.0,0.0,0.0
3.82,0.1286256000000002,-138.3109248,-25.211532000000002,-48.3827328,0.0,0.0,0.0,0.0
3.84,0.0381,-135.27450720000002,-26.5127232,-49.8396768,0.0,0.0,0.0,0.0
3.86,-0.15270479999999984,-139.99159200000003,-24.2898168,-44.5489584,0.0,0.0,0.0,0.0
3.88,-0.02987039999999969,-138.41943360000002,-24.7778016,-49.149609600000005,0.0,0.0,0.0,0.0
3.9,-0.16733519999999985,-139.8291336,-26.729740800000002,-48.6893616,0.0,0.0,0.0,0.0
3.92,-0.2609088,-141.34703760000002,-25.4282448,-48.076104,0.0,0.0,0.0,0.0
3.94,-0.34686239999999996,-139.72062480000002,-24.560784,-47.9227896,0.0,0.0,0.0,0.0
3.96,-0.4312919999999998,-140.371068,-25.3200408,-47.2324176,0.0,0.0,0.0,0.0
3.98,-0.4992624,-140.262864,-26.2960104,-46.695969600000005,0.0,0.0,0.0,0.0
4.0,-0.42580559999999956,-141.1845792,-27.4344384,-45.7757784,0.0,0.0,0.0,0.0
4.02,-0.40142159999999955,-140.5880856,-24.9945144,-46.61916,0.0,0.0,0.0,0.0
4.04,-0.19171919999999987,-141.6183096,-25.591008,-45.7757784,0.0,0.0,0.0,0.0
4.06,-0.08625839999999985,-141.8892768,-25.970484,-44.2423296,0.0,0.0,0.0,0.0
4.08,-0.0701039999999996,-140.1001008,-24.181307999999998,-45.6989688,0.0,0.0,0.0,0.0
4.1,-0.07437119999999993,-140.1543552,-25.753771200000003,-43.7820816,0.0,0.0,0.0,0.0
4.12,0.03688080000000014,-139.12413120000002,-26.566977600000005,-43.0920144,0.0,0.0,0.0,0.0
4.14,-0.04053839999999973,-137.9314488,-22.1211648,-44.77908240000001,0.0,0.0,0.0,0.0
4.16,-0.02346959999999999,-138.85316400000002,-23.584814400000003,-42.4019472,0.0,0.0,0.0,0.0
4.18,0.19903440000000017,-138.7446552,-22.825862400000002,-42.5552616,0.0,0.0,0.0,0.0
4.2,0.3331464000000003,-137.4977184,-23.747577600000003,-43.32213840000001,0.0,0.0,0.0,0.0
4.22,0.2980944000000002,-137.443464,-22.7173536,-40.638374400000004,0.0,0.0,0.0,0.0
4.24,0.4431792000000002,-134.5698096,-24.072799200000002,-43.7055768,0.0,0.0,0.0,0.0
4.26,0.44592240000000033,-134.7325728,-23.801832,-42.171823200000006,0.0,0.0,0.0,0.0
4.28,0.3121152000000003,-132.8891424,-17.512588800000003,-39.1049256,0.0,0.0,0.0,0.0
4.3,0.4520184000000002,-131.804664,-28.1394408,-39.641678399999996,0.0,0.0,0.0,0.0
4.32,0.6714744000000004,-133.91906160000002,-24.3983256,-35.1178368,0.0,0.0,0.0,0.0
4.34,0.9506712000000003,-128.4972792,-18.8680344,-37.3413528,0.0,0.0,0.0,0.0
4.359999999999999,1.1942064000000003,-131.4794424,-24.344071200000002,-32.894016,0.0,0.0,0.0,0.0
4.38,1.2957048000000004,-130.0697424,-9.9218496,-36.4979712,0.0,0.0,0.0,0.0
4.4,1.7196816000000004,-125.02743600000001,-23.5308648,-42.171823200000006,0.0,0.0,0.0,0.0
4.42,1.7836896000000002,-125.02743600000001,-21.7956384,-34.1976456,0.0,0.0,0.0,0.0
4.4399999999999995,2.1204936000000005,-124.48519680000001,-18.000573600000003,-36.8814096,0.0,0.0,0.0,0.0
4.46,2.5203912,-120.0936384,-19.3560192,-33.7377024,0.0,0.0,0.0,0.0
4.48,2.8178760000000005,-121.557288,-22.2293688,-31.590691200000002,0.0,0.0,0.0,0.0
4.5,3.0934152000000004,-116.7319992,-19.6812408,-31.667196,0.0,0.0,0.0,0.0
4.52,3.4680144000000004,-114.67155120000001,-19.6812408,-30.7473096,0.0,0.0,0.0,0.0
4.54,3.7709856,-114.18387120000001,-18.1087776,-30.593690400000003,0.0,0.0,0.0,0.0
4.56,4.180332,-113.69588639999999,-18.9222888,-27.526792800000003,0.0,0.0,0.0,0.0
4.58,4.504944000000001,-111.0931992,-18.5967624,-27.220164000000004,0.0,0.0,0.0,0.0
4.6,4.8703992000000005,-105.83418000000002,-15.8316168,-28.446984,0.0,0.0,0.0,0.0
4.62,5.1697128,-106.9183536,-18.7595256,-27.1433544,0.0,0.0,0.0,0.0
4.64,5.638190400000001,-104.6411928,-11.8195344,-23.846332800000003,0.0,0.0,0.0,0.0
4.66,6.1962792,-101.27985840000001,-14.313712800000001,-25.1496576,0.0,0.0,0.0,0.0
4.68,6.559296000000002,-97.43023440000002,-13.9342368,-24.3830856,0.0,0.0,0.0,0.0
4.7,7.012228800000001,-96.83374080000002,-12.4702824,-21.086064000000004,0.0,0.0,0.0,0.0
4.72,7.549286400000001,-95.09881920000001,-17.783556,-20.319187200000002,0.0,0.0,0.0,0.0
4.74,7.9869792,-90.598752,-9.379915200000001,-21.9294456,0.0,0.0,0.0,0.0
4.76,8.6770464,-89.2975608,-11.5485672,-20.165872800000002,0.0,0.0,0.0,0.0
4.779999999999999,9.263176800000002,-86.6951784,-6.668719200000001,-19.7059296,0.0,0.0,0.0,0.0
4.8,9.793833600000003,-82.3575696,-5.801258400000001,-20.165872800000002,0.0,0.0,0.0,0.0
4.82,10.3116888,-80.1889176,-11.440058400000002,-17.0221656,0.0,0.0,0.0,0.0
4.84,10.669219200000002,-78.3997416,-7.4822304,-14.491716000000002,0.0,0.0,0.0,0.0
4.859999999999999,11.1782352,-70.8632568,-10.4640888,-14.951964,0.0,0.0,0.0,0.0
4.88,11.830812,-66.5802072,-7.4822304,-12.345009600000001,0.0,0.0,0.0,0.0
4.9,12.457176000000002,-59.423198400000004,-7.3737216000000005,-13.8016488,0.0,0.0,0.0,0.0
4.92,13.114934400000003,-54.59790960000001,-4.7170848,-4.6006512,0.0,0.0,0.0,0.0
4.9399999999999995,13.5898128,-47.603664,1.5182088,-6.8241672,0.0,0.0,0.0,0.0
4.96,14.2186152,-37.7900184,-1.6806672000000002,-5.4440328000000004,0.0,0.0,0.0,0.0
4.98,14.837664000000002,-32.747712,0.1085088,-2.4536400000000005,0.0,0.0,0.0,0.0
5.0,15.393619200000002,-26.349960000000003,-0.3252216,1.5334488,0.0,0.0,0.0,0.0
5.02,16.0580832,-21.361908,0.2170176,5.2907184,0.0,0.0,0.0,0.0
5.04,16.730472000000002,-12.361773600000001,-4.2291,4.8304704,0.0,0.0,0.0,0.0
5.06,17.292218400000003,-2.1143976,-2.2229064000000003,6.364224,0.0,0.0,0.0,0.0
5.08,17.832324,0.4337304,6.0725304,14.338401600000001,0.0,0.0,0.0,0.0
5.1,18.3044592,7.5364848,8.0784192,13.0350768,0.0,0.0,0.0,0.0
5.12,18.9027816,14.0424408,13.825728,8.5109304,0.0,0.0,0.0,0.0
5.14,19.6111368,16.1571432,7.915960800000001,20.779130400000003,0.0,0.0,0.0,0.0
5.16,20.436230400000003,20.8739232,12.524536800000002,13.418210400000001,0.0,0.0,0.0,0.0
5.18,21.054974400000003,20.1692256,14.6389344,20.4725016,0.0,0.0,0.0,0.0
5.2,21.788018400000002,24.3983256,1.4097000000000002,25.6864104,0.0,0.0,0.0,0.0
5.22,22.4899728,28.3018992,22.337877600000002,20.5493112,0.0,0.0,0.0,0.0
5.24,23.2199688,38.386512,14.855952000000002,17.2522896,0.0,0.0,0.0,0.0
5.26,23.8393224,36.434572800000005,6.7229735999999995,17.7122328,0.0,0.0,0.0,0.0
5.279999999999999,24.661368,36.7058448,8.6206584,24.9198384,0.0,0.0,0.0,0.0
5.3,25.452933599999998,34.8624144,10.355580000000002,24.766524,0.0,0.0,0.0,0.0
5.32,26.1600696,39.9047208,15.2896824,21.0092544,0.0,0.0,0.0,0.0
5.34,26.965656000000003,35.4046536,9.1628976,25.456591200000002,0.0,0.0,0.0,0.0
5.359999999999999,27.8642064,35.838384,6.343497600000001,20.4725016,0.0,0.0,0.0,0.0
5.38,28.8014664,36.0008424,15.2896824,22.1595696,0.0,0.0,0.0,0.0
5.4,29.6799,34.5911424,8.4582,21.469502400000003,0.0,0.0,0.0,0.0
5.42,30.52572,36.163605600000004,8.5121496,21.699321599999998,0.0,0.0,0.0,0.0
5.4399999999999995,31.489802400000002,34.049208,15.2896824,23.3863896,0.0,0.0,0.0,0.0
5.46,32.3950584,33.2899512,11.6028216,19.4758056,0.0,0.0,0.0,0.0
5.48,33.286903200000005,31.012790400000004,9.5423736,19.4758056,0.0,0.0,0.0,0.0
5.5,34.2491568,33.5612232,7.970215200000001,19.935748800000002,0.0,0.0,0.0,0.0
5.52,35.2397568,34.4829384,7.915960800000001,19.3224912,0.0,0.0,0.0,0.0
5.54,36.0758232,28.898392800000003,16.319601600000002,22.6963224,0.0,0.0,0.0,0.0
5.5600000000000005,36.7027968,32.4767448,8.186928,19.782434400000003,0.0,0.0,0.0,0.0
5.58,37.3849392,31.934505600000005,9.0543888,17.2522896,0.0,0.0,0.0,0.0
5.6,38.281356,30.4705512,8.6749128,23.9231424,0.0,0.0,0.0,0.0
5.62,39.2634216,30.091075200000002,12.6327408,18.785738400000003,0.0,0.0,0.0,0.0
5.640000000000001,40.128748800000004,26.8921992,12.036552,26.8367256,0.0,0.0,0.0,0.0
5.66,40.917571200000005,29.6573448,11.006328,16.5622224,0.0,0.0,0.0,0.0
5.68,41.7170616,28.0851864,10.4098344,22.236074400000003,0.0,0.0,0.0,0.0
5.699999999999999,42.555566400000004,27.325929600000002,5.7470040000000004,20.85594,0.0,0.0,0.0,0.0
5.72,43.627243199999995,29.115105600000003,13.174980000000001,18.4791096,0.0,0.0,0.0,0.0
5.74,44.5136016,27.8681688,6.0725304,19.398996,0.0,0.0,0.0,0.0
5.76,45.417943199999996,26.133247200000003,8.6749128,20.625816,0.0,0.0,0.0,0.0
5.779999999999999,46.2850992,27.000708,10.0846128,18.3254904,0.0,0.0,0.0,0.0
5.8,47.2254072,26.8921992,10.5183432,16.0254696,0.0,0.0,0.0,0.0
5.82,48.237648,26.0789928,7.5364848,19.935748800000002,0.0,0.0,0.0,0.0
5.84,49.1560104,24.018849600000003,9.488119200000002,18.632424,0.0,0.0,0.0,0.0
5.859999999999999,50.0295672,25.5367536,9.7051368,17.6354232,0.0,0.0,0.0,0.0
5.88,50.96926560000001,25.4824992,11.385804,17.17548,0.0,0.0,0.0,0.0
5.9,51.8284968,24.45258,8.4039456,17.8655472,0.0,0.0,0.0,0.0
5.92,52.6578576,22.0669104,11.982297599999999,19.7059296,0.0,0.0,0.0,0.0
5.9399999999999995,53.6460192,25.211532000000002,7.3194672,15.4119072,0.0,0.0,0.0,0.0
5.96,54.71220960000001,23.801832,6.018276,18.172176,0.0,0.0,0.0,0.0
5.98,55.651603200000004,22.0669104,4.933797600000001,18.8622432,0.0,0.0,0.0,0.0
6.0,56.6065416,24.072799200000002,6.2892432000000005,16.178784,0.0,0.0,0.0,0.0
6.02,57.489852000000006,22.2836232,12.524536800000002,18.708928800000002,0.0,0.0,0.0,0.0
6.04,58.449971999999995,21.3076536,8.186928,18.5556144,0.0,0.0,0.0,0.0
6.0600000000000005,59.452764,21.3076536,8.6206584,14.798649600000001,0.0,0.0,0.0,0.0
6.08,60.274809600000005,23.0971344,6.397752,17.3287944,0.0,0.0,0.0,0.0
6.1,61.120020000000004,24.8863104,2.1143976,14.0317728,0.0,0.0,0.0,0.0
6.12,62.0841024,21.3076536,9.379915200000001,15.871850400000001,0.0,0.0,0.0,0.0
6.140000000000001,63.17589600000001,21.1451952,15.7234128,16.6387272,0.0,0.0,0.0,0.0
6.16,64.1850888,21.361908,3.2531304000000003,13.9549632,0.0,0.0,0.0,0.0
6.18,65.208912,21.361908,6.506260800000001,17.942356800000002,0.0,0.0,0.0,0.0
6.199999999999999,66.294,20.3319888,8.4039456,15.948660000000002,0.0,0.0,0.0,0.0
6.22,67.4226744,18.9222888,11.440058400000002,15.1817832,0.0,0.0,0.0,0.0
6.24,68.4849024,21.849892800000003,6.777228,13.571829600000001,0.0,0.0,0.0,0.0
6.26,69.55444560000001,19.844004,6.506260800000001,12.7281432,0.0,0.0,0.0,0.0
6.279999999999999,70.53285360000001,21.361908,9.0001344,14.798649600000001,0.0,0.0,0.0,0.0
6.3,71.5740504,20.8199736,6.614769600000001,13.264896000000002,0.0,0.0,0.0,0.0
6.32,72.7414344,19.193256,7.5904344,14.798649600000001,0.0,0.0,0.0,0.0
6.34,73.842372,19.1390016,7.210958400000001,14.108277600000001,0.0,0.0,0.0,0.0
6.359999999999999,74.9695224,17.729301600000003,10.247376,14.185087200000002,0.0,0.0,0.0,0.0
6.38,75.89916240000001,18.217286400000003,4.3376088,13.8016488,0.0,0.0,0.0,0.0
6.4,76.99461360000001,19.247510400000003,4.0663368,13.49502,0.0,0.0,0.0,0.0
6.42,78.16778880000001,15.2896824,5.964021600000001,17.0986704,0.0,0.0,0.0,0.0
6.4399999999999995,79.18521120000001,18.217286400000003,4.988052,12.345009600000001,0.0,0.0,0.0,0.0
6.46,80.27822400000001,16.590873600000002,5.421782400000001,12.421514400000001,0.0,0.0,0.0,0.0
6.48,81.39805919999999,15.7234128,5.3132736,15.1817832,0.0,0.0,0.0,0.0
6.5,82.38804960000002,16.2653472,6.8314824000000005,12.5748288,0.0,0.0,0.0,0.0
6.52,83.474052,16.6993824,7.5904344,13.8016488,0.0,0.0,0.0,0.0
6.54,84.75908880000001,15.560649600000001,6.2349888,11.5781328,0.0,0.0,0.0,0.0
6.5600000000000005,85.87922879999999,16.4281104,3.3073848000000003,13.0350768,0.0,0.0,0.0,0.0
6.58,87.0136944,16.4281104,4.8252888,12.2682,0.0,0.0,0.0,0.0
6.6,88.3124472,14.58468,4.5000672,11.8847616,0.0,0.0,0.0,0.0
6.62,89.5020816,13.5005064,6.1267848,13.9549632,0.0,0.0,0.0,0.0
6.640000000000001,90.82125599999999,16.753332,1.789176,11.271504,0.0,0.0,0.0,0.0
6.66,91.9694376,14.58468,3.8496240000000004,12.038076,0.0,0.0,0.0,0.0
6.68,93.0697656,13.988186400000002,3.4698432,12.114885600000001,0.0,0.0,0.0,0.0
6.699999999999999,94.3121304,14.8016976,6.018276,11.9615712,0.0,0.0,0.0,0.0
6.72,95.44781520000001,13.3377432,4.554321600000001,12.958267200000002,0.0,0.0,0.0,0.0
6.74,96.569784,15.343632000000001,6.018276,11.4248184,0.0,0.0,0.0,0.0
6.76,97.66462560000001,14.476171200000001,1.789176,11.8847616,0.0,0.0,0.0,0.0
6.779999999999999,98.75337119999999,13.5005064,3.5240976,12.498324000000002,0.0,0.0,0.0,0.0
6.8,99.82535280000002,12.524536800000002,6.1267848,13.418210400000001,0.0,0.0,0.0,0.0
6.82,101.01468240000001,13.554456,5.096560800000001,11.1181896,0.0,0.0,0.0,0.0
6.84,102.1381752,12.361773600000001,6.0725304,11.501323200000002,0.0,0.0,0.0,0.0
6.859999999999999,103.40157119999999,13.771473600000002,2.7108912000000003,10.888065600000001,0.0,0.0,0.0,0.0
6.88,104.6503368,13.229234400000001,5.638800000000001,11.8847616,0.0,0.0,0.0,0.0
6.9,105.88752,12.199010400000002,5.367528,11.5781328,0.0,0.0,0.0,0.0
6.92,107.03935919999999,12.361773600000001,5.205069600000001,9.814560000000002,0.0,0.0,0.0,0.0
6.9399999999999995,108.32409120000001,12.3075192,5.6930544,9.5079312,0.0,0.0,0.0,0.0
6.96,109.65180000000001,12.686995200000002,3.4698432,11.501323200000002,0.0,0.0,0.0,0.0
6.98,110.86642800000001,12.361773600000001,3.4698432,9.967874400000001,0.0,0.0,0.0,0.0
7.0,112.03381200000001,12.8497584,2.2229064000000003,9.047683200000002,0.0,0.0,0.0,0.0
7.02,113.27922480000001,12.9040128,3.7953696000000003,10.1979984,0.0,0.0,0.0,0.0
7.04,114.5231136,11.5485672,1.2469368,10.428122400000001,0.0,0.0,0.0,0.0
7.0600000000000005,115.7349984,13.7172192,3.5240976,8.5109304,0.0,0.0,0.0,0.0
7.08,116.9246328,11.76528,3.4158936000000004,9.967874400000001,0.0,0.0,0.0,0.0
7.1,118.1645592,11.1148368,3.5240976,9.5079312,0.0,0.0,0.0,0.0
7.12,119.39869440000001,11.6028216,3.0361128,9.967874400000001,0.0,0.0,0.0,0.0
7.140000000000001,120.64288800000001,11.2230408,4.5000672,10.5046272,0.0,0.0,0.0,0.0
7.16,121.929144,11.3315496,1.789176,9.5079312,0.0,0.0,0.0,0.0
7.18,123.3108024,11.657076,4.8252888,8.357616,0.0,0.0,0.0,0.0
7.199999999999999,124.60315440000001,11.277295200000001,4.988052,8.971178400000001,0.0,0.0,0.0,0.0
7.22,125.92781520000001,10.952073600000002,3.1446216000000002,9.6612456,0.0,0.0,0.0,0.0
7.24,127.243332,10.952073600000002,6.0725304,10.1979984,0.0,0.0,0.0,0.0
7.26,128.5503144,10.952073600000002,2.7108912000000003,8.817864,0.0,0.0,0.0,0.0
7.279999999999999,129.87284160000002,11.277295200000001,4.3376088,8.58774,0.0,0.0,0.0,0.0
7.3,131.2304208,8.5121496,3.957828,11.271504,0.0,0.0,0.0,0.0
7.32,132.58129440000002,10.5725976,3.5240976,7.744358400000001,0.0,0.0,0.0,0.0
7.34,133.9614288,11.0605824,3.1446216000000002,8.6645496,0.0,0.0,0.0,0.0
7.359999999999999,135.39033120000002,9.813645600000001,3.198876,9.2778072,0.0,0.0,0.0,0.0
7.38,136.57082160000002,9.379915200000001,3.8496240000000004,9.5079312,0.0,0.0,0.0,0.0
7.4,137.7884976,9.108643200000001,3.7953696000000003,8.2811112,0.0,0.0,0.0,0.0
7.42,139.1262648,9.9218496,1.3554456000000001,8.58774,0.0,0.0,0.0,0.0
7.4399999999999995,140.4713472,10.5183432,2.7108912000000003,8.357616,0.0,0.0,0.0,0.0
7.459999999999999,141.79478880000002,9.217152,4.3376088,9.891369599999999,0.0,0.0,0.0,0.0
7.48,143.07708240000002,10.355580000000002,4.608576,8.58774,0.0,0.0,0.0,0.0
7.5,144.3356016,9.596628,2.7651456,7.744358400000001,0.0,0.0,0.0,0.0
7.52,145.66117680000002,8.5121496,2.6566368,9.2013024,0.0,0.0,0.0,0.0
7.539999999999999,146.94347040000002,8.186928,2.2229064000000003,7.2076056,0.0,0.0,0.0,0.0
7.5600000000000005,148.2010752,9.867595200000002,6.2892432000000005,6.0572904,0.0,0.0,0.0,0.0
7.58,149.5492056,8.1326736,3.4698432,9.737750400000001,0.0,0.0,0.0,0.0
7.6,150.7930944,8.566404,3.1446216000000002,6.9774816,0.0,0.0,0.0,0.0
7.619999999999999,151.99674960000002,8.94588,4.7170848,6.6708528000000005,0.0,0.0,0.0,0.0
7.640000000000001,153.25191600000002,8.4582,0.5422392,7.591044000000001,0.0,0.0,0.0,0.0
7.66,154.5360384,8.837676,3.4158936000000004,7.5142344,0.0,0.0,0.0,0.0
7.68,155.850336,7.807452,5.964021600000001,7.2076056,0.0,0.0,0.0,0.0
7.699999999999999,157.0887384,8.186928,2.548128,8.2043016,0.0,0.0,0.0,0.0
7.720000000000001,158.4728352,8.295436800000001,1.8976848000000002,7.2841104,0.0,0.0,0.0,0.0
7.74,159.7612248,7.807452,4.012082400000001,6.9009768,0.0,0.0,0.0,0.0
7.76,160.9913976,8.024164800000001,3.7953696000000003,7.2076056,0.0,0.0,0.0,0.0
7.779999999999999,162.3206304,8.6749128,1.1926824,7.0542912,0.0,0.0,0.0,0.0
7.800000000000001,163.6587024,6.9399912,1.9519392,7.0542912,0.0,0.0,0.0,0.0
7.82,165.07571760000002,7.807452,2.9279088,7.0542912,0.0,0.0,0.0,0.0
7.84,166.5283944,8.295436800000001,4.1748456,6.2109096,0.0,0.0,0.0,0.0
7.859999999999999,167.7988008,8.295436800000001,2.3314152,6.8241672,0.0,0.0,0.0,0.0
7.880000000000001,169.112184,7.4822304,2.2771608000000003,6.6708528000000005,0.0,0.0,0.0,0.0
7.9,170.4813456,7.753197600000001,2.3314152,6.9009768,0.0,0.0,0.0,0.0
7.92,171.80112960000002,7.427976000000001,0.16276320000000002,6.0572904,0.0,0.0,0.0,0.0
7.9399999999999995,173.1053688,6.9942456,2.3314152,7.2076056,0.0,0.0,0.0,0.0
7.959999999999999,174.4318584,7.753197600000001,5.0423064,5.9807856,0.0,0.0,0.0,0.0
7.98,175.886364,7.3194672,1.3554456000000001,6.4407288000000005,0.0,0.0,0.0,0.0
8.0,177.22870319999998,7.156704,0.4337304,6.2109096,0.0,0.0,0.0,0.0
8.02,178.6384032,6.1807343999999995,3.1446216000000002,6.9774816,0.0,0.0,0.0,0.0
8.04,180.001164,6.5605152,3.3073848000000003,7.591044000000001,0.0,0.0,0.0,0.0
8.06,181.327044,6.777228,1.6806672000000002,6.364224,0.0,0.0,0.0,0.0
8.08,182.5971456,7.210958400000001,2.3314152,6.2874144,0.0,0.0,0.0,0.0
8.1,183.98886240000002,6.614769600000001,1.6264128000000002,6.2109096,0.0,0.0,0.0,0.0
8.12,185.30316000000002,7.210958400000001,3.0903671999999998,6.6708528000000005,0.0,0.0,0.0,0.0
8.14,186.61166640000002,6.397752,2.4941784,6.4407288000000005,0.0,0.0,0.0,0.0
8.16,187.9866192,6.7229735999999995,3.2531304000000003,5.2139088000000005,0.0,0.0,0.0,0.0
8.18,189.40180560000002,5.8555128,4.012082400000001,6.0572904,0.0,0.0,0.0,0.0
8.2,190.64478000000003,6.885736800000001,2.9818584,6.1341,0.0,0.0,0.0,0.0
8.22,192.02552400000002,6.614769600000001,2.4941784,5.5205376,0.0,0.0,0.0,0.0
8.24,193.31513280000001,7.048500000000001,2.2771608000000003,5.2907184,0.0,0.0,0.0,0.0
8.26,194.5684704,5.1508152,2.1143976,5.9807856,0.0,0.0,0.0,0.0
8.28,195.8632608,5.5302912,3.3616392,5.5205376,0.0,0.0,0.0,0.0
8.3,197.19096960000002,5.5845456,3.0903671999999998,6.0572904,0.0,0.0,0.0,0.0
8.32,198.47874960000001,5.7470040000000004,2.1686520000000002,5.2139088000000005,0.0,0.0,0.0,0.0
8.34,199.76378640000001,6.018276,1.8976848000000002,4.907280000000001,0.0,0.0,0.0,0.0
8.36,201.02565840000003,5.096560800000001,2.6023824,6.4407288000000005,0.0,0.0,0.0,0.0
8.38,202.2219984,5.801258400000001,2.548128,5.5205376,0.0,0.0,0.0,0.0
8.4,203.57652960000001,5.801258400000001,2.1143976,4.4473368,0.0,0.0,0.0,0.0
8.42,204.8914368,6.2892432000000005,1.7349216,4.8304704,0.0,0.0,0.0,0.0
8.44,206.0716224,5.1508152,2.7651456,5.137404,0.0,0.0,0.0,0.0
8.459999999999999,207.31734,5.638800000000001,3.6868608000000003,4.4473368,0.0,0.0,0.0,0.0
8.48,208.57677360000002,5.5845456,1.789176,5.2907184,0.0,0.0,0.0,0.0
8.5,209.7859152,5.205069600000001,1.9519392,6.2874144,0.0,0.0,0.0,0.0
8.52,211.04992080000002,5.801258400000001,2.9818584,3.2205168000000004,0.0,0.0,0.0,0.0
8.54,212.3642184,5.096560800000001,1.4097000000000002,4.677156,0.0,0.0,0.0,0.0
8.56,213.5358696,4.7170848,0.8132064000000001,4.907280000000001,0.0,0.0,0.0,0.0
8.58,214.6935,5.801258400000001,1.8976848000000002,4.0638984,0.0,0.0,0.0,0.0
8.6,216.0785112,5.259324,2.0061936,4.6006512,0.0,0.0,0.0,0.0
8.62,217.5016224,4.608576,1.6806672000000002,4.984089600000001,0.0,0.0,0.0,0.0
8.64,218.74734,4.7170848,1.8976848000000002,4.677156,0.0,0.0,0.0,0.0
8.66,219.96013920000001,4.988052,2.3856696,5.367223200000001,0.0,0.0,0.0,0.0
8.68,221.2399944,4.3376088,1.0844784,4.984089600000001,0.0,0.0,0.0,0.0
8.7,222.63689280000003,4.012082400000001,1.1926824,4.984089600000001,0.0,0.0,0.0,0.0
8.72,223.8829152,4.2833544,2.2229064000000003,4.4473368,0.0,0.0,0.0,0.0
8.74,225.2286072,4.445812800000001,0.8674608,4.2937176,0.0,0.0,0.0,0.0
8.76,226.53802800000003,4.8795432000000005,1.5182088,4.0638984,0.0,0.0,0.0,0.0
8.78,228.0580656,4.2291,1.8434304000000001,3.910584,0.0,0.0,0.0,0.0
8.8,229.50068400000004,4.8252888,2.3314152,3.910584,0.0,0.0,0.0,0.0
8.82,230.80339920000003,4.3915584,2.3314152,4.677156,0.0,0.0,0.0,0.0
8.84,232.080816,3.957828,1.030224,4.4473368,0.0,0.0,0.0,0.0
8.86,233.3615856,3.9035736000000005,1.8434304000000001,4.2937176,0.0,0.0,0.0,0.0
8.88,234.60943680000003,4.8252888,3.3073848000000003,3.2205168000000004,0.0,0.0,0.0,0.0
8.9,235.8688704,4.1748456,0.7046976,3.8337744,0.0,0.0,0.0,0.0
8.92,237.0652104,4.2833544,1.8976848000000002,4.2172128,0.0,0.0,0.0,0.0
8.94,238.2633792,3.9035736000000005,2.3856696,4.677156,0.0,0.0,0.0,0.0
8.959999999999999,239.5670088,4.5000672,2.548128,3.1437072,0.0,0.0,0.0,0.0
8.98,240.8014488,4.3915584,1.3554456000000001,2.6069544000000002,0.0,0.0,0.0,0.0
9.0,242.1770112,3.4698432,1.3011912,4.984089600000001,0.0,0.0,0.0,0.0
9.02,243.4096224,3.3616392,0.8674608,4.2937176,0.0,0.0,0.0,0.0
9.04,244.5322008,4.012082400000001,0.8674608,3.0672024,0.0,0.0,0.0,0.0
9.06,245.68891680000002,3.578352,1.3011912,3.910584,0.0,0.0,0.0,0.0
9.08,246.8870856,3.7953696000000003,2.0601432,4.4473368,0.0,0.0,0.0,0.0
9.1,248.1078096,3.4158936000000004,2.2229064000000003,4.0638984,0.0,0.0,0.0,0.0
9.12,249.33798240000002,4.0663368,1.4639544,2.5304496,0.0,0.0,0.0,0.0
9.14,250.5032328,3.2531304000000003,0.8674608,3.7572696000000003,0.0,0.0,0.0,0.0
9.16,251.7337104,3.0903671999999998,2.1143976,3.7572696000000003,0.0,0.0,0.0,0.0
9.18,252.9248688,3.198876,2.0061936,3.450336,0.0,0.0,0.0,0.0
9.2,254.168148,3.8496240000000004,1.4639544,2.8370784000000002,0.0,0.0,0.0,0.0
9.22,255.3711936,3.3616392,1.6264128000000002,3.5271456,0.0,0.0,0.0,0.0
9.24,256.6647648,3.578352,1.4097000000000002,2.9903928,0.0,0.0,0.0,0.0
9.26,257.9153592,3.7411152,1.1387328,2.3768304000000002,0.0,0.0,0.0,0.0
9.28,259.1943,3.6326064,2.3314152,2.8370784000000002,0.0,0.0,0.0,0.0
9.3,260.4278256,2.7651456,1.4639544,3.8337744,0.0,0.0,0.0,0.0
9.32,261.6028296,2.9818584,0.5964936000000001,2.8370784000000002,0.0,0.0,0.0,0.0
9.34,262.82964960000004,3.3616392,0.5422392,3.1437072,0.0,0.0,0.0,0.0
9.36,264.04427760000004,2.6566368,1.030224,3.3738312000000006,0.0,0.0,0.0,0.0
9.38,265.27536480000003,2.8736544000000004,1.6806672000000002,3.6036504000000003,0.0,0.0,0.0,0.0
9.4,266.4921264,3.3073848000000003,0.2709672,2.3768304000000002,0.0,0.0,0.0,0.0
9.42,267.68572320000004,2.7651456,2.3314152,2.8370784000000002,0.0,0.0,0.0,0.0
9.44,268.86408,2.9279088,0.5422392,3.3738312000000006,0.0,0.0,0.0,0.0
9.459999999999999,270.1338768,3.0361128,1.4097000000000002,1.8400776,0.0,0.0,0.0,0.0
9.48,271.3859952,3.0361128,1.4097000000000002,2.3768304000000002,0.0,0.0,0.0,0.0
9.5,272.5862976,2.8194000000000004,0.1085088,3.3738312000000006,0.0,0.0,0.0,0.0
9.52,273.7387464,2.6566368,2.3314152,2.5304496,0.0,0.0,0.0,0.0
9.54,275.0554824,3.2531304000000003,1.1926824,2.5304496,0.0,0.0,0.0,0.0
9.56,276.40696560000004,2.8194000000000004,0.1085088,3.2970216000000003,0.0,0.0,0.0,0.0
9.58,277.6176312,2.6566368,2.1143976,2.3768304000000002,0.0,0.0,0.0,0.0
9.6,278.79659760000004,2.548128,1.4639544,1.8400776,0.0,0.0,0.0,0.0
9.62,280.00452,2.7108912000000003,-0.7589520000000001,2.4536400000000005,0.0,0.0,0.0,0.0
9.64,281.2508472,2.2229064000000003,0.37947600000000004,3.0672024,0.0,0.0,0.0,0.0
9.66,282.50845200000003,1.8976848000000002,1.789176,3.0672024,0.0,0.0,0.0,0.0
9.68,283.6490136,3.4158936000000004,0.0542544,1.4569440000000002,0.0,0.0,0.0,0.0
9.7,284.7179472,2.548128,0.37947600000000004,2.4536400000000005,0.0,0.0,0.0,0.0
9.72,285.9365376,2.1143976,0.8132064000000001,3.3738312000000006,0.0,0.0,0.0,0.0
9.74,287.1203808,2.8194000000000004,0.9759696,1.6867632000000001,0.0,0.0,0.0,0.0
9.76,288.1932768,2.8194000000000004,1.1926824,1.9936968000000002,0.0,0.0,0.0,0.0
9.78,289.27806000000004,2.2771608000000003,0.5422392,2.5304496,0.0,0.0,0.0,0.0
9.8,290.439348,2.4399240000000004,1.030224,2.0702016,0.0,0.0,0.0,0.0
9.82,291.6378216,2.3314152,1.4639544,2.3003256,0.0,0.0,0.0,0.0
9.84,292.6272024,1.9519392,0.8674608,2.4536400000000005,0.0,0.0,0.0,0.0
9.86,293.783004,2.0061936,0.37947600000000004,2.3768304000000002,0.0,0.0,0.0,0.0
9.88,294.89521920000004,1.8434304000000001,1.0844784,2.3768304000000002,0.0,0.0,0.0,0.0
9.9,296.0452296,2.0601432,1.1926824,2.3003256,0.0,0.0,0.0,0.0
9.92,297.1611024,2.2229064000000003,0.7046976,1.9936968000000002,0.0,0.0,0.0,0.0
9.94,298.31385600000004,2.1143976,1.3554456000000001,2.223516,0.0,0.0,0.0,0.0
9.959999999999999,299.4001632,2.0061936,1.030224,2.223516,0.0,0.0,0.0,0.0
9.98,300.5425536,2.0601432,0.5422392,1.8400776,0.0,0.0,0.0,0.0
10.0,301.6761048,2.0061936,1.1387328,1.8400776,0.0,0.0,0.0,0.0
10.02,302.710596,1.8976848000000002,0.9217152000000001,2.4536400000000005,0.0,0.0,0.0,0.0
10.04,303.8206776,2.0061936,0.7046976,2.0702016,0.0,0.0,0.0,0.0
10.06,304.9018032,2.0061936,0.37947600000000004,1.7635728,0.0,0.0,0.0,0.0
10.08,306.0067032,1.8976848000000002,1.1387328,2.0702016,0.0,0.0,0.0,0.0
10.1,307.0960584,2.0061936,0.4879848,1.6102584000000002,0.0,0.0,0.0,0.0
10.12,308.15950560000005,1.789176,1.030224,1.9168872,0.0,0.0,0.0,0.0
10.14,309.350664,1.7349216,1.0844784,1.9936968000000002,0.0,0.0,0.0,0.0
10.16,310.4522112,1.8976848000000002,1.1387328,1.4569440000000002,0.0,0.0,0.0,0.0
10.18,311.7092064,1.5724632,0.8132064000000001,1.5334488,0.0,0.0,0.0,0.0
10.2,312.8567784,1.7349216,0.4337304,2.223516,0.0,0.0,0.0,0.0
10.22,313.95680160000006,1.6806672000000002,1.1387328,1.9168872,0.0,0.0,0.0,0.0
10.24,315.18606000000005,1.6264128000000002,0.7589520000000001,1.6102584000000002,0.0,0.0,0.0,0.0
10.26,316.36716,1.8976848000000002,0.5964936000000001,1.3036296,0.0,0.0,0.0,0.0
10.28,317.52113280000003,1.3554456000000001,1.2469368,1.7635728,0.0,0.0,0.0,0.0
10.3,318.71015760000006,1.5724632,0.7046976,1.9936968000000002,0.0,0.0,0.0,0.0
10.32,319.8318216,1.8434304000000001,0.5422392,1.3036296,0.0,0.0,0.0,0.0
10.34,320.90532720000004,1.4639544,1.030224,1.6867632000000001,0.0,0.0,0.0,0.0
10.36,322.1013624000001,1.5182088,0.3252216,1.5334488,0.0,0.0,0.0,0.0
10.38,323.28977760000004,1.4639544,0.7046976,1.3801344,0.0,0.0,0.0,0.0
10.4,324.46904880000005,1.3011912,0.650748,1.6102584000000002,0.0,0.0,0.0,0.0
10.42,325.5535272000001,1.4097000000000002,0.650748,1.3801344,0.0,0.0,0.0,0.0
10.44,326.54138400000005,1.3011912,0.7589520000000001,1.4569440000000002,0.0,0.0,0.0,0.0
10.459999999999999,327.64780800000005,1.0844784,0.8674608,1.7635728,0.0,0.0,0.0,0.0
10.48,328.6246920000001,1.5724632,0.7046976,1.0735056,0.0,0.0,0.0,0.0
10.5,329.67411840000005,1.0844784,0.5422392,1.2268200000000002,0.0,0.0,0.0,0.0
10.52,330.73177440000006,1.3011912,0.650748,1.8400776,0.0,0.0,0.0,0.0
10.54,331.75651200000004,1.4639544,0.7046976,1.2268200000000002,0.0,0.0,0.0,0.0
10.56,332.8150824,1.2469368,0.4879848,0.996696,0.0,0.0,0.0,0.0
10.58,333.8181792000001,1.4639544,0.37947600000000004,1.4569440000000002,0.0,0.0,0.0,0.0
10.6,334.8374304,1.1387328,0.5964936000000001,1.5334488,0.0,0.0,0.0,0.0
10.62,335.8338216,1.1387328,0.2709672,1.0735056,0.0,0.0,0.0,0.0
10.64,336.8570352000001,1.1926824,0.4337304,1.0735056,0.0,0.0,0.0,0.0
10.66,337.9107288,1.030224,0.8132064000000001,1.4569440000000002,0.0,0.0,0.0,0.0
10.68,338.8016592,1.030224,0.5964936000000001,1.3036296,0.0,0.0,0.0,0.0
10.7,339.7434912,1.0844784,0.7589520000000001,1.0735056,0.0,0.0,0.0,0.0
10.72,340.7639616000001,1.1387328,0.5964936000000001,1.0735056,0.0,0.0,0.0,0.0
10.74,341.8069872000001,0.9759696,0.0,0.9201912000000001,0.0,0.0,0.0,0.0
10.76,342.80154960000004,1.0844784,0.5422392,0.9201912000000001,0.0,0.0,0.0,0.0
10.78,343.78452960000004,0.9759696,0.4337304,1.3036296,0.0,0.0,0.0,0.0
10.8,344.83029840000006,0.8674608,0.1085088,1.0735056,0.0,0.0,0.0,0.0
10.82,345.71178000000003,0.9759696,0.7589520000000001,0.6900672,0.0,0.0,0.0,0.0
10.84,346.8218616000001,0.8132064000000001,0.2709672,0.8433816000000001,0.0,0.0,0.0,0.0
10.86,347.82191040000004,0.8132064000000001,-0.0542544,1.0735056,0.0,0.0,0.0,0.0
10.88,348.6726072,0.8674608,0.650748,0.8433816000000001,0.0,0.0,0.0,0.0
10.9,349.68058080000003,0.8132064000000001,0.37947600000000004,1.0735056,0.0,0.0,0.0,0.0
10.92,350.58461760000006,0.9759696,0.1085088,0.6900672,0.0,0.0,0.0,0.0
10.94,351.66696240000005,0.9217152000000001,0.7046976,0.7668768,0.0,0.0,0.0,0.0
10.959999999999999,352.848672,0.9759696,0.8674608,0.7668768,0.0,0.0,0.0,0.0
10.98,353.81244960000004,0.9759696,0.0,0.4599432,0.0,0.0,0.0,0.0
11.0,354.90759600000007,1.030224,0.8132064000000001,0.8433816000000001,0.0,0.0,0.0,0.0
11.02,355.92867600000005,0.650748,0.3252216,1.1500104,0.0,0.0,0.0,0.0
11.04,357.02138400000007,0.650748,0.1085088,0.7668768,0.0,0.0,0.0,0.0
11.06,358.04063520000005,0.7046976,0.0542544,0.5367528,0.0,0.0,0.0,0.0
11.08,359.04525600000005,0.7589520000000001,0.1085088,0.6900672,0.0,0.0,0.0,0.0
11.1,360.07273680000003,0.7589520000000001,0.5422392,0.6900672,0.0,0.0,0.0,0.0
11.12,360.9612288000001,0.8132064000000001,0.4879848,0.9201912000000001,0.0,0.0,0.0,0.0
11.14,361.87806720000003,0.5422392,0.0,0.5367528,0.0,0.0,0.0,0.0
11.16,362.84702640000006,0.7589520000000001,0.0,0.3834384,0.0,0.0,0.0,0.0
11.18,363.8620104000001,-0.2709672,-0.0542544,0.6900672,0.0,0.0,0.0,0.0
11.2,365.1625920000001,-135.8167464,38.1155448,-119.46148320000002,0.0,0.0,0.0,0.0
11.22,366.19921680000004,-38.007036,-66.5259528,-80.66349120000001,0.0,0.0,0.0,0.0
11.24,359.927652,5.8555128,13.662964800000001,0.9201912000000001,0.0,0.0,0.0,0.0
11.26,359.76549840000007,36.597336,16.8618408,25.303276800000003,0.0,0.0,0.0,0.0
11.28,355.15052160000005,17.458334400000002,17.5668432,31.744005600000005,0.0,0.0,0.0,0.0
11.3,351.66452400000003,-1.7349216,-0.2170176,25.609905600000005,0.0,0.0,0.0,0.0
11.32,349.0673232000001,221.9696856,0.0,156.9561504,0.0,0.0,0.0,0.0
11.34,348.2468016000001,74.76713520000001,47.3326968,63.181382400000004,0.0,0.0,0.0,0.0
11.36,348.9530232000001,84.7432392,41.043148800000004,51.6032496,0.0,0.0,0.0,0.0
11.38,349.92015360000005,55.140148800000006,76.393548,95.0787024,0.0,0.0,0.0,0.0
11.4,351.22683120000005,56.00760960000001,36.4888272,57.430416,0.0,0.0,0.0,0.0
11.42,352.7965512,64.3030464,12.144756000000001,48.076104,0.0,0.0,0.0,0.0
11.44,354.62382720000005,66.5802072,9.4338648,33.2009496,0.0,0.0,0.0,0.0
11.46,356.61691440000004,54.218433600000004,27.651456,22.9261416,0.0,0.0,0.0,0.0
11.48,358.55544240000006,48.688142400000004,25.3742952,21.0092544,0.0,0.0,0.0,0.0
11.5,360.531156,33.3442056,41.693896800000005,6.747662400000001,0.0,0.0,0.0,0.0
11.52,362.5879464,21.958401600000002,40.175688,10.9645704,0.0,0.0,0.0,0.0
11.540000000000001,364.4819736,14.205204,37.085320800000005,9.584436,0.0,0.0,0.0,0.0
11.56,366.4281216,8.5121496,32.9104752,10.044684,0.0,0.0,0.0,0.0
11.58,368.2867920000001,-1.9519392,30.362347200000002,8.58774,0.0,0.0,0.0,0.0
11.6,370.21312800000004,-1.3011912,20.494447200000003,6.0572904,0.0,0.0,0.0,0.0
11.620000000000001,371.90751120000004,-4.608576,18.3800496,5.903976000000001,0.0,0.0,0.0,0.0
11.64,373.40286000000003,-3.7411152,17.2955712,5.5205376,0.0,0.0,0.0,0.0
11.66,374.85279360000004,-2.8736544000000004,16.4281104,-0.3834384,0.0,0.0,0.0,0.0
11.68,376.3130904,-0.0542544,17.9463192,2.6069544000000002,0.0,0.0,0.0,0.0
11.700000000000001,377.5069920000001,8.729167200000001,17.1870624,13.725144,0.0,0.0,0.0,0.0
11.72,378.67711920000005,19.4102736,19.844004,9.737750400000001,0.0,0.0,0.0,0.0
11.74,379.7341656000001,9.108643200000001,21.904147200000004,10.734751200000002,0.0,0.0,0.0,0.0
11.76,380.75829360000006,30.036820800000005,32.964729600000005,12.8817624,0.0,0.0,0.0,0.0
11.780000000000001,381.68976240000006,37.410542400000004,18.434304,10.811256,0.0,0.0,0.0,0.0
11.8,382.520952,30.308092800000004,-4.1748456,-7.5142344,0.0,0.0,0.0,0.0
11.82,383.33111040000006,34.049208,12.686995200000002,8.2811112,0.0,0.0,0.0,0.0
11.84,384.235452,28.5731712,11.657076,13.8016488,0.0,0.0,0.0,0.0
11.860000000000001,385.0824912,30.633314400000003,9.2714064,10.734751200000002,0.0,0.0,0.0,0.0
11.88,386.0026824,29.6573448,5.476036800000001,9.891369599999999,0.0,0.0,0.0,0.0
11.9,386.81649840000006,29.16936,4.3376088,9.3546168,0.0,0.0,0.0,0.0
11.92,387.75071040000006,29.16936,1.6264128000000002,7.8208632,0.0,0.0,0.0,0.0
11.94,388.76020800000003,28.410408,-2.0601432,7.6675488,0.0,0.0,0.0,0.0
11.96,389.7754968000001,25.753771200000003,-5.6930544,7.2841104,0.0,0.0,0.0,0.0
11.98,390.72068160000003,20.8739232,-9.1628976,4.2937176,0.0,0.0,0.0,0.0
12.0,391.61466,81.761076,-57.79678560000001,-27.449983200000002,0.0,0.0,0.0,0.0
12.02,392.59977360000005,-21.253704000000003,-46.085455200000006,7.130796,0.0,0.0,0.0,0.0
12.040000000000001,393.3504960000001,11.8195344,1.5182088,9.5079312,0.0,0.0,0.0,0.0
12.06,394.0844544,15.0726648,10.4098344,-8.8943688,0.0,0.0,0.0,0.0
12.08,394.9180824,-1.3011912,2.2771608000000003,4.7539656,0.0,0.0,0.0,0.0
12.1,395.7779232000001,-2.6566368,-7.210958400000001,7.5142344,0.0,0.0,0.0,0.0
12.120000000000001,396.5502864,-3.957828,-7.970215200000001,4.984089600000001,0.0,0.0,0.0,0.0
12.14,397.3976304,0.5964936000000001,-2.4399240000000004,3.8337744,0.0,0.0,0.0,0.0
12.16,398.3065440000001,0.9217152000000001,-0.4879848,3.450336,0.0,0.0,0.0,0.0
12.18,399.35688480000005,0.7589520000000001,-1.5182088,3.6036504000000003,0.0,0.0,0.0,0.0
12.200000000000001,400.3252344,0.0542544,-0.5964936000000001,4.0638984,0.0,0.0,0.0,0.0
12.22,401.263104,0.5422392,0.2170176,3.68046,0.0,0.0,0.0,0.0
12.24,402.0653376,-1.3011912,-0.650748,2.683764,0.0,0.0,0.0,0.0
12.26,402.8200224000001,-0.9759696,0.4337304,3.450336,0.0,0.0,0.0,0.0
12.280000000000001,403.59177600000004,-3.0903671999999998,-2.1143976,0.996696,0.0,0.0,0.0,0.0
12.3,404.35164240000006,-1.789176,-0.0542544,0.0,0.0,0.0,0.0,0.0
12.32,405.10419360000003,-1.3011912,-2.3856696,0.23012400000000002,0.0,0.0,0.0,0.0
12.34,405.8555256,-0.3252216,-0.2170176,0.0768096,0.0,0.0,0.0,0.0
12.360000000000001,406.70561280000004,0.2170176,0.650748,-0.8433816000000001,0.0,0.0,0.0,0.0
12.38,407.52522000000005,0.16276320000000002,-1.4639544,-0.0768096,0.0,0.0,0.0,0.0
12.4,408.24302400000005,0.9759696,0.2170176,0.0768096,0.0,0.0,0.0,0.0
12.42,409.08732000000003,2.1143976,0.9217152000000001,0.30662880000000003,0.0,0.0,0.0,0.0
12.44,409.8133536000001,0.7589520000000001,-0.1085088,0.0,0.0,0.0,0.0,0.0
12.46,410.7393360000001,0.1085088,-1.1926824,0.6135624,0.0,0.0,0.0,0.0
12.48,411.57204960000007,2.0601432,-5.421782400000001,3.68046,0.0,0.0,0.0,0.0
12.5,412.60379760000006,8.241182400000001,-3.4698432,10.888065600000001,0.0,0.0,0.0,0.0
12.52,413.56513680000006,19.464223200000003,-5.5845456,4.1404032,0.0,0.0,0.0,0.0
12.540000000000001,414.48136560000006,2.8194000000000004,-1.4097000000000002,4.984089600000001,0.0,0.0,0.0,0.0
12.56,415.4250264000001,1.030224,-0.2709672,3.2970216000000003,0.0,0.0,0.0,0.0
12.58,416.31382320000006,0.2709672,0.16276320000000002,3.6036504000000003,0.0,0.0,0.0,0.0
12.6,417.36355440000006,-1.0844784,1.7349216,2.4536400000000005,0.0,0.0,0.0,0.0
12.620000000000001,418.25539920000006,-1.789176,0.5964936000000001,3.0672024,0.0,0.0,0.0,0.0
12.64,419.13139440000003,-1.4639544,0.7046976,2.9903928,0.0,0.0,0.0,0.0
12.66,419.97264240000004,-2.0061936,-0.0542544,4.2172128,0.0,0.0,0.0,0.0
12.68,420.85442880000005,-3.578352,-2.0601432,3.9870888,0.0,0.0,0.0,0.0
12.700000000000001,421.7148792000001,-2.4399240000000004,-1.1387328,2.5304496,0.0,0.0,0.0,0.0
12.72,422.58691200000004,-0.2709672,-0.7046976,1.3801344,0.0,0.0,0.0,0.0
12.74,423.42206400000003,-0.2709672,0.37947600000000004,1.5334488,0.0,0.0,0.0,0.0
12.76,424.2258216,0.2709672,-0.0542544,1.2268200000000002,0.0,0.0,0.0,0.0
12.780000000000001,424.9174128,0.2709672,-0.16276320000000002,1.1500104,0.0,0.0,0.0,0.0
12.8,425.71172160000003,0.2170176,-0.2170176,1.2268200000000002,0.0,0.0,0.0,0.0
12.82,426.44628960000006,0.37947600000000004,-0.0542544,0.996696,0.0,0.0,0.0,0.0
12.84,427.1714088000001,0.4879848,-0.37947600000000004,1.6102584000000002,0.0,0.0,0.0,0.0
12.860000000000001,427.8916512,0.2709672,0.0542544,1.1500104,0.0,0.0,0.0,0.0
12.88,428.5850712000001,0.2709672,-0.0542544,0.9201912000000001,0.0,0.0,0.0,0.0
12.9,429.36200640000004,0.37947600000000004,0.16276320000000002,0.9201912000000001,0.0,0.0,0.0,0.0
12.92,430.10023200000006,0.3252216,0.0,0.7668768,0.0,0.0,0.0,0.0
12.94,430.7601240000001,-0.0542544,0.0542544,0.6135624,0.0,0.0,0.0,0.0
12.96,431.3968512,0.2170176,0.0,0.7668768,0.0,0.0,0.0,0.0
12.98,431.99852640000006,0.3252216,0.1085088,0.996696,0.0,0.0,0.0,0.0
13.0,432.81508560000003,0.4337304,0.2170176,0.996696,0.0,0.0,0.0,0.0
13.02,433.55453040000003,0.4879848,-0.0542544,0.7668768,0.0,0.0,0.0,0.0
13.040000000000001,434.2665432,0.4879848,-0.0542544,0.8433816000000001,0.0,0.0,0.0,0.0
13.06,434.8734,0.5964936000000001,0.16276320000000002,0.6900672,0.0,0.0,0.0,0.0
13.08,435.52811040000006,0.4879848,-0.16276320000000002,0.5367528,0.0,0.0,0.0,0.0
13.1,436.22976000000006,0.7046976,-0.2709672,0.4599432,0.0,0.0,0.0,0.0
13.120000000000001,436.7957736,0.7046976,-0.4879848,0.30662880000000003,0.0,0.0,0.0,0.0
13.14,437.5873392000001,0.650748,-0.5422392,0.30662880000000003,0.0,0.0,0.0,0.0
13.16,438.1795656000001,0.7589520000000001,-0.8674608,0.15331440000000002,0.0,0.0,0.0,0.0
13.18,438.8851776,0.9217152000000001,-1.1387328,-0.15331440000000002,0.0,0.0,0.0,0.0
13.200000000000001,439.55482320000004,1.0844784,-1.3011912,0.0,0.0,0.0,0.0,0.0
13.22,440.30493600000005,1.030224,-1.4639544,-0.0768096,0.0,0.0,0.0,0.0
13.24,440.9605608,1.1926824,-1.0844784,0.0,0.0,0.0,0.0,0.0
13.26,441.6942144000001,1.5182088,-2.2771608000000003,1.3801344,0.0,0.0,0.0,0.0
13.280000000000001,442.3986072000001,0.0,-1.3011912,0.996696,0.0,0.0,0.0,0.0
13.3,442.99235760000005,-0.2170176,-2.7108912000000003,1.9936968000000002,0.0,0.0,0.0,0.0
13.32,443.65072560000004,0.0542544,-3.4158936000000004,1.9168872,0.0,0.0,0.0,0.0
13.34,444.34292640000007,0.0542544,-3.6326064,2.5304496,0.0,0.0,0.0,0.0
13.360000000000001,444.85346640000006,0.4879848,-4.0663368,2.4536400000000005,0.0,0.0,0.0,0.0
13.38,445.4411208,0.7046976,-4.0663368,2.3768304000000002,0.0,0.0,0.0,0.0
13.4,446.0367,0.7046976,-3.957828,2.4536400000000005,0.0,0.0,0.0,0.0
13.42,446.6908008000001,0.9217152000000001,-3.8496240000000004,2.4536400000000005,0.0,0.0,0.0,0.0
13.44,447.3330144000001,0.7589520000000001,-3.7953696000000003,2.683764,0.0,0.0,0.0,0.0
13.46,447.9435288,0.7046976,-3.6326064,2.9135831999999997,0.0,0.0,0.0,0.0
13.48,448.43303760000003,0.7046976,-2.8736544000000004,3.0672024,0.0,0.0,0.0,0.0
13.5,449.0508672000001,0.3252216,-3.6868608000000003,2.9903928,0.0,0.0,0.0,0.0
13.52,449.64583680000004,1.3011912,-3.4698432,2.4536400000000005,0.0,0.0,0.0,0.0
13.540000000000001,450.3197496000001,0.7589520000000001,-2.6023824,3.2970216000000003,0.0,0.0,0.0,0.0
13.56,450.9897,0.650748,-3.3616392,3.2205168000000004,0.0,0.0,0.0,0.0
13.58,451.66269840000007,0.4337304,-2.1686520000000002,4.1404032,0.0,0.0,0.0,0.0
13.6,452.3100936000001,1.2469368,-2.7651456,3.6036504000000003,0.0,0.0,0.0,0.0
13.620000000000001,452.90841600000005,1.4097000000000002,-3.2531304000000003,3.7572696000000003,0.0,0.0,0.0,0.0
13.64,453.49454640000005,2.6566368,-2.548128,4.1404032,0.0,0.0,0.0,0.0
13.66,454.03008000000005,9.0001344,-3.0361128,5.2907184,0.0,0.0,0.0,0.0
13.68,454.58634000000006,9.7051368,-3.198876,5.6741568000000004,0.0,0.0,0.0,0.0
13.700000000000001,455.21178960000003,10.193121600000001,-2.4941784,5.2139088000000005,0.0,0.0,0.0,0.0
13.72,455.7954816,12.4702824,-1.0844784,5.060594400000001,0.0,0.0,0.0,0.0
13.74,456.38222160000004,10.626852000000001,-1.4097000000000002,4.2937176,0.0,0.0,0.0,0.0
13.76,456.93360480000007,12.5787912,-1.5182088,4.2172128,0.0,0.0,0.0,0.0
13.780000000000001,457.42799040000006,15.1269192,-0.9217152000000001,4.2937176,0.0,0.0,0.0,0.0
13.8,457.95224640000004,18.8680344,0.5422392,4.984089600000001,0.0,0.0,0.0,0.0
13.82,458.4780264000001,24.072799200000002,1.9519392,6.6708528000000005,0.0,0.0,0.0,0.0
13.84,458.98277520000005,20.006462400000004,1.5724632,4.984089600000001,0.0,0.0,0.0,0.0
13.860000000000001,459.6441912,17.6210976,2.2229064000000003,4.1404032,0.0,0.0,0.0,0.0
13.88,460.2220920000001,23.151084,3.198876,6.4407288000000005,0.0,0.0,0.0,0.0
13.9,460.8079176000001,18.705271200000002,3.198876,5.060594400000001,0.0,0.0,0.0,0.0
13.92,461.37880800000005,17.2955712,3.4158936000000004,3.7572696000000003,0.0,0.0,0.0,0.0
13.94,462.09021120000006,13.8799824,4.012082400000001,2.3003256,0.0,0.0,0.0,0.0
13.96,462.8022240000001,13.825728,4.3915584,3.0672024,0.0,0.0,0.0,0.0
13.98,463.45175280000007,11.2230408,3.957828,2.9135831999999997,0.0,0.0,0.0,0.0
14.0,464.0954904,13.174980000000001,4.5000672,3.450336,0.0,0.0,0.0,0.0
14.02,464.693508,15.994380000000001,5.367528,3.910584,0.0,0.0,0.0,0.0
14.040000000000001,465.3174336,15.4521408,2.4399240000000004,7.0542912,0.0,0.0,0.0,0.0
14.06,465.9505032,18.1087776,5.5302912,5.597347200000001,0.0,0.0,0.0,0.0
14.08,466.601556,19.7354952,5.421782400000001,7.591044000000001,0.0,0.0,0.0,0.0
14.1,467.25657120000005,20.765719200000003,5.476036800000001,8.971178400000001,0.0,0.0,0.0,0.0
14.120000000000001,467.8158792000001,22.825862400000002,5.5845456,11.3480088,0.0,0.0,0.0,0.0
14.14,468.3276384,22.5548952,5.421782400000001,11.8847616,0.0,0.0,0.0,0.0
14.16,468.85372320000005,16.9160952,6.9399912,11.3480088,0.0,0.0,0.0,0.0
14.18,469.40083920000006,15.2896824,2.9279088,8.741054400000001,0.0,0.0,0.0,0.0
14.200000000000001,469.9314960000001,13.229234400000001,3.4698432,7.6675488,0.0,0.0,0.0,0.0
14.22,470.3853432,13.283488800000002,3.5240976,7.591044000000001,0.0,0.0,0.0,0.0
14.24,470.87454720000005,12.8497584,3.4158936000000004,7.6675488,0.0,0.0,0.0,0.0
14.26,471.2701776,12.036552,3.1446216000000002,7.6675488,0.0,0.0,0.0,0.0
14.280000000000001,471.74109360000006,13.608710400000001,2.9818584,8.2811112,0.0,0.0,0.0,0.0
14.3,472.0830792000001,12.0908064,3.3073848000000003,7.36092,0.0,0.0,0.0,0.0
14.32,472.5829512,12.686995200000002,3.1446216000000002,7.2841104,0.0,0.0,0.0,0.0
14.34,473.0870904,12.686995200000002,2.8194000000000004,7.591044000000001,0.0,0.0,0.0,0.0
14.360000000000001,473.49338880000005,13.5005064,2.6566368,7.744358400000001,0.0,0.0,0.0,0.0
14.38,473.94845520000007,14.58468,2.7651456,8.050987200000002,0.0,0.0,0.0,0.0
14.4,474.3629832000001,18.542508,4.988052,8.6645496,0.0,0.0,0.0,0.0
14.42,474.7290480000001,15.4521408,4.1748456,16.5622224,0.0,0.0,0.0,0.0
14.44,475.23440640000007,-7.5904344,20.1692256,13.0350768,0.0,0.0,0.0,0.0
14.46,475.83547200000004,41.6396424,16.2653472,23.7695232,0.0,0.0,0.0,0.0
14.48,476.47616160000007,86.4239064,22.1211648,40.254936,0.0,0.0,0.0,0.0
14.5,476.98792080000004,151.5401592,20.22348,80.51017680000001,0.0,0.0,0.0,0.0
14.52,477.5252832000001,130.4492184,39.9047208,79.513176,0.0,0.0,0.0,0.0
14.540000000000001,477.8977488000001,60.61618560000001,27.000708,47.76917040000001,0.0,0.0,0.0,0.0
14.56,478.11933840000006,43.5915816,60.7243896,44.9323968,0.0,0.0,0.0,0.0
14.58,478.336356,8.6749128,34.049208,19.7059296,0.0,0.0,0.0,0.0
14.6,478.49911920000005,-15.1269192,11.006328,12.651638400000001,0.0,0.0,0.0,0.0
14.620000000000001,478.90054080000004,-7.156704,1.5182088,22.6195128,0.0,0.0,0.0,0.0
14.64,479.2812360000001,18.054828,-18.3800496,33.660892800000006,0.0,0.0,0.0,0.0
14.66,479.6942400000001,-16.102888800000002,-9.0543888,14.645030400000001,0.0,0.0,0.0,0.0
14.68,480.0630480000001,-19.518477600000004,-11.1690912,5.2907184,0.0,0.0,0.0,0.0
14.700000000000001,480.41539680000005,-16.1571432,0.3252216,6.2874144,0.0,0.0,0.0,0.0
