time,baro_altitude,accl_x,accl_y,accl_z,gps_altitude,gyro_roll,gyro_pitch,gyro_yaw
0.0,0.0,8.3496912,-0.7589520000000001,3.3738312000000006,0.0,0.0,0.0,0.0
0.019999999999999574,0.20330160000000003,8.3496912,-0.7589520000000001,3.3738312000000006,0.0,0.0,0.0,0.0
0.03999999999999915,-0.007315200000000007,8.4039456,-0.9217152000000001,3.2205168000000004,0.0,0.0,0.0,0.0
0.05999999999999961,-0.012496800000000011,8.3496912,-0.650748,3.450336,0.0,0.0,0.0,0.0
0.07999999999999918,-0.031089599999999995,8.295436800000001,-0.8132064000000001,3.5271456,0.0,0.0,0.0,0.0
0.09999999999999964,-0.13898880000000002,8.4039456,-0.8132064000000001,3.450336,0.0,0.0,0.0,0.0
0.11999999999999922,0.005181600000000005,8.4582,-0.650748,3.3738312000000006,0.0,0.0,0.0,0.0
0.13999999999999968,0.18653760000000005,8.3496912,-0.8674608,3.450336,0.0,0.0,0.0,0.0
0.15999999999999925,0.005486400000000005,8.241182400000001,-0.5422392,3.6036504000000003,0.0,0.0,0.0,0.0
0.17999999999999972,-0.1054608,8.4039456,-1.030224,3.3738312000000006,0.0,0.0,0.0,0.0
0.1999999999999993,-0.0783336,8.4039456,-0.7046976,3.450336,0.0,0.0,0.0,0.0
0.21999999999999975,-0.03809999999999997,8.4039456,-0.8132064000000001,3.3738312000000006,0.0,0.0,0.0,0.0
0.23999999999999932,-0.021640799999999988,8.5121496,-0.8132064000000001,3.2970216000000003,0.0,0.0,0.0,0.0
0.2599999999999998,0.05730240000000002,8.4582,-0.9759696,3.3738312000000006,0.0,0.0,0.0,0.0
0.27999999999999936,0.2977896,8.4582,-0.7589520000000001,3.450336,0.0,0.0,0.0,0.0
0.2999999999999998,0.3218688,8.5121496,-0.8132064000000001,3.450336,0.0,0.0,0.0,0.0
0.3199999999999994,0.4959096,8.5121496,-0.8132064000000001,3.2970216000000003,0.0,0.0,0.0,0.0
0.33999999999999986,0.5434584,8.3496912,-0.650748,3.5271456,0.0,0.0,0.0,0.0
0.35999999999999943,0.5056632,8.295436800000001,-0.8132064000000001,3.450336,0.0,0.0,0.0,0.0
0.3799999999999999,0.368808,8.295436800000001,-0.7046976,3.7572696000000003,0.0,0.0,0.0,0.0
0.39999999999999947,0.3014472,8.4582,-0.7589520000000001,3.5271456,0.0,0.0,0.0,0.0
0.41999999999999993,0.24414480000000002,8.4039456,-0.7046976,3.450336,0.0,0.0,0.0,0.0
0.4399999999999995,0.1319784,8.4039456,-0.5964936000000001,3.6036504000000003,0.0,0.0,0.0,0.0
0.45999999999999996,0.028651199999999995,8.4039456,-0.5964936000000001,3.450336,0.0,0.0,0.0,0.0
0.47999999999999954,0.015240000000000014,8.3496912,-0.7589520000000001,3.6036504000000003,0.0,0.0,0.0,0.0
0.5,-0.04053839999999997,8.3496912,-0.7589520000000001,3.6036504000000003,0.0,0.0,0.0,0.0
0.5199999999999996,-0.22372319999999998,8.4582,-0.5422392,3.3738312000000006,0.0,0.0,0.0,0.0
0.5399999999999996,-0.29565600000000003,8.4039456,-0.9217152000000001,3.3738312000000006,0.0,0.0,0.0,0.0
0.5599999999999996,-0.24597360000000001,8.4039456,-0.5964936000000001,3.6036504000000003,0.0,0.0,0.0,0.0
0.5799999999999996,-0.11490959999999997,8.4582,-0.9759696,3.2970216000000003,0.0,0.0,0.0,0.0
0.5999999999999996,-0.19812000000000002,8.4582,-0.8674608,3.450336,0.0,0.0,0.0,0.0
0.6199999999999997,-0.1606296,8.3496912,-0.9759696,3.2970216000000003,0.0,0.0,0.0,0.0
0.6399999999999997,-0.14264640000000003,8.3496912,-0.7589520000000001,3.6036504000000003,0.0,0.0,0.0,0.0
0.6599999999999997,-0.2843784,8.4582,-0.7589520000000001,3.5271456,0.0,0.0,0.0,0.0
0.6799999999999997,-0.42397680000000004,8.241182400000001,-0.8674608,3.450336,0.0,0.0,0.0,0.0
0.6999999999999997,-0.3651504,8.3496912,-0.7589520000000001,3.6036504000000003,0.0,0.0,0.0,0.0
0.7199999999999998,-0.19842479999999998,8.295436800000001,-0.9217152000000001,3.3738312000000006,0.0,0.0,0.0,0.0
0.7399999999999998,-0.17526000000000003,8.3496912,-0.7589520000000001,3.5271456,0.0,0.0,0.0,0.0
0.7599999999999998,-0.02590799999999999,8.4039456,-0.5964936000000001,3.450336,0.0,0.0,0.0,0.0
0.7799999999999994,0.041757600000000006,8.3496912,-0.7589520000000001,3.5271456,0.0,0.0,0.0,0.0
0.7999999999999994,0.12435840000000002,8.4582,-0.650748,3.2205168000000004,0.0,0.0,0.0,0.0
0.8199999999999994,-0.07589520000000001,8.295436800000001,-0.7046976,3.6036504000000003,0.0,0.0,0.0,0.0
0.8399999999999994,-0.060350400000000026,8.3496912,-0.7589520000000001,3.5271456,0.0,0.0,0.0,0.0
0.8599999999999994,-0.018287999999999985,8.241182400000001,-0.5422392,3.8337744,0.0,0.0,0.0,0.0
0.8799999999999994,-0.019811999999999986,8.4582,-0.4337304,3.3738312000000006,0.0,0.0,0.0,0.0
0.8999999999999995,-0.12070080000000001,8.3496912,-0.8674608,3.450336,0.0,0.0,0.0,0.0
0.9199999999999995,-0.29870399999999997,8.4039456,-0.5964936000000001,3.5271456,0.0,0.0,0.0,0.0
0.9399999999999995,-0.19507200000000002,8.4039456,-1.030224,3.450336,0.0,0.0,0.0,0.0
0.9599999999999995,-0.368808,8.4039456,-0.8132064000000001,3.5271456,0.0,0.0,0.0,0.0
0.9799999999999995,-0.38892480000000007,8.3496912,-0.9759696,3.2205168000000004,0.0,0.0,0.0,0.0
0.9999999999999996,-0.38465760000000004,8.4039456,-0.7046976,3.3738312000000006,0.0,0.0,0.0,0.0
1.0199999999999996,-0.37581840000000005,8.4039456,-1.1387328,3.2970216000000003,0.0,0.0,0.0,0.0
1.0399999999999996,-0.46085760000000003,8.3496912,-0.8674608,3.6036504000000003,0.0,0.0,0.0,0.0
1.0599999999999996,-0.37703760000000003,8.4582,-0.8674608,3.3738312000000006,0.0,0.0,0.0,0.0
1.0799999999999996,-0.2252472,8.295436800000001,-0.7046976,3.5271456,0.0,0.0,0.0,0.0
1.0999999999999996,-0.20177760000000003,8.4582,-0.650748,3.3738312000000006,0.0,0.0,0.0,0.0
1.1199999999999997,-0.21579840000000003,8.295436800000001,-0.7046976,3.5271456,0.0,0.0,0.0,0.0
1.1399999999999997,-0.324612,8.4039456,-0.4879848,3.7572696000000003,0.0,0.0,0.0,0.0
1.1599999999999997,-0.150876,8.295436800000001,-0.8132064000000001,3.6036504000000003,0.0,0.0,0.0,0.0
1.1799999999999997,-0.17647920000000003,8.3496912,-0.5422392,3.6036504000000003,0.0,0.0,0.0,0.0
1.1999999999999997,-0.08717279999999998,8.4582,-0.8674608,3.3738312000000006,0.0,0.0,0.0,0.0
1.2199999999999998,-0.0667512,8.295436800000001,-0.5964936000000001,3.6036504000000003,0.0,0.0,0.0,0.0
1.2399999999999998,-0.10393680000000002,8.4039456,-0.8132064000000001,3.3738312000000006,0.0,0.0,0.0,0.0
1.2599999999999998,0.0405384,8.3496912,-0.7589520000000001,3.6036504000000003,0.0,0.0,0.0,0.0
1.2799999999999994,-0.04480559999999997,8.4582,-0.8674608,3.2205168000000004,0.0,0.0,0.0,0.0
1.2999999999999994,-0.40873680000000007,8.295436800000001,-0.7046976,3.6036504000000003,0.0,0.0,0.0,0.0
1.3199999999999994,-0.42001440000000007,8.4582,-0.9759696,3.450336,0.0,0.0,0.0,0.0
1.3399999999999994,-0.47183040000000004,8.3496912,-0.7589520000000001,3.6036504000000003,0.0,0.0,0.0,0.0
1.3599999999999994,-0.5724144000000001,8.4039456,-0.9217152000000001,3.2970216000000003,0.0,0.0,0.0,0.0
1.3799999999999994,-0.531876,8.3496912,-0.7589520000000001,3.2970216000000003,0.0,0.0,0.0,0.0
1.3999999999999995,-0.4757928,8.295436800000001,-1.030224,3.5271456,0.0,0.0,0.0,0.0
1.4199999999999995,-0.4425696,8.3496912,-0.7589520000000001,3.3738312000000006,0.0,0.0,0.0,0.0
1.4399999999999995,-0.4760976000000001,8.241182400000001,-0.650748,3.68046,0.0,0.0,0.0,0.0
1.4599999999999995,-0.2892552,8.4039456,-0.8132064000000001,3.5271456,0.0,0.0,0.0,0.0
1.4799999999999995,-0.23682960000000003,8.4039456,-0.5964936000000001,3.450336,0.0,0.0,0.0,0.0
1.4999999999999996,-0.11643360000000001,8.4039456,-0.8132064000000001,3.450336,0.0,0.0,0.0,0.0
1.5199999999999996,-0.008839200000000009,8.4039456,-0.9217152000000001,3.5271456,0.0,0.0,0.0,0.0
1.5399999999999996,0.15057120000000002,8.3496912,-0.7589520000000001,3.5271456,0.0,0.0,0.0,0.0
1.5599999999999996,0.056997600000000016,8.4582,-0.7589520000000001,3.450336,0.0,0.0,0.0,0.0
1.5799999999999996,0.0865632,8.4582,-0.5422392,3.450336,0.0,0.0,0.0,0.0
1.5999999999999996,0.02194560000000002,8.3496912,-0.8674608,3.3738312000000006,0.0,0.0,0.0,0.0
1.6199999999999997,-0.051816000000000015,8.3496912,-0.650748,3.450336,0.0,0.0,0.0,0.0
1.6399999999999997,-0.09966960000000002,8.4582,-0.7589520000000001,3.2970216000000003,0.0,0.0,0.0,0.0
1.6599999999999997,-0.07528560000000001,8.3496912,-0.650748,3.5271456,0.0,0.0,0.0,0.0
1.6799999999999997,-0.21884640000000002,8.3496912,-0.8674608,3.5271456,0.0,0.0,0.0,0.0
1.6999999999999997,-0.23530559999999998,8.3496912,-0.9759696,3.3738312000000006,0.0,0.0,0.0,0.0
1.7199999999999998,-0.18135600000000004,8.3496912,-0.8674608,3.6036504000000003,0.0,0.0,0.0,0.0
1.7399999999999998,-0.13776960000000002,8.295436800000001,-0.8132064000000001,3.5271456,0.0,0.0,0.0,0.0
1.7599999999999998,-0.005791200000000005,8.241182400000001,-0.650748,3.7572696000000003,0.0,0.0,0.0,0.0
1.7799999999999994,-0.04754880000000001,8.3496912,-0.8674608,3.5271456,0.0,0.0,0.0,0.0
1.7999999999999994,0.06339840000000002,8.295436800000001,-0.7046976,3.5271456,0.0,0.0,0.0,0.0
1.8199999999999994,0.0347472,8.4039456,-0.7046976,3.3738312000000006,0.0,0.0,0.0,0.0
1.8399999999999994,-0.05486400000000002,8.4039456,-0.8132064000000001,3.450336,0.0,0.0,0.0,0.0
1.8599999999999994,-0.4504944000000001,8.4039456,-1.030224,3.3738312000000006,0.0,0.0,0.0,0.0
1.8799999999999994,-0.46817280000000006,8.5121496,-0.8132064000000001,3.2970216000000003,0.0,0.0,0.0,0.0
1.8999999999999995,-0.39166800000000007,8.295436800000001,-0.8132064000000001,3.2970216000000003,0.0,0.0,0.0,0.0
1.9199999999999995,-0.29199840000000005,8.4582,-0.4337304,3.2970216000000003,0.0,0.0,0.0,0.0
1.9399999999999995,-0.2898648,8.5121496,-0.8132064000000001,3.5271456,0.0,0.0,0.0,0.0
1.9599999999999995,-0.2837688,8.4039456,-0.4879848,3.3738312000000006,0.0,0.0,0.0,0.0
1.9799999999999995,-0.45445680000000005,8.3496912,-0.7589520000000001,3.450336,0.0,0.0,0.0,0.0
1.9999999999999996,-0.45476160000000004,8.5121496,-0.7046976,3.3738312000000006,0.0,0.0,0.0,0.0
2.0199999999999996,-0.38435280000000005,8.3496912,-0.8674608,3.68046,0.0,0.0,0.0,0.0
2.0399999999999996,-0.3243072,8.4039456,-0.7046976,3.450336,0.0,0.0,0.0,0.0
2.0599999999999996,-0.09662160000000003,8.241182400000001,-1.0844784,3.5271456,0.0,0.0,0.0,0.0
2.0799999999999996,-0.1606296,8.4039456,-0.7046976,3.450336,0.0,0.0,0.0,0.0
2.0999999999999996,-0.16642079999999998,8.241182400000001,-0.8674608,3.6036504000000003,0.0,0.0,0.0,0.0
2.1199999999999997,-0.2703576,8.4039456,-0.9217152000000001,3.450336,0.0,0.0,0.0,0.0
2.1399999999999997,-0.4504944000000001,8.3496912,-0.7589520000000001,3.5271456,0.0,0.0,0.0,0.0
2.1599999999999997,-0.4133088,8.295436800000001,-0.9217152000000001,3.3738312000000006,0.0,0.0,0.0,0.0
2.1799999999999997,-0.36454080000000005,8.295436800000001,-0.7046976,3.450336,0.0,0.0,0.0,0.0
2.1999999999999997,-0.3233928,8.5121496,-0.8132064000000001,3.2970216000000003,0.0,0.0,0.0,0.0
2.2199999999999998,-0.19385280000000002,8.4582,-0.7589520000000001,3.5271456,0.0,0.0,0.0,0.0
2.2399999999999998,-0.20482560000000002,8.5121496,-0.4879848,3.3738312000000006,0.0,0.0,0.0,0.0
2.26,-0.16794480000000003,8.4039456,-0.5964936000000001,3.5271456,0.0,0.0,0.0,0.0
2.2799999999999994,-0.141732,8.4582,-0.650748,3.5271456,0.0,0.0,0.0,0.0
2.2999999999999994,-0.060350400000000026,8.4039456,-0.9217152000000001,3.3738312000000006,0.0,0.0,0.0,0.0
2.3199999999999994,-0.22616159999999996,8.295436800000001,-0.7046976,3.450336,0.0,0.0,0.0,0.0
2.3399999999999994,-0.39288720000000005,8.295436800000001,-0.4879848,3.7572696000000003,0.0,0.0,0.0,0.0
2.3599999999999994,-0.37795200000000007,8.3496912,-0.9759696,3.6036504000000003,0.0,0.0,0.0,0.0
2.3799999999999994,-0.41148000000000007,8.295436800000001,-0.7046976,3.68046,0.0,0.0,0.0,0.0
2.3999999999999995,-0.43494960000000005,8.295436800000001,-1.030224,3.450336,0.0,0.0,0.0,0.0
2.4199999999999995,-0.5958840000000001,8.241182400000001,-0.650748,3.6036504000000003,0.0,0.0,0.0,0.0
2.4399999999999995,-0.5394960000000001,8.241182400000001,-0.9759696,3.5271456,0.0,0.0,0.0,0.0
2.4599999999999995,-0.2627376,8.4039456,-0.5964936000000001,3.5271456,0.0,0.0,0.0,0.0
2.4799999999999995,-0.15575280000000002,8.295436800000001,-0.5964936000000001,3.6036504000000003,0.0,0.0,0.0,0.0
2.4999999999999996,-0.185928,8.4582,-0.650748,3.3738312000000006,0.0,0.0,0.0,0.0
2.5199999999999996,-0.08412479999999997,8.5121496,-1.2469368,3.0672024,0.0,0.0,0.0,0.0
2.5399999999999996,-0.21884640000000002,8.4582,-0.9759696,3.2970216000000003,0.0,0.0,0.0,0.0
2.5599999999999996,-0.18288000000000001,8.4039456,-0.8132064000000001,3.2970216000000003,0.0,0.0,0.0,0.0
2.5799999999999996,-0.011277600000000011,8.4582,-0.650748,3.3738312000000006,0.0,0.0,0.0,0.0
2.5999999999999996,-0.1392936,8.5121496,-0.7046976,3.3738312000000006,0.0,0.0,0.0,0.0
2.6199999999999997,-0.196596,8.5121496,-0.7046976,3.450336,0.0,0.0,0.0,0.0
2.6399999999999997,-0.14752319999999997,8.4039456,-0.8132064000000001,3.5271456,0.0,0.0,0.0,0.0
2.6599999999999993,-0.19049999999999997,8.295436800000001,-0.7046976,3.6036504000000003,0.0,0.0,0.0,0.0
2.6799999999999997,-0.09723120000000002,8.3496912,-0.8674608,3.5271456,0.0,0.0,0.0,0.0
2.6999999999999993,-0.20299680000000003,8.4039456,-0.5964936000000001,3.6036504000000003,0.0,0.0,0.0,0.0
2.7199999999999998,-0.1594104,8.295436800000001,-0.4879848,3.5271456,0.0,0.0,0.0,0.0
2.7399999999999993,-0.2383536,8.4039456,-0.9217152000000001,3.5271456,0.0,0.0,0.0,0.0
2.76,-0.41300400000000004,8.3496912,-0.7589520000000001,3.7572696000000003,0.0,0.0,0.0,0.0
2.7799999999999994,-0.37124640000000003,8.4039456,-0.8132064000000001,3.5271456,0.0,0.0,0.0,0.0
2.8,-0.3328416,8.4582,-0.7589520000000001,3.6036504000000003,0.0,0.0,0.0,0.0
2.8199999999999994,-0.2020824,8.4039456,-0.8132064000000001,3.6036504000000003,0.0,0.0,0.0,0.0
2.84,-0.03200399999999996,8.3496912,-0.8674608,3.3738312000000006,0.0,0.0,0.0,0.0
2.8599999999999994,0.131064,8.5121496,-0.5964936000000001,3.450336,0.0,0.0,0.0,0.0
2.88,0.1731264,8.4039456,-0.7046976,3.5271456,0.0,0.0,0.0,0.0
2.8999999999999995,0.1984248,8.4039456,-0.8132064000000001,3.3738312000000006,0.0,0.0,0.0,0.0
2.9199999999999995,-0.03200399999999996,8.3496912,-0.7589520000000001,3.450336,0.0,0.0,0.0,0.0
2.9399999999999995,0.007010400000000007,8.295436800000001,-0.5964936000000001,3.6036504000000003,0.0,0.0,0.0,0.0
2.9599999999999995,0.002133600000000002,8.3496912,-0.650748,3.5271456,0.0,0.0,0.0,0.0
2.9799999999999995,-0.11704320000000001,8.3496912,-0.4337304,3.5271456,0.0,0.0,0.0,0.0
2.9999999999999996,-0.0661416,8.3496912,-0.650748,3.5271456,0.0,0.0,0.0,0.0
3.0199999999999996,-0.12252960000000002,8.295436800000001,-1.030224,3.68046,0.0,0.0,0.0,0.0
3.0399999999999996,0.1566672,8.4039456,-0.9217152000000001,3.6036504000000003,0.0,0.0,0.0,0.0
3.0599999999999996,0.21366480000000004,8.4039456,-0.9217152000000001,3.3738312000000006,0.0,0.0,0.0,0.0
3.0799999999999996,0.05882640000000002,8.4039456,-0.5964936000000001,3.6036504000000003,0.0,0.0,0.0,0.0
3.0999999999999996,0.07863840000000001,8.3496912,-0.7589520000000001,3.3738312000000006,0.0,0.0,0.0,0.0
3.1199999999999997,0.0762,8.3496912,-0.650748,3.450336,0.0,0.0,0.0,0.0
3.1399999999999997,0.16946880000000003,8.3496912,-0.7589520000000001,3.5271456,0.0,0.0,0.0,0.0
3.1599999999999993,0.33741360000000004,8.295436800000001,-0.9217152000000001,3.5271456,0.0,0.0,0.0,0.0
3.1799999999999997,0.3681984,8.3496912,-0.8674608,3.3738312000000006,0.0,0.0,0.0,0.0
3.1999999999999993,0.35356800000000005,8.5121496,-0.7046976,3.1437072,0.0,0.0,0.0,0.0
3.2199999999999998,0.3517392,8.5121496,-0.7046976,3.2970216000000003,0.0,0.0,0.0,0.0
3.2399999999999993,0.16672560000000003,8.295436800000001,-1.030224,3.5271456,0.0,0.0,0.0,0.0
3.26,0.38922960000000006,8.295436800000001,-0.9217152000000001,3.7572696000000003,0.0,0.0,0.0,0.0
3.2799999999999994,0.3523488000000001,8.3496912,-0.8674608,3.450336,0.0,0.0,0.0,0.0
3.3,0.12527280000000002,8.4039456,-0.7046976,3.5271456,0.0,0.0,0.0,0.0
3.3199999999999994,0.15483840000000001,8.295436800000001,-0.7046976,3.6036504000000003,0.0,0.0,0.0,0.0
3.34,0.0024384000000000025,8.241182400000001,-0.8674608,3.5271456,0.0,0.0,0.0,0.0
3.3599999999999994,-0.01706879999999998,8.4039456,-0.7046976,3.5271456,0.0,0.0,0.0,0.0
3.38,-0.01097280000000001,8.4582,-0.650748,3.2970216000000003,0.0,0.0,0.0,0.0
3.3999999999999995,-0.09997439999999999,8.4039456,-0.5964936000000001,3.6036504000000003,0.0,0.0,0.0,0.0
3.4199999999999995,0.0316992,8.295436800000001,-0.8132064000000001,3.7572696000000003,0.0,0.0,0.0,0.0
3.4399999999999995,0.01066800000000001,8.186928,-0.8132064000000001,3.7572696000000003,0.0,0.0,0.0,0.0
3.4599999999999995,-0.0353568,8.4039456,-0.7046976,3.2205168000000004,0.0,0.0,0.0,0.0
3.4799999999999995,-0.11551919999999997,8.6206584,-0.5964936000000001,3.1437072,0.0,0.0,0.0,0.0
3.4999999999999996,-0.12496800000000001,8.4582,-0.7589520000000001,3.5271456,0.0,0.0,0.0,0.0
3.5199999999999996,-0.24109680000000003,8.4039456,-1.030224,3.3738312000000006,0.0,0.0,0.0,0.0
3.5399999999999996,-0.18074640000000003,8.4582,-0.650748,3.2970216000000003,0.0,0.0,0.0,0.0
3.5599999999999996,0.0347472,8.4582,-0.650748,3.2970216000000003,0.0,0.0,0.0,0.0
3.5799999999999996,0.04450080000000001,8.3496912,-0.9759696,3.3738312000000006,0.0,0.0,0.0,0.0
3.5999999999999996,0.06858,8.295436800000001,-0.4879848,3.6036504000000003,0.0,0.0,0.0,0.0
3.6199999999999997,0.022555200000000022,8.186928,-0.8132064000000001,3.8337744,0.0,0.0,0.0,0.0
3.6399999999999997,0.1453896,8.3496912,-0.8674608,3.3738312000000006,0.0,0.0,0.0,0.0
3.6599999999999997,0.44958000000000004,8.4582,-0.5422392,3.6036504000000003,0.0,0.0,0.0,0.0
3.6799999999999997,0.3273552,8.3496912,-0.7589520000000001,3.5271456,0.0,0.0,0.0,0.0
3.6999999999999997,0.46542960000000005,8.295436800000001,-1.030224,3.450336,0.0,0.0,0.0,0.0
3.7199999999999998,0.4690872000000001,8.3496912,-0.8674608,3.5271456,0.0,0.0,0.0,0.0
3.7399999999999993,0.38069520000000007,8.3496912,-0.650748,3.68046,0.0,0.0,0.0,0.0
3.76,0.33588960000000007,8.4582,-0.9759696,3.3738312000000006,0.0,0.0,0.0,0.0
3.7799999999999994,0.3755136,8.4582,-0.4337304,3.5271456,0.0,0.0,0.0,0.0
3.8,0.4340352,8.4039456,-0.9217152000000001,3.450336,0.0,0.0,0.0,0.0
3.8199999999999994,0.5077968,8.4039456,-0.4879848,3.450336,0.0,0.0,0.0,0.0
3.8399999999999994,0.446532,8.295436800000001,-0.5964936000000001,3.5271456,0.0,0.0,0.0,0.0
3.8599999999999994,0.3755136,8.3496912,-0.5422392,3.450336,0.0,0.0,0.0,0.0
3.8799999999999994,0.5120640000000001,8.4039456,-0.5964936000000001,3.450336,0.0,0.0,0.0,0.0
3.8999999999999995,0.583692,8.4039456,-0.8132064000000001,3.5271456,0.0,0.0,0.0,0.0
3.9199999999999995,0.5861304,8.4039456,-0.5964936000000001,3.5271456,0.0,0.0,0.0,0.0
3.9399999999999995,0.48615600000000003,8.3496912,-0.8674608,3.7572696000000003,0.0,0.0,0.0,0.0
3.9599999999999995,0.46878240000000004,8.4039456,-0.8132064000000001,3.2970216000000003,0.0,0.0,0.0,0.0
3.9799999999999995,0.37368480000000004,8.4582,-0.5422392,3.5271456,0.0,0.0,0.0,0.0
3.9999999999999996,0.21793200000000004,8.295436800000001,-1.1387328,3.450336,0.0,0.0,0.0,0.0
4.02,0.12954000000000002,8.3496912,-0.9759696,3.7572696000000003,0.0,0.0,0.0,0.0
4.039999999999999,0.017678400000000018,8.1326736,-0.8674608,3.6036504000000003,0.0,0.0,0.0,0.0
4.06,-0.030175199999999996,8.3496912,-0.8674608,3.5271456,0.0,0.0,0.0,0.0
4.079999999999999,-0.026517599999999992,8.566404,-0.7589520000000001,3.2205168000000004,0.0,0.0,0.0,0.0
4.1,0.19690080000000001,8.4582,-0.5422392,3.450336,0.0,0.0,0.0,0.0
4.119999999999999,0.3471672,8.6206584,-1.789176,2.3003256,0.0,0.0,0.0,0.0
4.14,0.5641848,8.186928,-1.1387328,2.9903928,0.0,0.0,0.0,0.0
4.159999999999999,0.8452104,8.3496912,-0.5422392,3.3738312000000006,0.0,0.0,0.0,0.0
4.18,1.010412,8.4582,-0.650748,3.2205168000000004,0.0,0.0,0.0,0.0
4.199999999999999,0.9165336000000001,8.4039456,-0.8132064000000001,3.3738312000000006,0.0,0.0,0.0,0.0
4.22,1.1039856000000001,8.5121496,-0.4879848,3.450336,0.0,0.0,0.0,0.0
4.239999999999999,1.0603992,8.4039456,-0.9217152000000001,3.7572696000000003,0.0,0.0,0.0,0.0
4.26,0.946404,8.186928,-1.1387328,3.450336,0.0,0.0,0.0,0.0
4.279999999999999,0.8116824,8.4582,-0.7589520000000001,3.7572696000000003,0.0,0.0,0.0,0.0
4.3,0.7150608,8.3496912,-0.650748,3.3738312000000006,0.0,0.0,0.0,0.0
4.319999999999999,0.5367528,8.3496912,-0.5422392,3.6036504000000003,0.0,0.0,0.0,0.0
4.34,0.509016,8.186928,-1.1387328,3.6036504000000003,0.0,0.0,0.0,0.0
4.359999999999999,0.1987296,8.3496912,-0.9759696,3.450336,0.0,0.0,0.0,0.0
4.38,0.25359360000000003,8.5121496,-0.8132064000000001,3.450336,0.0,0.0,0.0,0.0
4.3999999999999995,0.0804672,8.4582,-0.9759696,3.1437072,0.0,0.0,0.0,0.0
4.42,-0.27249120000000004,8.3496912,-0.650748,3.2970216000000003,0.0,0.0,0.0,0.0
4.4399999999999995,-0.01676399999999998,8.5121496,-0.7046976,3.5271456,0.0,0.0,0.0,0.0
4.46,0.05608320000000002,8.4582,-1.0844784,3.450336,0.0,0.0,0.0,0.0
4.4799999999999995,0.1411224,8.4582,-0.5422392,3.2205168000000004,0.0,0.0,0.0,0.0
4.5,0.2660904,8.4582,-0.2170176,3.6036504000000003,0.0,0.0,0.0,0.0
4.52,0.27310080000000003,8.295436800000001,3.3073848000000003,0.0,0.0,0.0,0.0,0.0
4.539999999999999,0.5401056000000001,10.0846128,-1.1926824,3.2205168000000004,0.0,0.0,0.0,0.0
4.56,0.7016496000000001,7.6446888,1.1387328,6.364224,0.0,0.0,0.0,0.0
4.579999999999999,0.710184,8.6749128,-3.3616392,0.9201912000000001,0.0,0.0,0.0,0.0
4.6,0.8211312000000001,10.355580000000002,-2.548128,6.2874144,0.0,0.0,0.0,0.0
4.619999999999999,0.8830056,71.40549600000001,-17.2955712,31.437376800000003,0.0,0.0,0.0,0.0
4.64,1.6800576,132.61787040000002,-19.952208,68.47179600000001,0.0,0.0,0.0,0.0
4.659999999999999,1.9982688000000002,123.997212,-17.837810400000002,51.6797544,0.0,0.0,0.0,0.0
4.68,2.5411176,119.6056536,-18.1087776,48.076104,0.0,0.0,0.0,0.0
4.699999999999999,3.1080456000000005,117.4366968,-18.976543200000002,55.5135288,0.0,0.0,0.0,0.0
4.72,3.5557968000000004,118.9006512,-20.22348,53.596641600000005,0.0,0.0,0.0,0.0
4.739999999999999,3.9657528000000006,118.7381928,-22.5548952,52.2165072,0.0,0.0,0.0,0.0
4.76,4.3580304000000005,121.23206640000001,-21.1451952,50.1463056,0.0,0.0,0.0,0.0
4.779999999999999,4.6515528,123.0212424,-13.283488800000002,59.5774272,0.0,0.0,0.0,0.0
4.8,4.4290488,122.6960208,-19.6812408,49.9161816,0.0,0.0,0.0,0.0
4.819999999999999,4.483608,124.48519680000001,-21.253704000000003,54.440023200000006,0.0,0.0,0.0,0.0
4.84,4.8313848,124.376688,-19.7354952,53.82676560000001,0.0,0.0,0.0,0.0
4.859999999999999,5.0883312,125.786388,-20.8199736,54.440023200000006,0.0,0.0,0.0,0.0
4.88,5.4519576,124.8104184,-19.6269864,53.4433272,0.0,0.0,0.0,0.0
4.8999999999999995,5.722315200000001,126.70810320000001,-18.9222888,53.1366984,0.0,0.0,0.0,0.0
4.92,6.354470400000001,125.29840320000001,-18.705271200000002,53.29001280000001,0.0,0.0,0.0,0.0
4.9399999999999995,6.7510152,128.0635488,-20.0607168,53.749956000000005,0.0,0.0,0.0,0.0
4.96,7.603540800000001,129.6902664,-19.0847472,54.5168328,0.0,0.0,0.0,0.0
4.9799999999999995,8.8760808,128.5515336,-19.1390016,52.4466312,0.0,0.0,0.0,0.0
5.0,10.041331200000002,129.1480272,-18.6510168,52.4466312,0.0,0.0,0.0,0.0
5.02,11.1687864,129.9612336,-19.464223200000003,52.1400024,0.0,0.0,0.0,0.0
5.039999999999999,12.493752,130.2864552,-18.5967624,52.2165072,0.0,0.0,0.0,0.0
5.06,13.650468000000002,132.2926488,-18.6510168,51.449630400000004,0.0,0.0,0.0,0.0
5.08,14.8050504,132.12988560000002,-18.705271200000002,50.3764296,0.0,0.0,0.0,0.0
5.1,16.383609600000003,133.7023488,-19.0847472,50.299620000000004,0.0,0.0,0.0,0.0
5.119999999999999,17.8298856,132.8891424,-18.2715408,50.1463056,0.0,0.0,0.0,0.0
5.14,19.349923200000003,133.7023488,-18.8680344,48.61285680000001,0.0,0.0,0.0,0.0
5.159999999999999,20.639532000000003,135.383016,-18.705271200000002,48.2294184,0.0,0.0,0.0,0.0
5.18,21.9300552,135.654288,-18.3257952,48.61285680000001,0.0,0.0,0.0,0.0
5.199999999999999,23.0867712,135.9252552,-17.837810400000002,47.2324176,0.0,0.0,0.0,0.0
5.22,24.167592000000003,135.00354000000002,-17.3498256,47.692665600000005,0.0,0.0,0.0,0.0
5.239999999999999,25.318821600000003,132.8891424,-16.102888800000002,47.84598,0.0,0.0,0.0,0.0
5.26,26.6724384,130.0697424,-16.970349600000002,49.9161816,0.0,0.0,0.0,0.0
5.279999999999999,28.540557600000003,127.0333248,-16.102888800000002,50.7595632,0.0,0.0,0.0,0.0
5.3,30.190440000000002,129.2022816,-17.6210976,53.4433272,0.0,0.0,0.0,0.0
5.319999999999999,31.9659,123.9429576,-15.506395200000002,53.82676560000001,0.0,0.0,0.0,0.0
5.34,33.653577600000006,124.9189272,-16.1571432,53.749956000000005,0.0,0.0,0.0,0.0
5.359999999999999,35.586924,124.2681792,-12.5787912,55.59033840000001,0.0,0.0,0.0,0.0
5.38,36.959743200000005,121.6115424,-11.2230408,54.440023200000006,0.0,0.0,0.0,0.0
5.3999999999999995,39.4752576,122.4250536,-13.3377432,51.9863832,0.0,0.0,0.0,0.0
5.42,41.5195512,117.219984,-10.843564800000001,50.9896872,0.0,0.0,0.0,0.0
5.4399999999999995,43.6622952,119.8766208,-13.283488800000002,49.149609600000005,0.0,0.0,0.0,0.0
5.459999999999999,45.0116448,120.25609680000001,-15.614904,46.4658456,0.0,0.0,0.0,0.0
5.4799999999999995,45.55540799999999,116.6777448,-16.6993824,40.9450032,0.0,0.0,0.0,0.0
5.5,46.3561176,112.77417120000001,-16.590873600000002,38.4913632,0.0,0.0,0.0,0.0
5.52,47.5488,95.53254960000001,-11.928043200000001,32.203948800000006,0.0,0.0,0.0,0.0
5.539999999999999,50.1331992,67.0139376,-10.0846128,21.622816800000003,0.0,0.0,0.0,0.0
5.56,52.2875256,32.1515232,-6.5605152,9.737750400000001,0.0,0.0,0.0,0.0
5.58,54.6890448,7.048500000000001,-0.650748,1.8400776,0.0,0.0,0.0,0.0
5.6,56.0091336,-1.1387328,-0.0542544,2.8370784000000002,0.0,0.0,0.0,0.0
5.619999999999999,56.112156000000006,-7.6446888,1.6806672000000002,3.0672024,0.0,0.0,0.0,0.0
5.64,57.5346576,-9.1628976,1.8976848000000002,5.367223200000001,0.0,0.0,0.0,0.0
5.659999999999999,59.21471519999999,-8.94588,-0.4879848,7.591044000000001,0.0,0.0,0.0,0.0
5.68,60.4634808,-9.0543888,-1.1387328,6.8241672,0.0,0.0,0.0,0.0
5.699999999999999,61.881715199999995,-9.3256608,1.7349216,4.2172128,0.0,0.0,0.0,0.0
5.72,63.264592799999996,-7.3737216000000005,1.3011912,2.0702016,0.0,0.0,0.0,0.0
5.739999999999999,64.5831576,-6.9942456,2.4399240000000004,-0.996696,0.0,0.0,0.0,0.0
5.76,65.6069808,-5.801258400000001,2.7651456,-4.0638984,0.0,0.0,0.0,0.0
5.779999999999999,66.6509208,-4.933797600000001,0.7046976,-5.750661600000001,0.0,0.0,0.0,0.0
5.8,67.7497248,-5.367528,1.8976848000000002,-5.2907184,0.0,0.0,0.0,0.0
5.819999999999999,68.8628544,-5.801258400000001,2.4399240000000004,-5.137404,0.0,0.0,0.0,0.0
5.84,69.9619632,-5.964021600000001,2.3856696,-4.2172128,0.0,0.0,0.0,0.0
5.859999999999999,71.1808584,-6.0725304,-2.2771608000000003,-3.7572696000000003,0.0,0.0,0.0,0.0
5.88,72.27173760000001,-6.4520064,-0.7046976,-0.6135624,0.0,0.0,0.0,0.0
5.8999999999999995,72.70729680000001,-7.753197600000001,0.9217152000000001,0.6900672,0.0,0.0,0.0,0.0
5.92,74.1371136,-7.915960800000001,0.5422392,3.3738312000000006,0.0,0.0,0.0,0.0
5.9399999999999995,75.5687592,-7.4822304,0.1085088,2.5304496,0.0,0.0,0.0,0.0
5.959999999999999,76.97144879999999,-7.3737216000000005,1.8434304000000001,2.9135831999999997,0.0,0.0,0.0,0.0
5.9799999999999995,78.36408000000002,-7.6446888,1.2469368,2.3003256,0.0,0.0,0.0,0.0
6.0,79.73842320000001,-7.6989432,1.1926824,1.1500104,0.0,0.0,0.0,0.0
6.02,80.98353120000002,-6.397752,2.4941784,-1.1500104,0.0,0.0,0.0,0.0
6.039999999999999,82.07349600000002,-5.5845456,0.9217152000000001,-1.6102584000000002,0.0,0.0,0.0,0.0
6.06,83.02477680000001,-6.343497600000001,2.8736544000000004,-2.6069544000000002,0.0,0.0,0.0,0.0
6.08,84.0281784,-5.5302912,2.7108912000000003,-2.8370784000000002,0.0,0.0,0.0,0.0
6.1,85.04316240000001,-6.1267848,2.6566368,-3.1437072,0.0,0.0,0.0,0.0
6.119999999999999,86.0992944,-4.3915584,-1.1387328,-3.9870888,0.0,0.0,0.0,0.0
6.14,86.2358448,-5.259324,0.37947600000000004,-2.1470112,0.0,0.0,0.0,0.0
6.159999999999999,87.78300960000001,-5.801258400000001,-0.5964936000000001,-1.6867632000000001,0.0,0.0,0.0,0.0
6.18,89.36522640000001,-5.7470040000000004,0.4337304,-0.15331440000000002,0.0,0.0,0.0,0.0
6.199999999999999,90.9556728,-6.8314824000000005,0.1085088,0.30662880000000003,0.0,0.0,0.0,0.0
6.22,92.53819440000001,-6.506260800000001,0.8674608,0.8433816000000001,0.0,0.0,0.0,0.0
6.239999999999999,94.13077440000002,-7.048500000000001,-0.5422392,0.23012400000000002,0.0,0.0,0.0,0.0
6.26,95.71939200000001,-6.614769600000001,-0.9759696,0.23012400000000002,0.0,0.0,0.0,0.0
6.279999999999999,97.3305648,-4.988052,0.2170176,0.15331440000000002,0.0,0.0,0.0,0.0
6.3,98.93808000000001,-5.638800000000001,2.3856696,-0.3834384,0.0,0.0,0.0,0.0
6.319999999999999,100.5638832,-5.3132736,1.6264128000000002,-0.3834384,0.0,0.0,0.0,0.0
6.34,102.1936488,-5.1508152,0.8132064000000001,-1.0735056,0.0,0.0,0.0,0.0
6.359999999999999,103.7837904,-4.8252888,0.8132064000000001,-1.1500104,0.0,0.0,0.0,0.0
6.38,105.42483360000001,-6.2349888,2.9818584,-0.7668768,0.0,0.0,0.0,0.0
6.3999999999999995,106.8939696,-4.8795432000000005,1.8434304000000001,-0.23012400000000002,0.0,0.0,0.0,0.0
6.42,108.45149760000001,-6.5605152,3.4158936000000004,-0.3834384,0.0,0.0,0.0,0.0
6.4399999999999995,109.96879200000001,-5.3132736,1.6264128000000002,-0.3834384,0.0,0.0,0.0,0.0
6.459999999999999,111.64062000000001,-4.8795432000000005,1.4097000000000002,0.3834384,0.0,0.0,0.0,0.0
6.4799999999999995,113.33896560000002,-6.4520064,0.0542544,-0.30662880000000003,0.0,0.0,0.0,0.0
6.5,115.0348728,-4.2291,0.1085088,-0.9201912000000001,0.0,0.0,0.0,0.0
6.52,116.76552720000001,-6.1807343999999995,1.0844784,-0.0768096,0.0,0.0,0.0,0.0
6.539999999999999,118.491,-4.554321600000001,0.0,-0.30662880000000003,0.0,0.0,0.0,0.0
6.56,120.23262720000001,-4.5000672,0.0542544,-1.3801344,0.0,0.0,0.0,0.0
6.58,121.98492240000002,-3.8496240000000004,-0.5964936000000001,-1.4569440000000002,0.0,0.0,0.0,0.0
6.6,123.71618640000001,-5.0423064,0.2709672,-0.23012400000000002,0.0,0.0,0.0,0.0
6.619999999999999,125.44592640000002,-5.8555128,1.8434304000000001,-0.30662880000000003,0.0,0.0,0.0,0.0
6.64,127.18755360000002,-4.988052,1.4097000000000002,-0.30662880000000003,0.0,0.0,0.0,0.0
6.66,128.93680080000001,-4.1748456,-0.0542544,-0.4599432,0.0,0.0,0.0,0.0
6.68,130.6705032,-4.012082400000001,-0.2170176,0.30662880000000003,0.0,0.0,0.0,0.0
6.699999999999999,132.42340800000002,-5.476036800000001,1.789176,0.3834384,0.0,0.0,0.0,0.0
6.72,134.1677784,-4.933797600000001,1.8976848000000002,-0.3834384,0.0,0.0,0.0,0.0
6.74,135.9020904,-4.7713392,2.0601432,0.0,0.0,0.0,0.0,0.0
6.76,137.6220768,-5.096560800000001,1.8434304000000001,-0.3834384,0.0,0.0,0.0,0.0
6.779999999999999,139.37254320000002,-5.1508152,1.8976848000000002,-0.3834384,0.0,0.0,0.0,0.0
6.799999999999999,141.1150848,-4.3915584,-0.16276320000000002,-0.3834384,0.0,0.0,0.0,0.0
6.819999999999999,142.865856,-5.9097672,0.5964936000000001,-0.30662880000000003,0.0,0.0,0.0,0.0
6.84,144.64253520000003,-5.1508152,0.8132064000000001,-0.7668768,0.0,0.0,0.0,0.0
6.859999999999999,146.42957760000002,-4.2291,0.8674608,-0.15331440000000002,0.0,0.0,0.0,0.0
6.879999999999999,148.21143840000002,-6.4520064,1.2469368,0.0768096,0.0,0.0,0.0,0.0
6.8999999999999995,149.98933680000002,-5.0423064,0.2709672,-0.15331440000000002,0.0,0.0,0.0,0.0
6.92,151.7849136,-4.988052,0.0,-0.7668768,0.0,0.0,0.0,0.0
6.9399999999999995,153.564336,-4.8252888,1.030224,-0.9201912000000001,0.0,0.0,0.0,0.0
6.959999999999999,155.3312616,-4.2291,0.650748,-1.0735056,0.0,0.0,0.0,0.0
6.9799999999999995,157.1131224,-4.988052,1.5182088,-1.1500104,0.0,0.0,0.0,0.0
7.0,158.8788288,-3.3073848000000003,0.2709672,-1.1500104,0.0,0.0,0.0,0.0
7.02,160.6506312,-5.096560800000001,2.0601432,-0.6135624,0.0,0.0,0.0,0.0
7.039999999999999,162.4227384,-4.5000672,1.6806672000000002,0.0,0.0,0.0,0.0,0.0
7.06,164.1762528,-5.421782400000001,1.1926824,-0.3834384,0.0,0.0,0.0,0.0
7.08,165.934644,-4.933797600000001,1.3554456000000001,0.30662880000000003,0.0,0.0,0.0,0.0
7.1,167.699436,-4.3376088,0.5422392,0.0,0.0,0.0,0.0,0.0
7.119999999999999,169.47245759999998,-4.988052,1.5182088,-0.3834384,0.0,0.0,0.0,0.0
7.14,171.224448,-4.3376088,2.2771608000000003,0.15331440000000002,0.0,0.0,0.0,0.0
7.16,183.004968,-4.988052,1.6264128000000002,0.0768096,0.0,0.0,0.0,0.0
7.18,193.3623768,-4.988052,0.5422392,-0.0768096,0.0,0.0,0.0,0.0
7.199999999999999,202.4112792,-4.6628304,1.0844784,0.0768096,0.0,0.0,0.0,0.0
7.22,210.362292,-4.7170848,0.7046976,0.0768096,0.0,0.0,0.0,0.0
7.24,217.25625839999998,-5.259324,1.4639544,0.15331440000000002,0.0,0.0,0.0,0.0
7.26,223.1111616,-3.4158936000000004,-0.16276320000000002,-0.23012400000000002,0.0,0.0,0.0,0.0
7.279999999999999,228.2040648,-4.5000672,-0.8132064000000001,-0.4599432,0.0,0.0,0.0,0.0
7.299999999999999,232.51210799999998,-3.9035736000000005,0.3252216,-0.15331440000000002,0.0,0.0,0.0,0.0
7.319999999999999,236.0313288,-4.8252888,1.3554456000000001,-0.4599432,0.0,0.0,0.0,0.0
7.34,238.9537512,-4.5000672,0.8132064000000001,-0.996696,0.0,0.0,0.0,0.0
7.359999999999999,241.2830328,-4.445812800000001,2.1686520000000002,-0.30662880000000003,0.0,0.0,0.0,0.0
7.379999999999999,243.21576960000002,-4.8252888,1.8976848000000002,-0.8433816000000001,0.0,0.0,0.0,0.0
7.3999999999999995,244.7641536,-4.8795432000000005,1.3011912,-0.5367528,0.0,0.0,0.0,0.0
7.42,246.00316560000002,-3.9035736000000005,0.3252216,-0.3834384,0.0,0.0,0.0,0.0
7.4399999999999995,247.000776,-3.6868608000000003,0.0,-0.5367528,0.0,0.0,0.0,0.0
7.459999999999999,247.91212800000002,-4.2291,-0.3252216,-0.8433816000000001,0.0,0.0,0.0,0.0
7.4799999999999995,248.8314048,-4.120591200000001,0.4337304,-0.5367528,0.0,0.0,0.0,0.0
7.5,249.6415632,-4.3376088,-0.4337304,-0.5367528,0.0,0.0,0.0,0.0
7.52,250.220988,-4.0663368,0.4879848,-0.3834384,0.0,0.0,0.0,0.0
7.539999999999999,251.00097119999998,-4.012082400000001,-0.3252216,-0.3834384,0.0,0.0,0.0,0.0
7.56,251.6300784,-4.120591200000001,-0.1085088,-0.23012400000000002,0.0,0.0,0.0,0.0
7.58,252.212856,-4.8252888,0.5964936000000001,0.0768096,0.0,0.0,0.0,0.0
7.6,252.9864384,-4.2291,1.7349216,0.15331440000000002,0.0,0.0,0.0,0.0
7.619999999999999,253.747524,-4.2291,-0.4337304,0.0768096,0.0,0.0,0.0,0.0
7.64,254.57871360000001,-4.2833544,0.7046976,0.0768096,0.0,0.0,0.0,0.0
7.66,255.52511760000002,-4.120591200000001,0.5422392,0.30662880000000003,0.0,0.0,0.0,0.0
7.68,256.5525984,-4.8795432000000005,1.3011912,0.15331440000000002,0.0,0.0,0.0,0.0
7.699999999999999,257.6514024,-4.3915584,1.3554456000000001,0.23012400000000002,0.0,0.0,0.0,0.0
7.72,258.9196752,-3.7953696000000003,0.2170176,-0.6900672,0.0,0.0,0.0,0.0
7.74,260.17728,-3.957828,1.789176,-0.6135624,0.0,0.0,0.0,0.0
7.76,261.7509624,-3.3616392,0.650748,-1.1500104,0.0,0.0,0.0,0.0
7.779999999999999,263.2018104,-3.3616392,1.9519392,-0.7668768,0.0,0.0,0.0,0.0
7.799999999999999,264.7364784,-3.5240976,0.0542544,-0.7668768,0.0,0.0,0.0,0.0
7.819999999999999,266.3574048,-3.578352,0.8674608,-1.3801344,0.0,0.0,0.0,0.0
7.84,268.1557248,-3.8496240000000004,0.9217152000000001,-0.6900672,0.0,0.0,0.0,0.0
7.859999999999999,269.9061912,-3.198876,0.5964936000000001,-1.9168872,0.0,0.0,0.0,0.0
7.879999999999999,271.7676048,-3.2531304000000003,0.9759696,-1.3036296,0.0,0.0,0.0,0.0
7.8999999999999995,273.31141679999996,-2.3856696,1.3011912,-0.7668768,0.0,0.0,0.0,0.0
7.92,274.9637376,-3.4158936000000004,1.030224,-0.7668768,0.0,0.0,0.0,0.0
7.9399999999999995,276.6825048,-3.6326064,2.2229064000000003,0.0768096,0.0,0.0,0.0,0.0
7.959999999999999,278.3945664,-4.120591200000001,0.8674608,0.15331440000000002,0.0,0.0,0.0,0.0
7.9799999999999995,280.1456424,-3.6868608000000003,0.9759696,0.30662880000000003,0.0,0.0,0.0,0.0
8.0,281.9128728,-4.2833544,1.4639544,0.23012400000000002,0.0,0.0,0.0,0.0
8.02,283.6054272,-4.2291,1.9519392,0.8433816000000001,0.0,0.0,0.0,0.0
8.04,285.23184,-3.5240976,0.7046976,0.0768096,0.0,0.0,0.0,0.0
8.059999999999999,287.0350368,-4.1748456,1.1387328,0.15331440000000002,0.0,0.0,0.0,0.0
8.08,288.666936,-3.6326064,1.4639544,0.0768096,0.0,0.0,0.0,0.0
8.1,290.326572,-3.7953696000000003,1.3011912,0.0,0.0,0.0,0.0,0.0
8.12,291.8895864,-3.5240976,1.2469368,-0.23012400000000002,0.0,0.0,0.0,0.0
8.14,293.53002000000004,-3.7411152,0.37947600000000004,-0.15331440000000002,0.0,0.0,0.0,0.0
8.16,295.1573472,-3.957828,0.4879848,-0.5367528,0.0,0.0,0.0,0.0
8.18,296.8526448,-4.3915584,0.8132064000000001,0.30662880000000003,0.0,0.0,0.0,0.0
8.2,298.46107440000003,-4.5000672,1.2469368,0.30662880000000003,0.0,0.0,0.0,0.0
8.219999999999999,300.0073248,-3.7953696000000003,0.5422392,0.0,0.0,0.0,0.0,0.0
8.24,301.5822264,-3.9035736000000005,0.8674608,0.0768096,0.0,0.0,0.0,0.0
8.26,303.0355128,-3.6326064,0.16276320000000002,-0.15331440000000002,0.0,0.0,0.0,0.0
8.28,304.5192792,-3.4158936000000004,-0.16276320000000002,-0.6900672,0.0,0.0,0.0,0.0
8.299999999999999,305.898804,-2.9279088,0.650748,-0.6900672,0.0,0.0,0.0,0.0
8.32,307.3194768,-3.0903671999999998,-0.0542544,-1.6102584000000002,0.0,0.0,0.0,0.0
8.34,308.8285416,-3.6868608000000003,-0.2170176,-1.0735056,0.0,0.0,0.0,0.0
8.36,310.275732,-3.0903671999999998,1.789176,-1.1500104,0.0,0.0,0.0,0.0
8.379999999999999,311.7031104,-3.1446216000000002,0.5422392,-0.9201912000000001,0.0,0.0,0.0,0.0
8.399999999999999,312.99119520000005,-3.6326064,1.8976848000000002,-0.3834384,0.0,0.0,0.0,0.0
8.42,314.2460568,-3.0903671999999998,2.1143976,-0.5367528,0.0,0.0,0.0,0.0
8.44,315.58077599999996,-3.3616392,1.3011912,-0.4599432,0.0,0.0,0.0,0.0
8.459999999999999,316.8734328,-2.9279088,1.0844784,-0.6900672,0.0,0.0,0.0,0.0
8.48,318.200532,-3.4158936000000004,1.3554456000000001,-0.3834384,0.0,0.0,0.0,0.0
8.5,319.5352512,-3.198876,1.5724632,-0.0768096,0.0,0.0,0.0,0.0
8.52,320.9745168,-3.1446216000000002,1.0844784,-0.0768096,0.0,0.0,0.0,0.0
8.54,322.4561496,-3.5240976,1.3554456000000001,0.0768096,0.0,0.0,0.0,0.0
8.559999999999999,323.7954408,-3.6868608000000003,0.7589520000000001,-0.15331440000000002,0.0,0.0,0.0,0.0
8.579999999999998,325.15576319999997,-3.9035736000000005,1.1926824,0.23012400000000002,0.0,0.0,0.0,0.0
8.6,326.5358976,-3.6326064,0.16276320000000002,-0.0768096,0.0,0.0,0.0,0.0
8.62,327.9132888,-3.7411152,1.5724632,0.30662880000000003,0.0,0.0,0.0,0.0
8.64,329.27330639999997,-3.8496240000000004,0.5964936000000001,0.15331440000000002,0.0,0.0,0.0,0.0
8.66,330.7707888,-3.7953696000000003,0.3252216,0.0768096,0.0,0.0,0.0,0.0
8.68,332.16890639999997,-3.5240976,1.030224,0.0768096,0.0,0.0,0.0,0.0
8.7,333.6304224,-3.4698432,0.4337304,-0.0768096,0.0,0.0,0.0,0.0
8.719999999999999,334.9937928,-3.3616392,0.2170176,-0.0768096,0.0,0.0,0.0,0.0
8.739999999999998,336.46018560000005,-3.3073848000000003,0.4879848,-0.6135624,0.0,0.0,0.0,0.0
8.76,337.8412344,-3.1446216000000002,0.8674608,-0.6135624,0.0,0.0,0.0,0.0
8.78,339.2533728,-3.198876,0.8132064000000001,-0.3834384,0.0,0.0,0.0,0.0
8.8,340.68014159999996,-2.7651456,0.4879848,-0.5367528,0.0,0.0,0.0,0.0
8.82,342.0486936,-2.8194000000000004,1.3011912,-0.4599432,0.0,0.0,0.0,0.0
8.84,343.5333744,-2.8736544000000004,0.16276320000000002,-1.1500104,0.0,0.0,0.0,0.0
8.86,344.8909536,-2.8194000000000004,0.650748,-0.4599432,0.0,0.0,0.0,0.0
8.879999999999999,346.24883759999994,-3.1446216000000002,0.1085088,-0.8433816000000001,0.0,0.0,0.0,0.0
8.899999999999999,347.60367360000004,-3.0361128,1.5182088,-0.7668768,0.0,0.0,0.0,0.0
8.92,348.8609736,-2.6023824,1.1926824,-0.6135624,0.0,0.0,0.0,0.0
8.94,350.1243696,-2.8736544000000004,0.5964936000000001,-0.3834384,0.0,0.0,0.0,0.0
8.96,351.4834728,-2.4399240000000004,1.1387328,-0.6135624,0.0,0.0,0.0,0.0
8.98,352.6334832,-3.0903671999999998,1.030224,-0.3834384,0.0,0.0,0.0,0.0
9.0,353.8182408,-2.7108912000000003,1.0844784,-0.30662880000000003,0.0,0.0,0.0,0.0
9.02,355.0103136,-2.8194000000000004,1.1926824,-0.0768096,0.0,0.0,0.0,0.0
9.04,356.3532624,-2.7651456,1.5724632,-0.15331440000000002,0.0,0.0,0.0,0.0
9.059999999999999,357.44840880000004,-2.6566368,2.1143976,0.0768096,0.0,0.0,0.0,0.0
9.079999999999998,358.6996128,-3.0361128,1.4097000000000002,0.0768096,0.0,0.0,0.0,0.0
9.1,359.99348879999997,-2.9818584,1.030224,-0.23012400000000002,0.0,0.0,0.0,0.0
9.12,361.189524,-2.7108912000000003,0.650748,-0.23012400000000002,0.0,0.0,0.0,0.0
9.14,362.3166744,-2.7651456,0.9217152000000001,-0.0768096,0.0,0.0,0.0,0.0
9.16,363.5907384,-2.9279088,1.3011912,0.0,0.0,0.0,0.0,0.0
9.18,364.9181424,-2.4399240000000004,0.9217152000000001,-0.0768096,0.0,0.0,0.0,0.0
9.2,366.06358079999995,-2.8194000000000004,0.9759696,0.0768096,0.0,0.0,0.0,0.0
9.219999999999999,367.28339040000003,-2.9279088,0.8674608,-0.23012400000000002,0.0,0.0,0.0,0.0
9.239999999999998,368.51844,-2.8194000000000004,0.4337304,-0.0768096,0.0,0.0,0.0,0.0
9.26,369.89430719999996,-2.7108912000000003,0.650748,-0.0768096,0.0,0.0,0.0,0.0
9.28,371.0744928,-2.7651456,0.8132064000000001,-0.0768096,0.0,0.0,0.0,0.0
9.3,372.29034,-2.6023824,1.0844784,-0.0768096,0.0,0.0,0.0,0.0
9.32,373.4644296,-2.6023824,0.7589520000000001,-0.15331440000000002,0.0,0.0,0.0,0.0
9.34,374.7534288,-2.8736544000000004,0.7046976,-0.15331440000000002,0.0,0.0,0.0,0.0
9.36,375.96988560000005,-2.6566368,0.5964936000000001,-0.6135624,0.0,0.0,0.0,0.0
9.379999999999999,377.26437119999997,-2.7108912000000003,0.7589520000000001,-0.23012400000000002,0.0,0.0,0.0,0.0
9.399999999999999,378.4924104,-2.7651456,0.4879848,-0.4599432,0.0,0.0,0.0,0.0
9.42,379.80579359999996,-2.7651456,0.4879848,-0.4599432,0.0,0.0,0.0,0.0
9.44,380.9683008,-2.8194000000000004,0.5422392,-0.30662880000000003,0.0,0.0,0.0,0.0
9.46,382.2280392,-2.7108912000000003,0.9759696,0.0,0.0,0.0,0.0,0.0
9.48,383.464308,-2.7651456,1.030224,-0.0768096,0.0,0.0,0.0,0.0
9.5,384.60700320000007,-2.4941784,0.9759696,-0.15331440000000002,0.0,0.0,0.0,0.0
9.52,385.7774352,-2.3856696,1.4097000000000002,-0.23012400000000002,0.0,0.0,0.0,0.0
9.54,386.9018424,-2.6566368,1.030224,-0.30662880000000003,0.0,0.0,0.0,0.0
9.559999999999999,388.2109584,-2.2771608000000003,1.0844784,-0.4599432,0.0,0.0,0.0,0.0
9.579999999999998,389.40973679999996,-2.4399240000000004,1.030224,-0.30662880000000003,0.0,0.0,0.0,0.0
9.6,390.5362776,-2.1686520000000002,1.5182088,-0.23012400000000002,0.0,0.0,0.0,0.0
9.62,391.6122216,-2.2771608000000003,1.3011912,-0.4599432,0.0,0.0,0.0,0.0
9.64,392.916156,-2.2771608000000003,0.9759696,-0.30662880000000003,0.0,0.0,0.0,0.0
9.66,393.98326080000004,-2.3856696,1.0844784,-0.9201912000000001,0.0,0.0,0.0,0.0
9.68,395.1043152,-2.4399240000000004,1.1387328,-0.7668768,0.0,0.0,0.0,0.0
9.7,396.15739920000004,-3.0361128,0.9759696,0.0768096,0.0,0.0,0.0,0.0
9.719999999999999,397.350996,-2.8194000000000004,0.5422392,-0.0768096,0.0,0.0,0.0,0.0
9.739999999999998,398.4933864,-2.9818584,0.16276320000000002,0.0768096,0.0,0.0,0.0,0.0
9.76,399.7195968,-2.8194000000000004,0.0,-0.6135624,0.0,0.0,0.0,0.0
9.78,400.8507096,-2.9818584,0.16276320000000002,0.0,0.0,0.0,0.0,0.0
9.8,401.900136,-2.6566368,0.4879848,0.0,0.0,0.0,0.0,0.0
9.82,402.8934792,-2.6566368,1.1387328,0.0768096,0.0,0.0,0.0,0.0
9.84,403.94656319999996,-2.3314152,1.030224,-0.23012400000000002,0.0,0.0,0.0,0.0
9.86,405.1087656,-2.2229064000000003,1.6806672000000002,-0.4599432,0.0,0.0,0.0,0.0
9.879999999999999,406.16093520000004,-2.1143976,1.6806672000000002,-0.4599432,0.0,0.0,0.0,0.0
9.899999999999999,407.13660000000004,-1.8976848000000002,1.6806672000000002,-0.7668768,0.0,0.0,0.0,0.0
9.92,408.1579848,-2.0061936,1.4639544,-0.7668768,0.0,0.0,0.0,0.0
9.94,409.370784,-2.2229064000000003,1.3554456000000001,-0.8433816000000001,0.0,0.0,0.0,0.0
9.96,410.3586408,-2.2771608000000003,1.4097000000000002,-0.5367528,0.0,0.0,0.0,0.0
9.98,411.51200400000005,-2.548128,0.7046976,-0.0768096,0.0,0.0,0.0,0.0
10.0,412.76899920000005,-2.4399240000000004,0.8132064000000001,-0.4599432,0.0,0.0,0.0,0.0
10.02,413.8495152,-2.4941784,0.7589520000000001,-0.3834384,0.0,0.0,0.0,0.0
10.04,414.96081599999997,-2.548128,0.9217152000000001,-0.15331440000000002,0.0,0.0,0.0,0.0
10.059999999999999,416.0160336,-2.2771608000000003,1.3011912,0.0,0.0,0.0,0.0,0.0
10.079999999999998,417.1282488,-2.2771608000000003,1.0844784,0.0768096,0.0,0.0,0.0,0.0
10.1,418.11214320000005,-2.3314152,1.030224,0.0768096,0.0,0.0,0.0,0.0
10.12,419.08262640000004,-2.1686520000000002,1.0844784,0.0768096,0.0,0.0,0.0,0.0
10.14,419.9683752,-2.4399240000000004,0.8132064000000001,0.0,0.0,0.0,0.0,0.0
10.16,420.9187416,-2.2229064000000003,1.1387328,-0.15331440000000002,0.0,0.0,0.0,0.0
10.18,421.9136088,-2.1686520000000002,1.0844784,-0.30662880000000003,0.0,0.0,0.0,0.0
10.2,423.0191184,-2.2771608000000003,1.0844784,-0.30662880000000003,0.0,0.0,0.0,0.0
10.219999999999999,424.232832,-2.1143976,1.1387328,-0.5367528,0.0,0.0,0.0,0.0
10.239999999999998,425.235624,-2.2229064000000003,0.9217152000000001,-0.6135624,0.0,0.0,0.0,0.0
10.26,426.33503759999996,-2.0601432,1.0844784,-0.6135624,0.0,0.0,0.0,0.0
10.28,427.4445096,-1.9519392,1.1926824,-0.6135624,0.0,0.0,0.0,0.0
10.3,428.50399440000007,-2.1686520000000002,1.0844784,-0.6135624,0.0,0.0,0.0,0.0
10.32,429.5680512,-2.1143976,1.1387328,-0.4599432,0.0,0.0,0.0,0.0
10.34,430.5964464,-2.2771608000000003,0.650748,-0.6900672,0.0,0.0,0.0,0.0
10.36,431.706528,-2.2771608000000003,0.7589520000000001,-0.3834384,0.0,0.0,0.0,0.0
10.379999999999999,432.788568,-2.3314152,0.8132064000000001,0.0,0.0,0.0,0.0,0.0
10.399999999999999,433.7489928,-2.0601432,1.1926824,0.0,0.0,0.0,0.0,0.0
10.42,434.7523944,-2.0061936,1.1387328,-0.15331440000000002,0.0,0.0,0.0,0.0
10.44,435.6360096,-2.0601432,1.0844784,-0.15331440000000002,0.0,0.0,0.0,0.0
10.46,436.62325680000004,-2.0601432,1.0844784,-0.30662880000000003,0.0,0.0,0.0,0.0
10.48,437.5215024,-1.8434304000000001,1.0844784,-0.4599432,0.0,0.0,0.0,0.0
10.5,438.4002408,-1.8976848000000002,1.4639544,-0.30662880000000003,0.0,0.0,0.0,0.0
10.52,439.31586000000004,-1.8976848000000002,1.4639544,0.0,0.0,0.0,0.0,0.0
10.54,440.16899520000004,-1.8976848000000002,1.4639544,-0.30662880000000003,0.0,0.0,0.0,0.0
10.559999999999999,441.184284,-1.8434304000000001,1.3011912,-0.23012400000000002,0.0,0.0,0.0,0.0
10.579999999999998,441.96761999999995,-1.7349216,1.3011912,-0.6135624,0.0,0.0,0.0,0.0
10.6,442.8046008,-2.0061936,1.1387328,-0.4599432,0.0,0.0,0.0,0.0
10.62,443.7409464,-2.0601432,1.1926824,-0.30662880000000003,0.0,0.0,0.0,0.0
10.64,444.7614168,-1.8976848000000002,1.2469368,-0.4599432,0.0,0.0,0.0,0.0
10.66,445.68709440000003,-2.0061936,1.1387328,-0.6135624,0.0,0.0,0.0,0.0
10.68,446.54297280000003,-1.8434304000000001,1.3011912,-0.6135624,0.0,0.0,0.0,0.0
10.7,447.5064456,-1.6806672000000002,1.5724632,-0.3834384,0.0,0.0,0.0,0.0
10.719999999999999,448.4421816,-1.789176,1.4639544,-0.30662880000000003,0.0,0.0,0.0,0.0
10.739999999999998,449.3093376,-1.789176,1.5724632,-0.23012400000000002,0.0,0.0,0.0,0.0
10.76,450.17649359999996,-1.6806672000000002,1.4639544,-0.15331440000000002,0.0,0.0,0.0,0.0
10.78,451.24725600000005,-1.8976848000000002,1.1387328,-0.5367528,0.0,0.0,0.0,0.0
10.8,452.2189584,-1.8976848000000002,1.2469368,-0.30662880000000003,0.0,0.0,0.0,0.0
10.82,453.18669839999995,-2.2229064000000003,0.9217152000000001,-0.15331440000000002,0.0,0.0,0.0,0.0
10.84,454.0943928,-2.0601432,0.5422392,-0.15331440000000002,0.0,0.0,0.0,0.0
10.86,455.0075736,-2.0061936,1.1387328,0.0768096,0.0,0.0,0.0,0.0
10.879999999999999,455.99786880000005,-2.1686520000000002,0.8674608,0.0768096,0.0,0.0,0.0,0.0
10.899999999999999,456.90952560000005,-2.0601432,1.0844784,0.0768096,0.0,0.0,0.0,0.0
10.92,457.83855600000004,-2.1143976,0.9217152000000001,0.15331440000000002,0.0,0.0,0.0,0.0
10.94,458.68803360000004,-2.2229064000000003,1.030224,0.0768096,0.0,0.0,0.0,0.0
10.96,459.50276400000007,-1.8434304000000001,1.3011912,0.0768096,0.0,0.0,0.0,0.0
10.98,460.3751016,-1.8976848000000002,1.3554456000000001,0.0768096,0.0,0.0,0.0,0.0
11.0,461.22366480000005,-1.7349216,1.4097000000000002,0.0,0.0,0.0,0.0,0.0
11.02,461.9222664,-1.6264128000000002,1.6264128000000002,0.0768096,0.0,0.0,0.0,0.0
11.04,462.7226712,-1.6806672000000002,1.4639544,-0.3834384,0.0,0.0,0.0,0.0
11.059999999999999,463.5755016,-1.7349216,1.4097000000000002,-0.15331440000000002,0.0,0.0,0.0,0.0
11.079999999999998,464.29543920000003,-1.8434304000000001,0.9759696,-0.4599432,0.0,0.0,0.0,0.0
11.1,465.15101280000005,-1.7349216,0.650748,-0.5367528,0.0,0.0,0.0,0.0
11.12,466.02883679999997,-1.8976848000000002,0.8132064000000001,-0.6135624,0.0,0.0,0.0,0.0
11.14,466.9151952,-1.9519392,0.9759696,-0.15331440000000002,0.0,0.0,0.0,0.0
11.16,467.8460544,-1.8976848000000002,0.7046976,-0.15331440000000002,0.0,0.0,0.0,0.0
11.18,468.83574,-1.8434304000000001,0.7589520000000001,-0.15331440000000002,0.0,0.0,0.0,0.0
11.2,469.68643679999997,-2.1143976,0.8132064000000001,-0.30662880000000003,0.0,0.0,0.0,0.0
11.219999999999999,470.4972048,-1.9519392,0.7589520000000001,-0.3834384,0.0,0.0,0.0,0.0
11.239999999999998,471.325956,-1.8976848000000002,0.7046976,0.0768096,0.0,0.0,0.0,0.0
11.26,472.15501200000006,-1.8976848000000002,0.9217152000000001,0.0,0.0,0.0,0.0,0.0
11.28,472.96425600000003,-2.0061936,1.030224,0.0,0.0,0.0,0.0,0.0
11.3,473.730828,-2.0601432,0.9759696,-0.15331440000000002,0.0,0.0,0.0,0.0
11.32,474.498924,-1.8434304000000001,0.9759696,-0.15331440000000002,0.0,0.0,0.0,0.0
11.34,475.1990496,-1.8434304000000001,1.3011912,-0.0768096,0.0,0.0,0.0,0.0
11.36,475.91045280000003,-1.6806672000000002,1.4639544,0.0,0.0,0.0,0.0,0.0
11.379999999999999,476.6102736,-1.6806672000000002,1.4639544,0.0768096,0.0,0.0,0.0,0.0
11.399999999999999,477.4457304,-1.6806672000000002,1.4639544,-0.3834384,0.0,0.0,0.0,0.0
11.42,478.2552792,-1.6806672000000002,1.4639544,-0.23012400000000002,0.0,0.0,0.0,0.0
11.44,479.028252,-1.6264128000000002,1.5182088,-0.15331440000000002,0.0,0.0,0.0,0.0
11.46,479.89357920000003,-1.6264128000000002,1.4097000000000002,-0.4599432,0.0,0.0,0.0,0.0
11.48,480.73025520000004,-1.6806672000000002,1.3554456000000001,-0.4599432,0.0,0.0,0.0,0.0
11.5,481.50231360000004,-1.5724632,1.1387328,-0.30662880000000003,0.0,0.0,0.0,0.0
11.52,482.230176,-1.7349216,1.3011912,-0.15331440000000002,0.0,0.0,0.0,0.0
11.54,483.0098544,-1.789176,1.1387328,-0.23012400000000002,0.0,0.0,0.0,0.0
11.559999999999999,483.74808,-1.789176,0.8132064000000001,-0.0768096,0.0,0.0,0.0,0.0
11.579999999999998,484.4015712,-1.789176,1.030224,0.0,0.0,0.0,0.0,0.0
11.6,485.070912,-1.7349216,1.0844784,0.0768096,0.0,0.0,0.0,0.0
11.62,485.779572,-1.8434304000000001,1.0844784,0.0768096,0.0,0.0,0.0,0.0
11.64,486.42605280000004,-1.7349216,1.1926824,0.23012400000000002,0.0,0.0,0.0,0.0
11.66,487.1243496,-1.9519392,1.3011912,0.15331440000000002,0.0,0.0,0.0,0.0
11.68,487.8631848,-1.789176,1.3554456000000001,0.15331440000000002,0.0,0.0,0.0,0.0
11.7,488.5462416,-1.789176,1.2469368,0.0768096,0.0,0.0,0.0,0.0
11.719999999999999,489.2347848,-1.789176,1.2469368,0.0768096,0.0,0.0,0.0,0.0
11.739999999999998,489.9285096,-1.8434304000000001,1.1926824,0.0768096,0.0,0.0,0.0,0.0
11.76,490.58687760000004,-1.8434304000000001,1.0844784,0.0,0.0,0.0,0.0,0.0
11.78,491.256828,-1.7349216,1.0844784,0.0,0.0,0.0,0.0,0.0
11.8,491.9834712,-1.5724632,1.030224,-0.3834384,0.0,0.0,0.0,0.0
11.82,492.6022152,-1.7349216,1.0844784,-0.15331440000000002,0.0,0.0,0.0,0.0
11.84,493.2252264,-1.6806672000000002,1.030224,-0.30662880000000003,0.0,0.0,0.0,0.0
11.86,493.88054639999996,-1.5724632,0.8132064000000001,-0.3834384,0.0,0.0,0.0,0.0
11.879999999999999,494.64650880000005,-1.6264128000000002,0.8674608,-0.23012400000000002,0.0,0.0,0.0,0.0
11.899999999999999,495.4091184,-1.6806672000000002,0.7046976,-0.23012400000000002,0.0,0.0,0.0,0.0
11.92,496.15801200000004,-1.5724632,0.9217152000000001,-0.23012400000000002,0.0,0.0,0.0,0.0
11.94,496.85874720000004,-1.6806672000000002,0.8132064000000001,-0.3834384,0.0,0.0,0.0,0.0
11.96,497.5780752,-1.4639544,0.9217152000000001,-0.3834384,0.0,0.0,0.0,0.0
11.98,498.25107360000004,-1.5724632,1.2469368,-0.23012400000000002,0.0,0.0,0.0,0.0
12.0,498.9551616,-1.5724632,0.9217152000000001,-0.23012400000000002,0.0,0.0,0.0,0.0
12.02,499.6181016,-1.6264128000000002,1.3011912,0.0,0.0,0.0,0.0,0.0
12.04,500.30512080000005,-1.6264128000000002,1.4097000000000002,-0.23012400000000002,0.0,0.0,0.0,0.0
12.059999999999999,501.0601104,-1.5724632,1.4639544,-0.15331440000000002,0.0,0.0,0.0,0.0
12.079999999999998,501.68068320000003,-1.4639544,1.4639544,0.0768096,0.0,0.0,0.0,0.0
12.1,502.2588888,-1.5182088,1.4097000000000002,0.0,0.0,0.0,0.0,0.0
12.12,502.9684632,-1.4097000000000002,1.5182088,-0.15331440000000002,0.0,0.0,0.0,0.0
12.14,503.5152744,-1.5182088,1.5182088,-0.15331440000000002,0.0,0.0,0.0,0.0
12.16,504.23886960000004,-1.5182088,1.1926824,-0.15331440000000002,0.0,0.0,0.0,0.0
12.18,504.89449440000004,-1.4639544,1.5724632,-0.15331440000000002,0.0,0.0,0.0,0.0
12.2,505.6238808,-1.4639544,1.4639544,-0.23012400000000002,0.0,0.0,0.0,0.0
12.219999999999999,506.27523840000003,-1.4639544,1.4639544,-0.15331440000000002,0.0,0.0,0.0,0.0
12.239999999999998,506.85557760000006,-1.6264128000000002,1.5182088,0.0,0.0,0.0,0.0,0.0
12.26,507.3313704,-1.6264128000000002,1.4097000000000002,0.0768096,0.0,0.0,0.0,0.0
12.28,507.8986032,-1.5724632,1.3554456000000001,0.0768096,0.0,0.0,0.0,0.0
12.3,508.5219192,-1.5182088,1.3011912,0.0,0.0,0.0,0.0,0.0
12.32,509.133348,-1.4639544,1.1387328,0.0,0.0,0.0,0.0,0.0
12.34,509.71216319999996,-1.5724632,1.1387328,0.0768096,0.0,0.0,0.0,0.0
12.36,510.2251416,-1.5724632,1.030224,0.0768096,0.0,0.0,0.0,0.0
12.379999999999999,510.76768560000005,-1.5724632,1.030224,0.0768096,0.0,0.0,0.0,0.0
12.399999999999999,511.31358240000003,-1.5724632,0.9217152000000001,0.0768096,0.0,0.0,0.0,0.0
12.42,511.9219632,-1.5724632,1.2469368,0.0768096,0.0,0.0,0.0,0.0
12.44,512.4209208000001,-1.4639544,1.2469368,0.0768096,0.0,0.0,0.0,0.0
12.46,513.0055272,-1.5182088,0.9759696,0.0768096,0.0,0.0,0.0,0.0
12.48,513.5663592,-1.4639544,1.1387328,0.0,0.0,0.0,0.0,0.0
12.5,514.1530992,-1.5724632,1.1387328,0.0,0.0,0.0,0.0,0.0
12.52,514.8638928,-1.5724632,1.1387328,-0.15331440000000002,0.0,0.0,0.0,0.0
12.54,515.518908,-1.3011912,1.0844784,-0.15331440000000002,0.0,0.0,0.0,0.0
12.559999999999999,516.1763616000001,-1.5182088,1.0844784,-0.0768096,0.0,0.0,0.0,0.0
12.58,516.6890352,-1.3554456000000001,1.030224,-0.30662880000000003,0.0,0.0,0.0,0.0
12.6,517.2239592,-1.4639544,0.8132064000000001,-0.15331440000000002,0.0,0.0,0.0,0.0
12.62,517.8487992,-1.4639544,1.030224,-0.0768096,0.0,0.0,0.0,0.0
12.639999999999999,518.4568752,-1.4639544,0.9217152000000001,0.0,0.0,0.0,0.0,0.0
12.66,518.9878368,-1.4639544,0.9217152000000001,-0.15331440000000002,0.0,0.0,0.0,0.0
12.68,519.5063016,-1.3011912,0.7589520000000001,-0.23012400000000002,0.0,0.0,0.0,0.0
12.7,520.0582944,-1.4097000000000002,0.8674608,-0.23012400000000002,0.0,0.0,0.0,0.0
12.719999999999999,520.59078,-1.4097000000000002,0.9759696,-0.0768096,0.0,0.0,0.0,0.0
12.74,521.0857752000001,-1.5724632,0.9217152000000001,-0.0768096,0.0,0.0,0.0,0.0
12.76,521.61948,-1.4097000000000002,0.8674608,-0.0768096,0.0,0.0,0.0,0.0
12.78,522.044676,-1.3554456000000001,0.9217152000000001,-0.0768096,0.0,0.0,0.0,0.0
12.799999999999999,522.6189192,-1.5182088,0.9759696,0.0,0.0,0.0,0.0,0.0
12.82,523.19682,-1.4639544,1.030224,0.0768096,0.0,0.0,0.0,0.0
12.84,523.7085792,-1.5182088,1.0844784,0.0768096,0.0,0.0,0.0,0.0
12.86,524.1642552000001,-1.4639544,1.030224,0.0,0.0,0.0,0.0,0.0
12.879999999999999,524.6098728000001,-1.4097000000000002,1.1926824,0.0768096,0.0,0.0,0.0,0.0
12.9,525.068292,-1.4097000000000002,1.3011912,0.0768096,0.0,0.0,0.0,0.0
12.92,525.4678848,-1.2469368,1.3554456000000001,-0.0768096,0.0,0.0,0.0,0.0
12.94,525.9159408,-1.3554456000000001,1.5724632,-0.15331440000000002,0.0,0.0,0.0,0.0
12.959999999999999,526.394172,-1.3011912,1.5182088,-0.15331440000000002,0.0,0.0,0.0,0.0
12.98,526.8760608,-1.1926824,1.3011912,-0.23012400000000002,0.0,0.0,0.0,0.0
13.0,527.239992,-1.3011912,1.7349216,-0.30662880000000003,0.0,0.0,0.0,0.0
13.02,527.634708,-1.2469368,1.3554456000000001,-0.30662880000000003,0.0,0.0,0.0,0.0
13.04,528.0608184,-1.1387328,1.3554456000000001,-0.3834384,0.0,0.0,0.0,0.0
13.059999999999999,528.4521816,-1.3011912,1.3011912,-0.30662880000000003,0.0,0.0,0.0,0.0
13.08,528.9743040000001,-1.3554456000000001,1.1387328,-0.23012400000000002,0.0,0.0,0.0,0.0
13.1,529.4016336000001,-1.3554456000000001,1.1387328,-0.15331440000000002,0.0,0.0,0.0,0.0
13.12,529.7603832,-1.3554456000000001,1.2469368,-0.23012400000000002,0.0,0.0,0.0,0.0
13.139999999999999,530.1679008,-1.3011912,1.1926824,-0.0768096,0.0,0.0,0.0,0.0
13.16,530.5943159999999,-1.4639544,1.1387328,0.0768096,0.0,0.0,0.0,0.0
13.18,531.027132,-1.3011912,1.4097000000000002,0.0768096,0.0,0.0,0.0,0.0
13.2,531.4419648,-1.4097000000000002,1.1926824,0.0768096,0.0,0.0,0.0,0.0
13.219999999999999,531.9113568,-1.4639544,1.1387328,0.15331440000000002,0.0,0.0,0.0,0.0
13.24,532.3246656,-1.5182088,1.1926824,0.0768096,0.0,0.0,0.0,0.0
13.26,532.7209056,-1.4097000000000002,1.1926824,0.15331440000000002,0.0,0.0,0.0,0.0
13.28,533.0781312,-1.5182088,1.0844784,0.0768096,0.0,0.0,0.0,0.0
13.299999999999999,533.442672,-1.4097000000000002,0.8674608,0.0768096,0.0,0.0,0.0,0.0
13.32,533.80386,-1.4639544,0.8132064000000001,0.0768096,0.0,0.0,0.0,0.0
13.34,534.1583424,-1.4097000000000002,0.7589520000000001,0.0768096,0.0,0.0,0.0,0.0
13.36,534.4582656,-1.6264128000000002,0.650748,0.0768096,0.0,0.0,0.0,0.0
13.379999999999999,534.8755368,-1.4097000000000002,0.7589520000000001,0.0768096,0.0,0.0,0.0,0.0
13.4,535.2678144,-1.3554456000000001,0.9217152000000001,0.0768096,0.0,0.0,0.0,0.0
13.42,535.7737824000001,-1.2469368,0.9217152000000001,0.0,0.0,0.0,0.0,0.0
13.44,536.2425648000001,-1.3011912,0.9759696,0.0,0.0,0.0,0.0,0.0
13.459999999999999,536.6442912,-1.3011912,0.9759696,0.0768096,0.0,0.0,0.0,0.0
13.48,537.0353496,-1.3554456000000001,1.030224,0.0768096,0.0,0.0,0.0,0.0
13.5,537.4635936,-1.3554456000000001,1.030224,-0.0768096,0.0,0.0,0.0,0.0
13.52,537.8708064,-1.3554456000000001,1.1387328,-0.0768096,0.0,0.0,0.0,0.0
13.54,538.203648,-1.2469368,1.1387328,-0.15331440000000002,0.0,0.0,0.0,0.0
13.559999999999999,538.5718464,-1.1926824,0.9759696,-0.3834384,0.0,0.0,0.0,0.0
13.58,538.9101744000001,-1.3554456000000001,0.9217152000000001,-0.3834384,0.0,0.0,0.0,0.0
13.6,539.1643776000001,-1.1926824,0.9759696,-0.30662880000000003,0.0,0.0,0.0,0.0
13.62,539.517336,-1.1387328,0.8132064000000001,-0.15331440000000002,0.0,0.0,0.0,0.0
13.639999999999999,539.8821816000001,-1.2469368,0.9217152000000001,-0.15331440000000002,0.0,0.0,0.0,0.0
13.66,540.2074032,-1.1926824,0.9759696,-0.15331440000000002,0.0,0.0,0.0,0.0
13.68,540.5006208000001,-1.030224,0.8132064000000001,0.0,0.0,0.0,0.0,0.0
13.7,540.4512432,146.0641224,-29.928616800000004,95.1552072,0.0,0.0,0.0,0.0
13.719999999999999,540.7145904,-22.175419200000004,-11.3315496,-15.1817832,0.0,0.0,0.0,0.0
13.74,540.9687936,-12.416028,2.7651456,0.6900672,0.0,0.0,0.0,0.0
13.76,541.2144624,-2.1143976,0.9217152000000001,0.6900672,0.0,0.0,0.0,0.0
13.78,539.4947808,-1.6264128000000002,0.2170176,-0.4599432,0.0,0.0,0.0,0.0
13.799999999999999,539.2149744000001,-25.6995168,47.16993360000001,-4.2172128,0.0,0.0,0.0,0.0
13.82,539.4066936,-4.2291,-1.4097000000000002,-2.5304496,0.0,0.0,0.0,0.0
13.84,539.599632,-3.0361128,-24.2898168,-22.1595696,0.0,0.0,0.0,0.0
13.86,539.83128,-11.928043200000001,-7.048500000000001,-11.1181896,0.0,0.0,0.0,0.0
13.879999999999999,540.0162936,-48.037394400000004,29.711599200000002,5.137404,0.0,0.0,0.0,0.0
13.9,539.4560712,-64.628268,25.8080256,-4.6006512,0.0,0.0,0.0,0.0
13.92,539.59506,-12.795504,4.445812800000001,-11.04138,0.0,0.0,0.0,0.0
13.94,539.8498728000001,-3.2531304000000003,-3.7953696000000003,-1.3036296,0.0,0.0,0.0,0.0
13.959999999999999,540.1065144,-20.277734400000003,13.229234400000001,-17.482108800000002,0.0,0.0,0.0,0.0
13.98,540.3442584,-6.2892432000000005,1.5182088,-4.6006512,0.0,0.0,0.0,0.0
14.0,540.597852,-7.5364848,2.9818584,-0.6135624,0.0,0.0,0.0,0.0
14.02,540.9303888,-6.506260800000001,4.012082400000001,-5.2139088000000005,0.0,0.0,0.0,0.0
14.04,541.1519784000001,-222.0781944,0.0,-157.03296000000003,0.0,0.0,0.0,0.0
14.059999999999999,541.4083152,-8.1326736,-13.554456,-1.3801344,0.0,0.0,0.0,0.0
14.08,541.6545936,-9.9218496,3.7411152,-4.0638984,0.0,0.0,0.0,0.0
14.1,541.9008719999999,-20.602956,24.723547200000002,12.498324000000002,0.0,0.0,0.0,0.0
14.12,542.1776304,-122.64176640000001,99.436428,-91.5515568,0.0,0.0,0.0,0.0
14.139999999999999,542.4208608,-13.229234400000001,-0.4337304,-6.2109096,0.0,0.0,0.0,0.0
14.16,542.6595192,2.0061936,-4.3915584,-7.591044000000001,0.0,0.0,0.0,0.0
14.18,542.9390208000001,-2.0061936,0.5964936000000001,-3.5271456,0.0,0.0,0.0,0.0
14.2,543.2520504,-2.4941784,0.7589520000000001,-5.2907184,0.0,0.0,0.0,0.0
14.219999999999999,543.6269544,-4.554321600000001,4.2291,-5.137404,0.0,0.0,0.0,0.0
14.24,543.9969816,-1.5182088,-2.9279088,-11.194694400000001,0.0,0.0,0.0,0.0
14.26,544.2972096,-2.2771608000000003,4.988052,-6.2874144,0.0,0.0,0.0,0.0
