time,baro_altitude,accl_x,accl_y,accl_z,gps_altitude,gyro_roll,gyro_pitch,gyro_yaw
0.0,0.0,-10.0846128,-1.7349216,0.0768096,0.0,0.0,0.0,0.0
0.019999999999999574,-0.08381999999999998,-10.138867200000002,-1.789176,0.0,0.0,0.0,0.0,0.0
0.040000000000000036,-0.0688848,-10.0846128,-1.8434304000000001,-0.0768096,0.0,0.0,0.0,0.0
0.05999999999999961,-0.05425439999999998,-9.9218496,-1.789176,-0.0768096,0.0,0.0,0.0,0.0
0.08000000000000007,-0.043586400000000004,-10.0846128,-1.8434304000000001,0.0,0.0,0.0,0.0,0.0
0.09999999999999964,-0.0816864,-10.0846128,-1.7349216,-0.0768096,0.0,0.0,0.0,0.0
0.11999999999999922,-0.14721839999999997,-10.0846128,-1.7349216,-0.0768096,0.0,0.0,0.0,0.0
0.13999999999999968,-0.1972056,-10.0303584,-1.789176,-0.0768096,0.0,0.0,0.0,0.0
0.15999999999999925,-0.19994879999999998,-10.0846128,-1.7349216,0.0,0.0,0.0,0.0,0.0
0.17999999999999972,-0.19903440000000003,-10.0303584,-1.789176,-0.0768096,0.0,0.0,0.0,0.0
0.1999999999999993,-0.11247120000000001,-9.9218496,-1.6806672000000002,-0.0768096,0.0,0.0,0.0,0.0
0.21999999999999975,-0.12435839999999998,-10.138867200000002,-1.789176,0.15331440000000002,0.0,0.0,0.0,0.0
0.23999999999999932,0.29413200000000006,-10.138867200000002,-1.6806672000000002,0.0768096,0.0,0.0,0.0,0.0
0.2599999999999998,0.14630400000000002,-10.0303584,-1.789176,-0.23012400000000002,0.0,0.0,0.0,0.0
0.27999999999999936,0.08564880000000001,-10.0303584,-1.789176,0.0768096,0.0,0.0,0.0,0.0
0.2999999999999998,0.24719280000000002,-10.0846128,-1.7349216,0.23012400000000002,0.0,0.0,0.0,0.0
0.3199999999999994,0.23835360000000003,-10.0303584,-1.6806672000000002,0.0,0.0,0.0,0.0,0.0
0.33999999999999986,0.3438144000000001,-10.0303584,-1.789176,0.0,0.0,0.0,0.0,0.0
0.35999999999999943,0.16733520000000002,-10.0303584,-1.789176,0.0,0.0,0.0,0.0,0.0
0.3799999999999999,0.0384048,-10.0846128,-1.8434304000000001,0.0,0.0,0.0,0.0,0.0
0.39999999999999947,0.135636,-10.0846128,-1.7349216,0.15331440000000002,0.0,0.0,0.0,0.0
0.41999999999999993,0.2795016,-10.0846128,-1.7349216,-0.30662880000000003,0.0,0.0,0.0,0.0
0.4399999999999995,0.25572720000000004,-10.0846128,-1.8434304000000001,-0.23012400000000002,0.0,0.0,0.0,0.0
0.45999999999999996,0.24902160000000004,-10.138867200000002,-1.6806672000000002,0.0,0.0,0.0,0.0,0.0
0.47999999999999954,0.24231600000000003,-9.976104,-1.7349216,-0.0768096,0.0,0.0,0.0,0.0
0.5,0.035052,-10.138867200000002,-1.789176,-0.23012400000000002,0.0,0.0,0.0,0.0
0.5199999999999996,-0.11430000000000001,-10.0303584,-1.789176,-0.0768096,0.0,0.0,0.0,0.0
0.54,-0.143256,-10.0846128,-1.7349216,-0.15331440000000002,0.0,0.0,0.0,0.0
0.5599999999999996,0.009144000000000008,-10.138867200000002,-1.789176,0.0768096,0.0,0.0,0.0,0.0
0.5800000000000001,0.08016240000000001,-10.193121600000001,-1.7349216,-0.15331440000000002,0.0,0.0,0.0,0.0
0.5999999999999996,0.05547360000000002,-10.0303584,-1.789176,-0.15331440000000002,0.0,0.0,0.0,0.0
0.6199999999999997,-0.09631680000000002,-10.0303584,-1.6806672000000002,0.0,0.0,0.0,0.0,0.0
0.6399999999999997,-0.17678400000000002,-9.976104,-1.6264128000000002,-0.0768096,0.0,0.0,0.0,0.0
0.6599999999999997,-0.016154399999999982,-9.976104,-1.7349216,0.0,0.0,0.0,0.0,0.0
0.6799999999999997,0.04267200000000001,-10.0303584,-1.789176,0.0,0.0,0.0,0.0,0.0
0.6999999999999997,-0.073152,-10.0303584,-1.789176,0.0,0.0,0.0,0.0,0.0
0.7199999999999998,-0.11216639999999997,-10.0846128,-1.7349216,0.0768096,0.0,0.0,0.0,0.0
0.7399999999999998,0.06096000000000002,-10.0303584,-1.789176,0.0,0.0,0.0,0.0,0.0
0.7599999999999998,0.14569440000000003,-10.0303584,-1.789176,-0.0768096,0.0,0.0,0.0,0.0
0.7799999999999998,0.06096000000000002,-10.0846128,-1.7349216,-0.0768096,0.0,0.0,0.0,0.0
0.7999999999999998,-0.09448800000000002,-10.0846128,-1.7349216,0.0,0.0,0.0,0.0,0.0
0.8199999999999998,-0.2145792,-10.0846128,-1.7349216,-0.0768096,0.0,0.0,0.0,0.0
0.8399999999999999,-0.25603200000000004,-10.0846128,-1.8434304000000001,-0.15331440000000002,0.0,0.0,0.0,0.0
0.8599999999999994,-0.20177759999999997,-9.976104,-1.8434304000000001,-0.23012400000000002,0.0,0.0,0.0,0.0
0.8799999999999994,-0.3517392,-10.0846128,-1.7349216,0.0,0.0,0.0,0.0,0.0
0.8999999999999995,-0.41300400000000004,-10.0846128,-1.7349216,-0.0768096,0.0,0.0,0.0,0.0
0.9199999999999995,-0.49103279999999994,-10.0303584,-1.8976848000000002,-0.23012400000000002,0.0,0.0,0.0,0.0
0.9399999999999995,-0.47640240000000006,-10.138867200000002,-1.789176,-0.15331440000000002,0.0,0.0,0.0,0.0
0.9599999999999995,-0.37216080000000007,-9.976104,-1.7349216,-0.15331440000000002,0.0,0.0,0.0,0.0
0.9799999999999995,-0.09906,-10.0303584,-1.789176,0.0768096,0.0,0.0,0.0,0.0
0.9999999999999996,0.0323088,-10.138867200000002,-1.789176,0.0,0.0,0.0,0.0,0.0
1.0199999999999996,0.33497520000000003,-10.0303584,-1.789176,-0.30662880000000003,0.0,0.0,0.0,0.0
1.0399999999999996,0.24414480000000002,-10.0846128,-1.7349216,0.0768096,0.0,0.0,0.0,0.0
1.0599999999999996,0.5498592,-10.0846128,-1.6264128000000002,0.23012400000000002,0.0,0.0,0.0,0.0
1.0799999999999996,0.356616,-10.0846128,-1.7349216,0.0,0.0,0.0,0.0,0.0
1.0999999999999996,0.3221736,-10.0303584,-1.789176,-0.30662880000000003,0.0,0.0,0.0,0.0
1.1199999999999997,0.1831848,-9.976104,-1.8434304000000001,-0.23012400000000002,0.0,0.0,0.0,0.0
1.1399999999999997,0.153924,-10.0846128,-1.7349216,0.15331440000000002,0.0,0.0,0.0,0.0
1.1599999999999997,0.3060192,-10.0303584,-1.6806672000000002,-0.0768096,0.0,0.0,0.0,0.0
1.1799999999999997,0.2602992,-10.138867200000002,-1.789176,-0.3834384,0.0,0.0,0.0,0.0
1.1999999999999997,-0.01676399999999998,-10.0303584,-1.789176,0.0,0.0,0.0,0.0,0.0
1.2199999999999998,-0.0018288000000000017,-10.0846128,-1.7349216,-0.0768096,0.0,0.0,0.0,0.0
1.2399999999999998,0.09326880000000003,-9.9218496,-1.789176,-0.0768096,0.0,0.0,0.0,0.0
1.2599999999999998,0.0719328,-9.976104,-1.8434304000000001,-0.15331440000000002,0.0,0.0,0.0,0.0
1.2799999999999998,0.05730240000000002,-10.0303584,-1.789176,-0.0768096,0.0,0.0,0.0,0.0
1.2999999999999998,0.06553200000000002,-10.138867200000002,-1.6806672000000002,0.23012400000000002,0.0,0.0,0.0,0.0
1.3199999999999998,0.05242560000000002,-9.867595200000002,-1.7349216,0.0,0.0,0.0,0.0,0.0
1.3399999999999999,-0.08747759999999997,-10.0303584,-1.789176,-0.23012400000000002,0.0,0.0,0.0,0.0
1.3599999999999994,0.05516880000000002,-9.976104,-1.7349216,0.15331440000000002,0.0,0.0,0.0,0.0
1.3799999999999994,0.1886712,-10.0303584,-1.6806672000000002,0.23012400000000002,0.0,0.0,0.0,0.0
1.3999999999999995,0.11064240000000002,-10.0303584,-1.8976848000000002,-0.0768096,0.0,0.0,0.0,0.0
1.4199999999999995,0.28315920000000006,-10.0303584,-1.8976848000000002,-0.15331440000000002,0.0,0.0,0.0,0.0
1.4399999999999995,0.25054560000000003,-10.0303584,-1.789176,0.0,0.0,0.0,0.0,0.0
1.4599999999999995,0.3471672,-10.0303584,-1.789176,0.0,0.0,0.0,0.0,0.0
1.4799999999999995,0.4056888,-10.0846128,-1.8434304000000001,0.0,0.0,0.0,0.0,0.0
1.4999999999999996,0.24902160000000004,-10.0303584,-1.789176,-0.23012400000000002,0.0,0.0,0.0,0.0
1.5199999999999996,0.12039600000000002,-9.976104,-1.7349216,-0.0768096,0.0,0.0,0.0,0.0
1.5399999999999996,0.15605760000000002,-10.0303584,-1.6806672000000002,0.0,0.0,0.0,0.0,0.0
1.5599999999999996,0.2679192,-10.0846128,-1.7349216,-0.0768096,0.0,0.0,0.0,0.0
1.5799999999999996,0.303276,-10.0303584,-1.789176,-0.15331440000000002,0.0,0.0,0.0,0.0
1.5999999999999996,0.3133344,-10.0846128,-1.7349216,-0.15331440000000002,0.0,0.0,0.0,0.0
1.6199999999999997,0.25085040000000003,-10.0846128,-1.7349216,0.0768096,0.0,0.0,0.0,0.0
1.6399999999999997,0.362712,-10.0846128,-1.7349216,0.0,0.0,0.0,0.0,0.0
1.6599999999999997,0.3163824,-10.0303584,-2.0061936,-0.23012400000000002,0.0,0.0,0.0,0.0
1.6799999999999997,0.5096256000000001,-10.138867200000002,-1.789176,-0.0768096,0.0,0.0,0.0,0.0
1.6999999999999997,0.5437632,-10.0846128,-1.7349216,0.0,0.0,0.0,0.0,0.0
1.7199999999999998,0.48463200000000006,-9.976104,-1.7349216,-0.0768096,0.0,0.0,0.0,0.0
1.7399999999999998,0.28133040000000004,-10.138867200000002,-1.789176,-0.0768096,0.0,0.0,0.0,0.0
1.7599999999999998,0.38435280000000005,-10.138867200000002,-1.789176,-0.0768096,0.0,0.0,0.0,0.0
1.7799999999999998,0.3465576,-9.976104,-1.7349216,-0.0768096,0.0,0.0,0.0,0.0
1.7999999999999998,0.400812,-9.976104,-1.7349216,0.23012400000000002,0.0,0.0,0.0,0.0
1.8199999999999998,0.44592240000000005,-10.0303584,-1.6806672000000002,-0.15331440000000002,0.0,0.0,0.0,0.0
1.8399999999999999,0.3112008,-10.0846128,-1.7349216,-0.30662880000000003,0.0,0.0,0.0,0.0
1.8599999999999994,0.156972,-10.0303584,-1.789176,0.15331440000000002,0.0,0.0,0.0,0.0
1.8799999999999994,0.23682960000000003,-10.193121600000001,-1.6264128000000002,0.0,0.0,0.0,0.0,0.0
1.8999999999999995,0.153924,-10.0846128,-1.8434304000000001,-0.30662880000000003,0.0,0.0,0.0,0.0
1.9199999999999995,0.09144000000000002,-10.0846128,-1.8434304000000001,-0.23012400000000002,0.0,0.0,0.0,0.0
1.9399999999999995,0.06522720000000003,-9.976104,-1.8434304000000001,0.15331440000000002,0.0,0.0,0.0,0.0
1.9599999999999995,0.1831848,-10.0303584,-1.789176,0.30662880000000003,0.0,0.0,0.0,0.0
1.9799999999999995,0.344424,-10.0846128,-1.8434304000000001,-0.5367528,0.0,0.0,0.0,0.0
1.9999999999999996,0.4745736,-10.0846128,-1.9519392,-0.23012400000000002,0.0,0.0,0.0,0.0
2.0199999999999996,0.4919472,-9.976104,-1.6264128000000002,0.23012400000000002,0.0,0.0,0.0,0.0
2.0399999999999996,0.5492496,-10.0303584,-1.789176,0.0,0.0,0.0,0.0,0.0
2.0599999999999996,0.7397496,-9.976104,-1.8434304000000001,0.0,0.0,0.0,0.0,0.0
2.0799999999999996,0.7985760000000001,-10.0846128,-1.8434304000000001,-0.0768096,0.0,0.0,0.0,0.0
2.0999999999999996,0.6544056000000001,-10.0303584,-1.789176,0.0,0.0,0.0,0.0,0.0
2.1199999999999997,0.6309360000000002,-10.0303584,-1.789176,0.0768096,0.0,0.0,0.0,0.0
2.1399999999999997,0.5745480000000001,-9.976104,-1.7349216,0.0,0.0,0.0,0.0,0.0
2.1599999999999997,0.47365920000000006,-9.976104,-1.8434304000000001,-0.15331440000000002,0.0,0.0,0.0,0.0
2.1799999999999997,0.44409360000000003,-10.0303584,-1.6806672000000002,-0.23012400000000002,0.0,0.0,0.0,0.0
2.1999999999999997,0.5184648000000001,-10.0303584,-1.789176,0.15331440000000002,0.0,0.0,0.0,0.0
2.2199999999999998,0.5599176,-10.138867200000002,-1.6806672000000002,0.0768096,0.0,0.0,0.0,0.0
2.2399999999999998,0.4279392,-10.0303584,-1.8976848000000002,-0.6135624,0.0,0.0,0.0,0.0
2.26,0.438912,-10.0846128,-1.8434304000000001,-0.23012400000000002,0.0,0.0,0.0,0.0
2.28,0.3313176,-10.0303584,-1.5724632,0.3834384,0.0,0.0,0.0,0.0
2.3,0.23164800000000002,-10.0846128,-1.6264128000000002,0.0,0.0,0.0,0.0,0.0
2.32,0.1271016,-9.976104,-1.9519392,-0.6135624,0.0,0.0,0.0,0.0
2.34,-0.047853599999999975,-10.0303584,-1.789176,-0.23012400000000002,0.0,0.0,0.0,0.0
2.3599999999999994,0.0755904,-10.0846128,-1.6264128000000002,0.3834384,0.0,0.0,0.0,0.0
2.3799999999999994,0.1161288,-10.0846128,-1.7349216,0.15331440000000002,0.0,0.0,0.0,0.0
2.3999999999999995,0.11917680000000001,-9.976104,-1.8434304000000001,-0.4599432,0.0,0.0,0.0,0.0
2.4199999999999995,0.21183600000000002,-10.0303584,-1.6806672000000002,-0.6900672,0.0,0.0,0.0,0.0
2.4399999999999995,0.38801040000000003,-10.0303584,-1.5724632,0.3834384,0.0,0.0,0.0,0.0
2.4599999999999995,0.4136136,-10.0846128,-1.6264128000000002,0.23012400000000002,0.0,0.0,0.0,0.0
2.4799999999999995,0.5166360000000001,-10.193121600000001,-1.9519392,-0.15331440000000002,0.0,0.0,0.0,0.0
2.4999999999999996,0.6431280000000001,-10.0303584,-1.8976848000000002,-0.30662880000000003,0.0,0.0,0.0,0.0
2.5199999999999996,0.48463200000000006,-10.0303584,-1.5724632,0.23012400000000002,0.0,0.0,0.0,0.0
2.5399999999999996,0.4376928,-10.0846128,-1.7349216,0.15331440000000002,0.0,0.0,0.0,0.0
2.5599999999999996,0.5766816,-10.0303584,-1.8976848000000002,-0.30662880000000003,0.0,0.0,0.0,0.0
2.5799999999999996,0.4364736,-10.0303584,-1.789176,-0.15331440000000002,0.0,0.0,0.0,0.0
2.5999999999999996,0.38801040000000003,-10.0846128,-1.6264128000000002,0.23012400000000002,0.0,0.0,0.0,0.0
2.6199999999999997,0.31516320000000003,-9.976104,-1.8434304000000001,-0.15331440000000002,0.0,0.0,0.0,0.0
2.6399999999999997,0.374904,-10.138867200000002,-1.789176,0.0,0.0,0.0,0.0,0.0
2.6599999999999997,0.454152,-10.0846128,-1.7349216,-0.15331440000000002,0.0,0.0,0.0,0.0
2.6799999999999997,0.40020240000000007,-10.0846128,-1.7349216,-0.0768096,0.0,0.0,0.0,0.0
2.6999999999999997,0.4934712,-10.0303584,-1.789176,0.0768096,0.0,0.0,0.0,0.0
2.7199999999999998,0.38221920000000004,-10.0846128,-1.9519392,-0.3834384,0.0,0.0,0.0,0.0
2.7399999999999993,0.2615184,-10.0846128,-1.7349216,-0.15331440000000002,0.0,0.0,0.0,0.0
2.76,0.29565600000000003,-10.0846128,-1.6264128000000002,0.15331440000000002,0.0,0.0,0.0,0.0
2.7799999999999994,0.32857440000000004,-10.0846128,-1.8434304000000001,0.0,0.0,0.0,0.0,0.0
2.8,0.0673608,-10.0303584,-1.789176,-0.15331440000000002,0.0,0.0,0.0,0.0
2.8199999999999994,0.0999744,-10.0303584,-1.789176,-0.3834384,0.0,0.0,0.0,0.0
2.84,0.219456,-10.0846128,-1.6264128000000002,0.15331440000000002,0.0,0.0,0.0,0.0
2.8599999999999994,0.31912560000000006,-10.0846128,-1.8434304000000001,0.23012400000000002,0.0,0.0,0.0,0.0
2.88,0.3983736,-9.976104,-1.8434304000000001,-0.3834384,0.0,0.0,0.0,0.0
2.8999999999999995,0.519684,-9.976104,-1.7349216,-0.15331440000000002,0.0,0.0,0.0,0.0
2.92,0.0740664,-9.976104,-1.7349216,-0.15331440000000002,0.0,0.0,0.0,0.0
2.9399999999999995,0.003048000000000003,-10.0303584,-1.789176,0.15331440000000002,0.0,0.0,0.0,0.0
2.96,0.0408432,-9.976104,-1.8434304000000001,0.0,0.0,0.0,0.0,0.0
2.9799999999999995,-0.008229600000000007,-10.0846128,-1.7349216,-0.4599432,0.0,0.0,0.0,0.0
2.9999999999999996,0.0381,-9.9218496,-1.6806672000000002,0.15331440000000002,0.0,0.0,0.0,0.0
3.0199999999999996,0.08382,-9.976104,-1.7349216,0.30662880000000003,0.0,0.0,0.0,0.0
3.0399999999999996,-0.06187439999999999,-10.0846128,-1.8434304000000001,-0.30662880000000003,0.0,0.0,0.0,0.0
3.0599999999999996,0.01036320000000001,-9.976104,-1.8434304000000001,-0.23012400000000002,0.0,0.0,0.0,0.0
3.0799999999999996,0.024079200000000023,-10.0303584,-1.789176,0.15331440000000002,0.0,0.0,0.0,0.0
3.0999999999999996,0.263652,-10.0846128,-1.8434304000000001,0.0768096,0.0,0.0,0.0,0.0
3.1199999999999997,0.19781520000000002,-10.0846128,-1.9519392,-0.23012400000000002,0.0,0.0,0.0,0.0
3.1399999999999997,0.27249120000000004,-10.0303584,-1.789176,-0.23012400000000002,0.0,0.0,0.0,0.0
3.1599999999999997,0.11033760000000002,-10.0846128,-1.7349216,0.15331440000000002,0.0,0.0,0.0,0.0
3.1799999999999997,0.17800320000000003,-10.0846128,-1.7349216,0.0,0.0,0.0,0.0,0.0
3.1999999999999997,0.2176272,-10.138867200000002,-1.789176,-0.23012400000000002,0.0,0.0,0.0,0.0
3.2199999999999998,0.062484000000000026,-10.0303584,-1.789176,0.0,0.0,0.0,0.0,0.0
3.2399999999999993,0.2877312,-10.0303584,-1.6806672000000002,0.15331440000000002,0.0,0.0,0.0,0.0
3.26,0.39624000000000004,-10.193121600000001,-1.8434304000000001,-0.0768096,0.0,0.0,0.0,0.0
3.2799999999999994,0.17739360000000004,-10.138867200000002,-1.8976848000000002,-0.23012400000000002,0.0,0.0,0.0,0.0
3.3,0.26974800000000004,-10.0303584,-1.6806672000000002,0.0,0.0,0.0,0.0,0.0
3.3199999999999994,0.12131040000000001,-10.0846128,-1.7349216,0.0,0.0,0.0,0.0,0.0
3.34,0.25511760000000006,-10.0303584,-1.789176,-0.15331440000000002,0.0,0.0,0.0,0.0
3.3599999999999994,0.1941576,-9.976104,-1.7349216,0.0,0.0,0.0,0.0,0.0
3.38,0.1438656,-10.0303584,-1.6806672000000002,-0.0768096,0.0,0.0,0.0,0.0
3.3999999999999995,0.28712160000000003,-10.0303584,-1.6806672000000002,-0.15331440000000002,0.0,0.0,0.0,0.0
3.42,0.16672560000000003,-9.976104,-1.8434304000000001,-0.23012400000000002,0.0,0.0,0.0,0.0
3.4399999999999995,0.05913120000000002,-9.976104,-1.8434304000000001,0.15331440000000002,0.0,0.0,0.0,0.0
3.46,0.08900160000000001,-10.138867200000002,-1.5724632,0.0768096,0.0,0.0,0.0,0.0
3.4799999999999995,0.16581120000000002,-10.0846128,-1.8434304000000001,-0.15331440000000002,0.0,0.0,0.0,0.0
3.4999999999999996,0.21122640000000004,-9.976104,-1.8434304000000001,-0.23012400000000002,0.0,0.0,0.0,0.0
3.5199999999999996,0.32857440000000004,-9.976104,-1.7349216,0.15331440000000002,0.0,0.0,0.0,0.0
3.5399999999999996,0.35356800000000005,-10.0303584,-1.6806672000000002,0.0,0.0,0.0,0.0,0.0
3.5599999999999996,0.23804880000000003,-10.0303584,-1.789176,-0.15331440000000002,0.0,0.0,0.0,0.0
3.5799999999999996,0.1450848,-10.0303584,-1.789176,-0.0768096,0.0,0.0,0.0,0.0
3.5999999999999996,0.10850880000000002,-10.0303584,-1.6806672000000002,0.0768096,0.0,0.0,0.0,0.0
3.6199999999999997,0.21244560000000004,-10.138867200000002,-1.6806672000000002,-0.0768096,0.0,0.0,0.0,0.0
3.6399999999999997,0.061874400000000024,-10.0303584,-1.8976848000000002,-0.15331440000000002,0.0,0.0,0.0,0.0
3.6599999999999997,0.21275040000000003,-9.976104,-1.7349216,0.0768096,0.0,0.0,0.0,0.0
3.6799999999999997,0.27858720000000003,-10.0846128,-1.8434304000000001,0.0,0.0,0.0,0.0,0.0
3.6999999999999997,0.16581120000000002,-10.0303584,-1.6806672000000002,-0.23012400000000002,0.0,0.0,0.0,0.0
3.7199999999999998,0.04236720000000001,-10.138867200000002,-1.789176,-0.15331440000000002,0.0,0.0,0.0,0.0
3.7399999999999998,0.014935200000000015,-9.976104,-1.7349216,0.0768096,0.0,0.0,0.0,0.0
3.76,0.06278880000000002,-10.0846128,-1.7349216,0.0768096,0.0,0.0,0.0,0.0
3.78,0.0359664,-10.0303584,-1.789176,-0.30662880000000003,0.0,0.0,0.0,0.0
3.8,0.16916400000000004,-10.193121600000001,-1.7349216,0.0,0.0,0.0,0.0,0.0
3.8199999999999994,-0.007924800000000008,-10.0846128,-1.6264128000000002,0.15331440000000002,0.0,0.0,0.0,0.0
3.84,0.039624000000000006,-10.0846128,-1.7349216,0.0,0.0,0.0,0.0,0.0
3.8599999999999994,-0.009753599999999975,-10.0846128,-1.7349216,-0.23012400000000002,0.0,0.0,0.0,0.0
3.88,0.12344400000000001,-10.0846128,-1.8434304000000001,0.0,0.0,0.0,0.0,0.0
3.8999999999999995,0.18105120000000002,-10.0846128,-1.7349216,0.15331440000000002,0.0,0.0,0.0,0.0
3.9199999999999995,0.4230624,-10.0846128,-1.7349216,-0.30662880000000003,0.0,0.0,0.0,0.0
3.9399999999999995,0.2670048,-10.0303584,-1.8976848000000002,-0.30662880000000003,0.0,0.0,0.0,0.0
3.9599999999999995,0.1149096,-9.976104,-1.7349216,0.0768096,0.0,0.0,0.0,0.0
3.9799999999999995,-0.021031199999999986,-9.976104,-1.7349216,0.23012400000000002,0.0,0.0,0.0,0.0
3.9999999999999996,-0.10850879999999996,-10.0303584,-1.789176,-0.15331440000000002,0.0,0.0,0.0,0.0
4.02,-0.12649200000000002,-9.976104,-1.8434304000000001,-0.4599432,0.0,0.0,0.0,0.0
4.039999999999999,0.05120640000000001,-10.0303584,-1.789176,0.0,0.0,0.0,0.0,0.0
4.06,0.05760720000000002,-10.0303584,-1.5724632,0.30662880000000003,0.0,0.0,0.0,0.0
4.08,-0.07406639999999996,-10.0303584,-1.789176,0.0,0.0,0.0,0.0,0.0
4.1,0.012801600000000012,-10.138867200000002,-2.0061936,-0.3834384,0.0,0.0,0.0,0.0
4.119999999999999,-0.08595360000000002,-10.0846128,-1.6264128000000002,0.0,0.0,0.0,0.0,0.0
4.14,-0.04206240000000001,-10.0846128,-1.7349216,0.15331440000000002,0.0,0.0,0.0,0.0
4.159999999999999,0.1776984,-10.138867200000002,-1.6806672000000002,-0.0768096,0.0,0.0,0.0,0.0
4.18,0.47030640000000007,-10.0846128,-2.0601432,-0.4599432,0.0,0.0,0.0,0.0
4.199999999999999,0.44409360000000003,-10.0303584,-1.6806672000000002,0.0,0.0,0.0,0.0,0.0
4.22,0.36423600000000006,-10.138867200000002,-1.6806672000000002,0.15331440000000002,0.0,0.0,0.0,0.0
4.239999999999999,0.40965120000000005,-9.976104,-1.8434304000000001,0.0,0.0,0.0,0.0,0.0
4.26,0.40355520000000006,-10.138867200000002,-1.789176,-0.23012400000000002,0.0,0.0,0.0,0.0
4.279999999999999,0.42397680000000004,-10.0303584,-1.789176,-0.30662880000000003,0.0,0.0,0.0,0.0
4.3,0.4218432,-10.0846128,-1.6264128000000002,0.0768096,0.0,0.0,0.0,0.0
4.319999999999999,0.414528,-10.138867200000002,-1.5724632,0.0,0.0,0.0,0.0,0.0
4.34,0.2212848,-10.0303584,-1.789176,-0.23012400000000002,0.0,0.0,0.0,0.0
4.359999999999999,-0.05394959999999998,-10.0846128,-1.8434304000000001,-0.15331440000000002,0.0,0.0,0.0,0.0
4.38,-0.04907279999999998,-10.0303584,-1.789176,0.0,0.0,0.0,0.0,0.0
4.3999999999999995,0.028651200000000026,-10.0846128,-1.7349216,0.15331440000000002,0.0,0.0,0.0,0.0
4.42,0.010058400000000009,-10.0846128,-1.7349216,-0.0768096,0.0,0.0,0.0,0.0
4.4399999999999995,0.08442960000000001,-10.0303584,-1.789176,-0.30662880000000003,0.0,0.0,0.0,0.0
4.46,0.21305520000000003,-10.0303584,-1.789176,0.0,0.0,0.0,0.0,0.0
4.4799999999999995,0.2874264,-9.976104,-1.6264128000000002,0.23012400000000002,0.0,0.0,0.0,0.0
4.5,0.043586400000000004,-9.976104,-1.8434304000000001,0.0,0.0,0.0,0.0,0.0
4.52,-0.0018288000000000017,-10.0303584,-1.6806672000000002,-0.30662880000000003,0.0,0.0,0.0,0.0
4.54,0.08503920000000001,-10.0303584,-1.6806672000000002,-0.15331440000000002,0.0,0.0,0.0,0.0
4.56,0.1216152,-10.0846128,-1.7349216,0.30662880000000003,0.0,0.0,0.0,0.0
4.58,0.039319200000000006,-9.976104,-1.7349216,0.0,0.0,0.0,0.0,0.0
4.6,0.18958560000000002,-9.976104,-1.8434304000000001,-0.4599432,0.0,0.0,0.0,0.0
4.619999999999999,0.25908000000000003,-10.0303584,-1.789176,-0.0768096,0.0,0.0,0.0,0.0
4.64,0.37978080000000003,-10.0846128,-1.7349216,0.15331440000000002,0.0,0.0,0.0,0.0
4.659999999999999,0.38709600000000005,-10.0846128,-1.6264128000000002,0.15331440000000002,0.0,0.0,0.0,0.0
4.68,0.4514088,-20.277734400000003,-3.4698432,2.1470112,0.0,0.0,0.0,0.0
4.699999999999999,0.5352288000000001,-112.6656624,-13.988186400000002,17.942356800000002,0.0,0.0,0.0,0.0
4.72,1.0969752000000002,-176.209452,-2.0601432,0.996696,0.0,0.0,0.0,0.0
4.739999999999999,1.7276064000000002,-151.2149376,-16.753332,-0.3834384,0.0,0.0,0.0,0.0
4.76,2.319528,-161.29955040000002,-16.2113976,-0.3834384,0.0,0.0,0.0,0.0
4.779999999999999,2.9519880000000005,-169.8117,5.096560800000001,-2.683764,0.0,0.0,0.0,0.0
4.8,3.3668208,-165.962076,3.4158936000000004,17.17548,0.0,0.0,0.0,0.0
4.819999999999999,4.0087296,-171.92609760000002,-7.970215200000001,27.449983200000002,0.0,0.0,0.0,0.0
4.84,4.5695616,-184.9386192,-24.9945144,-3.9870888,0.0,0.0,0.0,0.0
4.859999999999999,5.2078128,-177.56489760000002,-18.163032,11.4248184,0.0,0.0,0.0,0.0
4.88,5.852769600000001,-198.16785360000003,0.16276320000000002,5.4440328000000004,0.0,0.0,0.0,0.0
4.8999999999999995,6.2221872000000005,-188.67973440000003,0.1085088,-0.996696,0.0,0.0,0.0,0.0
4.92,6.7888104,-192.14957760000001,-0.9759696,3.8337744,0.0,0.0,0.0,0.0
4.9399999999999995,7.240219200000001,-190.8483864,-10.952073600000002,6.594043200000001,0.0,0.0,0.0,0.0
4.96,7.7437488,-190.95689520000002,-16.482364800000003,11.3480088,0.0,0.0,0.0,0.0
4.9799999999999995,8.605418400000001,-191.60733840000003,-14.096695200000001,9.891369599999999,0.0,0.0,0.0,0.0
5.0,9.6770952,-202.61366640000003,-9.9218496,7.6675488,0.0,0.0,0.0,0.0
5.02,10.868558400000001,-188.84219280000002,-2.7651456,10.811256,0.0,0.0,0.0,0.0
5.04,12.316968,-198.38487120000002,-1.030224,4.6006512,0.0,0.0,0.0,0.0
5.06,13.813231200000002,-201.63800160000002,1.3554456000000001,3.6036504000000003,0.0,0.0,0.0,0.0
5.08,15.2290272,-192.85458000000003,-6.2349888,8.2043016,0.0,0.0,0.0,0.0
5.1,16.13916,-191.82435600000002,-12.795504,4.370527200000001,0.0,0.0,0.0,0.0
5.119999999999999,16.950232800000002,-190.90264080000003,-11.1148368,9.737750400000001,0.0,0.0,0.0,0.0
5.14,17.765268,-186.07735200000002,-10.735360799999999,10.121188800000002,0.0,0.0,0.0,0.0
5.16,18.504103200000003,-189.65570400000001,-2.9279088,10.657941600000001,0.0,0.0,0.0,0.0
5.18,19.5206112,-189.0592104,-10.355580000000002,3.6036504000000003,0.0,0.0,0.0,0.0
5.199999999999999,20.757794399999998,-186.7277952,-11.1690912,1.3801344,0.0,0.0,0.0,0.0
5.22,21.9977208,-181.4145216,-7.156704,6.0572904,0.0,0.0,0.0,0.0
5.239999999999999,23.2187496,-178.32384960000002,-10.0303584,6.8241672,0.0,0.0,0.0,0.0
5.26,24.6363744,-185.42660400000003,-14.855952000000002,5.750661600000001,0.0,0.0,0.0,0.0
5.279999999999999,26.071068,-190.90264080000003,-14.259458400000002,1.6102584000000002,0.0,0.0,0.0,0.0
5.3,27.4109688,-185.91458880000002,-8.295436800000001,6.5175384,0.0,0.0,0.0,0.0
5.319999999999999,29.0343336,-181.08899520000003,-7.5904344,6.1341,0.0,0.0,0.0,0.0
5.34,30.6327048,-182.2819824,-14.964156000000001,1.1500104,0.0,0.0,0.0,0.0
5.359999999999999,32.444435999999996,-180.9807912,-9.7593912,3.68046,0.0,0.0,0.0,0.0
5.38,34.3003632,-176.69743680000002,-5.6930544,8.8943688,0.0,0.0,0.0,0.0
5.3999999999999995,36.2611416,-174.1493088,-11.277295200000001,0.30662880000000003,0.0,0.0,0.0,0.0
5.42,38.3481072,-174.3660216,-5.205069600000001,6.0572904,0.0,0.0,0.0,0.0
5.4399999999999995,40.6472136,-171.1128912,-9.4338648,4.2937176,0.0,0.0,0.0,0.0
5.46,42.729912,-182.44444080000002,-15.1269192,2.3003256,0.0,0.0,0.0,0.0
5.4799999999999995,44.79554160000001,-164.9864112,-12.416028,-1.5334488,0.0,0.0,0.0,0.0
5.5,46.9699848,-168.4562544,-5.1508152,5.4440328000000004,0.0,0.0,0.0,0.0
5.52,49.259642400000004,-156.9076872,-16.9160952,6.747662400000001,0.0,0.0,0.0,0.0
5.539999999999999,51.804112800000006,-162.4922328,-7.753197600000001,2.4536400000000005,0.0,0.0,0.0,0.0
5.56,53.94502800000001,-153.81732,-23.151084,5.2139088000000005,0.0,0.0,0.0,0.0
5.58,56.30235120000001,-149.1544896,-12.7412496,1.4569440000000002,0.0,0.0,0.0,0.0
5.6,58.76056320000001,-146.1726312,-10.5183432,2.5304496,0.0,0.0,0.0,0.0
5.619999999999999,61.2267,-141.1303248,-8.295436800000001,4.677156,0.0,0.0,0.0,0.0
5.64,63.64925040000001,-137.38920960000002,-18.000573600000003,2.223516,0.0,0.0,0.0,0.0
5.66,65.91452400000001,-139.88308320000002,-8.4582,7.744358400000001,0.0,0.0,0.0,0.0
5.68,68.30568000000001,-130.7201856,-5.0423064,-0.6900672,0.0,0.0,0.0,0.0
5.699999999999999,70.625208,-127.6298184,-6.397752,1.7635728,0.0,0.0,0.0,0.0
5.72,73.34524320000001,-133.2686184,-13.012521600000001,3.2205168000000004,0.0,0.0,0.0,0.0
5.739999999999999,76.1384304,-123.61773600000001,-16.6993824,8.5109304,0.0,0.0,0.0,0.0
5.76,79.23245519999999,-127.41310560000001,-5.5302912,-0.4599432,0.0,0.0,0.0,0.0
5.779999999999999,82.01406,-144.65442240000002,-5.205069600000001,-6.4407288000000005,0.0,0.0,0.0,0.0
5.8,84.9252048,-130.8829488,-8.3496912,1.0735056,0.0,0.0,0.0,0.0
5.819999999999999,87.9476016,-68.15236560000001,-4.8252888,-0.23012400000000002,0.0,0.0,0.0,0.0
5.84,90.6691608,-4.8252888,-4.5000672,-0.4599432,0.0,0.0,0.0,0.0
5.859999999999999,93.13529759999999,19.6812408,0.2709672,-5.750661600000001,0.0,0.0,0.0,0.0
5.88,95.60722559999999,34.6453968,3.8496240000000004,-1.5334488,0.0,0.0,0.0,0.0
5.8999999999999995,98.5430592,45.9772512,4.3376088,-0.8433816000000001,0.0,0.0,0.0,0.0
5.92,101.3380752,58.339024800000004,9.4338648,2.1470112,0.0,0.0,0.0,0.0
5.9399999999999995,104.4253944,42.615612,6.1807343999999995,0.0,0.0,0.0,0.0,0.0
5.96,107.56849199999999,43.0493424,5.3132736,0.6135624,0.0,0.0,0.0,0.0
5.9799999999999995,110.6978736,43.5373272,4.5000672,-0.15331440000000002,0.0,0.0,0.0,0.0
6.0,113.7882408,41.85666,6.506260800000001,0.8433816000000001,0.0,0.0,0.0,0.0
6.02,117.0319224,44.29627920000001,4.608576,0.15331440000000002,0.0,0.0,0.0,0.0
6.039999999999999,120.20245200000001,41.0974032,3.4698432,-0.23012400000000002,0.0,0.0,0.0,0.0
6.06,123.30531599999999,40.44696,4.120591200000001,-0.15331440000000002,0.0,0.0,0.0,0.0
6.08,126.4715784,41.531133600000004,3.9035736000000005,-2.683764,0.0,0.0,0.0,0.0
6.1,129.5320752,39.9047208,4.6628304,2.5304496,0.0,0.0,0.0,0.0
6.119999999999999,132.5383176,42.995088,3.3073848000000003,-2.7602688,0.0,0.0,0.0,0.0
6.14,135.4863432,44.29627920000001,2.7651456,-0.8433816000000001,0.0,0.0,0.0,0.0
6.16,138.6568728,41.1516576,5.259324,-1.0735056,0.0,0.0,0.0,0.0
6.18,141.482064,43.1578512,4.2291,2.9135831999999997,0.0,0.0,0.0,0.0
6.199999999999999,144.510252,40.501214399999995,4.933797600000001,-4.1404032,0.0,0.0,0.0,0.0
6.22,147.4140816,39.7419576,5.0423064,1.3801344,0.0,0.0,0.0,0.0
6.239999999999999,150.3392472,38.332257600000005,2.8736544000000004,-2.1470112,0.0,0.0,0.0,0.0
6.26,153.2180832,38.386512,2.4941784,-0.8433816000000001,0.0,0.0,0.0,0.0
6.279999999999999,156.16885200000002,39.57949920000001,4.445812800000001,0.23012400000000002,0.0,0.0,0.0,0.0
6.3,159.0482976,38.061290400000004,5.964021600000001,0.0,0.0,0.0,0.0,0.0
6.319999999999999,161.83386480000001,36.976812,6.1807343999999995,0.0,0.0,0.0,0.0,0.0
6.34,164.52281040000003,34.6453968,1.789176,0.3834384,0.0,0.0,0.0,0.0
6.359999999999999,167.17030320000003,35.458908,3.4698432,2.0702016,0.0,0.0,0.0,0.0
6.38,169.6839888,35.187636,0.16276320000000002,0.30662880000000003,0.0,0.0,0.0,0.0
6.3999999999999995,172.2936864,35.187636,5.1508152,-1.6867632000000001,0.0,0.0,0.0,0.0
6.42,174.9295968,30.6875688,5.8555128,0.8433816000000001,0.0,0.0,0.0,0.0
6.4399999999999995,177.70327680000003,33.9949536,5.367528,1.3801344,0.0,0.0,0.0,0.0
6.46,180.4242264,33.777936,2.4399240000000004,2.0702016,0.0,0.0,0.0,0.0
6.4799999999999995,182.913528,35.8926384,-3.0361128,-4.677156,0.0,0.0,0.0,0.0
6.5,185.39368560000003,30.633314400000003,4.8252888,-2.5304496,0.0,0.0,0.0,0.0
6.52,187.77783120000004,31.825996800000002,-0.7046976,-1.6867632000000001,0.0,0.0,0.0,0.0
6.539999999999999,190.4369064,33.777936,1.6806672000000002,-4.2172128,0.0,0.0,0.0,0.0
6.56,193.12646160000003,33.2356968,2.2229064000000003,1.2268200000000002,0.0,0.0,0.0,0.0
6.58,195.684648,29.223614400000002,1.6806672000000002,-1.3036296,0.0,0.0,0.0,0.0
6.6,198.22759440000004,31.988760000000003,-0.4337304,-3.2205168000000004,0.0,0.0,0.0,0.0
6.619999999999999,200.76414000000003,30.796077600000004,7.3737216000000005,3.3738312000000006,0.0,0.0,0.0,0.0
6.64,203.22296160000002,28.3561536,4.933797600000001,5.6741568000000004,0.0,0.0,0.0,0.0
6.66,205.6503888,28.8441384,6.9399912,0.9201912000000001,0.0,0.0,0.0,0.0
6.68,208.08391200000003,25.8080256,1.7349216,0.3834384,0.0,0.0,0.0,0.0
6.699999999999999,210.38789520000003,28.5731712,4.2833544,4.1404032,0.0,0.0,0.0,0.0
6.72,212.81989440000004,29.223614400000002,-2.6566368,1.2268200000000002,0.0,0.0,0.0,0.0
6.74,215.24945520000003,29.006901600000003,3.957828,1.0735056,0.0,0.0,0.0,0.0
6.76,217.7061432,28.410408,-4.8795432000000005,0.6900672,0.0,0.0,0.0,0.0
6.779999999999999,220.21281840000003,25.157277600000004,4.120591200000001,-6.4407288000000005,0.0,0.0,0.0,0.0
6.8,222.66402000000005,27.488692800000003,4.608576,4.2172128,0.0,0.0,0.0,0.0
6.82,225.25573440000002,24.5065296,-2.4941784,-2.4536400000000005,0.0,0.0,0.0,0.0
6.84,227.74381680000002,26.7836904,3.7953696000000003,5.060594400000001,0.0,0.0,0.0,0.0
6.859999999999999,230.18922720000003,25.86228,2.8736544000000004,-1.5334488,0.0,0.0,0.0,0.0
6.879999999999999,232.47004560000002,26.2960104,0.16276320000000002,0.3834384,0.0,0.0,0.0,0.0
6.8999999999999995,234.72160320000003,25.4824992,1.0844784,-5.9807856,0.0,0.0,0.0,0.0
6.92,237.05880960000005,24.7778016,4.0663368,1.1500104,0.0,0.0,0.0,0.0
6.9399999999999995,239.3253024,25.645262400000004,-0.8132064000000001,1.7635728,0.0,0.0,0.0,0.0
6.959999999999999,241.65610800000002,21.958401600000002,7.3194672,0.5367528,0.0,0.0,0.0,0.0
6.9799999999999995,244.0112976,24.6150384,5.096560800000001,6.2109096,0.0,0.0,0.0,0.0
7.0,246.19336080000002,23.6390688,4.7713392,2.0702016,0.0,0.0,0.0,0.0
7.02,248.3958456,25.753771200000003,2.548128,1.5334488,0.0,0.0,0.0,0.0
7.039999999999999,250.72665120000002,21.1451952,5.5302912,0.23012400000000002,0.0,0.0,0.0,0.0
7.06,252.87823440000003,24.072799200000002,2.3856696,-1.7635728,0.0,0.0,0.0,0.0
7.08,254.93715840000002,25.211532000000002,4.608576,-1.3801344,0.0,0.0,0.0,0.0
7.1,257.0792928,24.3983256,3.3616392,0.6135624,0.0,0.0,0.0,0.0
7.119999999999999,259.24306800000005,20.982432000000003,2.6566368,-0.4599432,0.0,0.0,0.0,0.0
7.14,261.40653840000004,23.0971344,2.1686520000000002,1.8400776,0.0,0.0,0.0,0.0
7.16,263.49838080000006,21.3076536,0.7046976,0.3834384,0.0,0.0,0.0,0.0
7.18,265.5298728,20.1149712,3.198876,1.7635728,0.0,0.0,0.0,0.0
7.199999999999999,267.6348216,19.247510400000003,6.4520064,3.1437072,0.0,0.0,0.0,0.0
7.22,269.72300640000003,22.1211648,1.5182088,3.0672024,0.0,0.0,0.0,0.0
7.24,271.8812952,24.1270536,2.548128,3.7572696000000003,0.0,0.0,0.0,0.0
7.26,274.07737920000005,19.789749600000004,3.8496240000000004,2.0702016,0.0,0.0,0.0,0.0
7.279999999999999,276.10826160000005,20.1692256,3.2531304000000003,2.3768304000000002,0.0,0.0,0.0,0.0
7.3,278.1476784,21.849892800000003,3.5240976,3.3738312000000006,0.0,0.0,0.0,0.0
7.32,280.23037680000004,21.253704000000003,2.0601432,-1.6102584000000002,0.0,0.0,0.0,0.0
7.34,282.38317920000003,18.81378,2.9818584,0.3834384,0.0,0.0,0.0,0.0
7.359999999999999,284.5457352,21.253704000000003,1.5182088,-0.7668768,0.0,0.0,0.0,0.0
7.379999999999999,286.66104720000004,19.193256,2.9279088,-0.9201912000000001,0.0,0.0,0.0,0.0
7.3999999999999995,288.82756560000007,18.5967624,3.6326064,1.9168872,0.0,0.0,0.0,0.0
7.42,290.9267232,17.9463192,4.8252888,-1.6867632000000001,0.0,0.0,0.0,0.0
7.4399999999999995,292.9883904,20.1692256,4.554321600000001,1.9936968000000002,0.0,0.0,0.0,0.0
7.459999999999999,294.9622752,21.5246712,2.8736544000000004,0.9201912000000001,0.0,0.0,0.0,0.0
7.4799999999999995,296.84929200000005,18.217286400000003,3.0361128,0.4599432,0.0,0.0,0.0,0.0
7.5,298.6131696,17.6750472,-0.7589520000000001,3.5271456,0.0,0.0,0.0,0.0
7.52,300.5108544,19.789749600000004,2.2229064000000003,2.0702016,0.0,0.0,0.0,0.0
7.539999999999999,302.4399336,18.7595256,1.4097000000000002,-1.3801344,0.0,0.0,0.0,0.0
7.56,304.3601736,19.6812408,1.6806672000000002,-0.30662880000000003,0.0,0.0,0.0,0.0
7.58,306.3139416,16.482364800000003,2.0601432,-0.5367528,0.0,0.0,0.0,0.0
7.6,308.18114640000005,19.844004,1.7349216,-1.4569440000000002,0.0,0.0,0.0,0.0
7.619999999999999,310.01726160000004,16.319601600000002,2.1143976,-0.5367528,0.0,0.0,0.0,0.0
7.64,311.95152240000004,16.5366192,3.6326064,0.6900672,0.0,0.0,0.0,0.0
7.66,313.8345768,17.783556,-1.8434304000000001,1.3801344,0.0,0.0,0.0,0.0
7.68,315.71062079999996,18.3257952,2.2771608000000003,-0.9201912000000001,0.0,0.0,0.0,0.0
7.699999999999999,317.6860296,16.8618408,2.4399240000000004,-1.8400776,0.0,0.0,0.0,0.0
7.72,319.4697192,16.8618408,0.8132064000000001,-0.6135624,0.0,0.0,0.0,0.0
7.74,321.20586,18.1087776,2.2771608000000003,2.4536400000000005,0.0,0.0,0.0,0.0
7.76,322.96364159999996,15.181173600000001,5.205069600000001,4.2937176,0.0,0.0,0.0,0.0
7.779999999999999,324.7302624,15.8316168,3.0361128,0.6135624,0.0,0.0,0.0,0.0
7.8,326.576436,16.482364800000003,2.7108912000000003,-0.9201912000000001,0.0,0.0,0.0,0.0
7.82,328.37628,15.343632000000001,-0.16276320000000002,-1.2268200000000002,0.0,0.0,0.0,0.0
7.84,330.183744,17.837810400000002,1.030224,1.9168872,0.0,0.0,0.0,0.0
7.859999999999999,332.0433288,17.2413168,1.1926824,1.0735056,0.0,0.0,0.0,0.0
7.879999999999999,333.79318559999996,14.6389344,0.9759696,-0.7668768,0.0,0.0,0.0,0.0
7.8999999999999995,335.5247544,15.7234128,1.6264128000000002,-0.8433816000000001,0.0,0.0,0.0,0.0
7.92,337.4139048,14.747443200000001,2.9279088,1.9936968000000002,0.0,0.0,0.0,0.0
7.9399999999999995,339.22106399999996,16.590873600000002,2.8194000000000004,-0.6135624,0.0,0.0,0.0,0.0
7.959999999999999,340.98250319999994,13.8799824,3.1446216000000002,2.9903928,0.0,0.0,0.0,0.0
7.9799999999999995,342.7119384,14.313712800000001,2.9279088,1.7635728,0.0,0.0,0.0,0.0
8.0,344.35633440000004,14.205204,0.9759696,-0.4599432,0.0,0.0,0.0,0.0
8.02,345.9370272,14.58468,1.789176,-0.6900672,0.0,0.0,0.0,0.0
8.04,347.590872,14.1509496,3.198876,1.5334488,0.0,0.0,0.0,0.0
8.059999999999999,349.17400319999996,14.313712800000001,1.5182088,0.0,0.0,0.0,0.0,0.0
8.08,350.83760159999997,15.3978864,1.4097000000000002,-1.2268200000000002,0.0,0.0,0.0,0.0
8.1,352.4701104,11.928043200000001,1.7349216,-0.4599432,0.0,0.0,0.0,0.0
8.12,354.1145064,12.795504,1.4097000000000002,2.0702016,0.0,0.0,0.0,0.0
8.14,355.80949919999995,13.012521600000001,2.9279088,-0.15331440000000002,0.0,0.0,0.0,0.0
8.16,357.3210024,14.1509496,2.3314152,2.0702016,0.0,0.0,0.0,0.0
8.18,358.979724,13.012521600000001,1.8434304000000001,1.6102584000000002,0.0,0.0,0.0,0.0
8.2,360.5793144,14.964156000000001,3.4698432,0.7668768,0.0,0.0,0.0,0.0
8.219999999999999,362.17555200000004,14.8016976,2.0061936,0.9201912000000001,0.0,0.0,0.0,0.0
8.24,363.6587088,11.873788800000002,0.5964936000000001,-0.30662880000000003,0.0,0.0,0.0,0.0
8.26,365.2488504,12.795504,1.4097000000000002,-0.6900672,0.0,0.0,0.0,0.0
8.28,366.8460024,12.8497584,-0.5964936000000001,0.7668768,0.0,0.0,0.0,0.0
8.3,368.544348,13.283488800000002,2.548128,-0.30662880000000003,0.0,0.0,0.0,0.0
8.32,370.2335496,12.686995200000002,1.8434304000000001,-0.8433816000000001,0.0,0.0,0.0,0.0
8.34,371.7145728,12.416028,-0.16276320000000002,-0.5367528,0.0,0.0,0.0,0.0
8.36,373.2699672,12.144756000000001,2.7108912000000003,-0.3834384,0.0,0.0,0.0,0.0
8.379999999999999,374.7506856,10.0303584,1.2469368,-1.4569440000000002,0.0,0.0,0.0,0.0
8.399999999999999,376.4167224,10.5183432,2.9279088,3.7572696000000003,0.0,0.0,0.0,0.0
8.42,377.9175576,10.843564800000001,3.0361128,0.7668768,0.0,0.0,0.0,0.0
8.44,379.4921544,13.446252000000001,0.9759696,-0.6135624,0.0,0.0,0.0,0.0
8.459999999999999,380.945136,9.379915200000001,1.6806672000000002,0.0768096,0.0,0.0,0.0,0.0
8.48,382.4179296,9.976104,1.4097000000000002,1.0735056,0.0,0.0,0.0,0.0
8.5,384.0711648,11.4943128,1.7349216,-2.6069544000000002,0.0,0.0,0.0,0.0
8.52,385.7405544,10.4098344,2.2771608000000003,-0.3834384,0.0,0.0,0.0,0.0
8.54,387.2368176,9.813645600000001,1.030224,1.1500104,0.0,0.0,0.0,0.0
8.559999999999999,388.74771119999997,9.7593912,3.7953696000000003,-1.5334488,0.0,0.0,0.0,0.0
8.58,390.25738559999996,10.138867200000002,-0.2709672,0.3834384,0.0,0.0,0.0,0.0
8.6,391.6689144,11.1690912,1.6264128000000002,-0.7668768,0.0,0.0,0.0,0.0
8.62,393.07099439999996,10.789310400000002,0.5964936000000001,0.6900672,0.0,0.0,0.0,0.0
8.64,394.5587232,9.1628976,1.1387328,-0.7668768,0.0,0.0,0.0,0.0
8.66,395.913864,8.8919304,2.4941784,-1.5334488,0.0,0.0,0.0,0.0
8.68,397.35008159999995,10.626852000000001,-0.1085088,0.9201912000000001,0.0,0.0,0.0,0.0
8.7,398.67078,9.488119200000002,2.3314152,1.6867632000000001,0.0,0.0,0.0,0.0
8.719999999999999,400.0274448,9.867595200000002,1.4097000000000002,0.6900672,0.0,0.0,0.0,0.0
8.739999999999998,401.4679296,9.596628,0.37947600000000004,1.6867632000000001,0.0,0.0,0.0,0.0
8.76,402.8078304,8.729167200000001,2.6566368,1.7635728,0.0,0.0,0.0,0.0
8.78,404.03769839999995,8.6206584,1.6806672000000002,2.0702016,0.0,0.0,0.0,0.0
8.8,405.385524,7.915960800000001,1.4097000000000002,-0.7668768,0.0,0.0,0.0,0.0
8.82,406.7303016,10.4098344,1.3011912,-0.9201912000000001,0.0,0.0,0.0,0.0
8.84,408.08148,7.807452,2.3856696,2.0702016,0.0,0.0,0.0,0.0
8.86,409.38754800000004,7.427976000000001,1.4639544,-1.6102584000000002,0.0,0.0,0.0,0.0
8.879999999999999,410.7701208,8.7834216,0.0,-0.3834384,0.0,0.0,0.0,0.0
8.899999999999999,412.0944768,9.1628976,0.8132064000000001,-1.4569440000000002,0.0,0.0,0.0,0.0
8.92,413.4355968,9.217152,-0.3252216,-0.30662880000000003,0.0,0.0,0.0,0.0
8.94,414.7913472,7.5364848,1.789176,0.996696,0.0,0.0,0.0,0.0
8.96,416.0934528,10.0303584,2.4399240000000004,0.8433816000000001,0.0,0.0,0.0,0.0
8.98,417.44249759999997,8.3496912,1.5182088,-0.3834384,0.0,0.0,0.0,0.0
9.0,418.664136,7.6989432,1.3011912,0.4599432,0.0,0.0,0.0,0.0
9.02,419.9095488,8.4039456,0.16276320000000002,0.3834384,0.0,0.0,0.0,0.0
9.04,421.207692,8.186928,-0.8132064000000001,-1.1500104,0.0,0.0,0.0,0.0
9.059999999999999,422.4165288,10.735360799999999,-0.3252216,-2.0702016,0.0,0.0,0.0,0.0
9.08,423.6939456,8.6206584,0.7046976,-0.996696,0.0,0.0,0.0,0.0
9.1,425.07408,6.885736800000001,2.548128,1.0735056,0.0,0.0,0.0,0.0
9.12,426.3578976,7.048500000000001,1.0844784,1.0735056,0.0,0.0,0.0,0.0
9.14,427.53351119999996,7.753197600000001,1.5724632,1.0735056,0.0,0.0,0.0,0.0
9.16,428.768256,6.9942456,1.2469368,-0.4599432,0.0,0.0,0.0,0.0
9.18,430.0420152,7.8617064,0.8132064000000001,0.7668768,0.0,0.0,0.0,0.0
9.2,431.426112,7.5364848,1.2469368,0.0768096,0.0,0.0,0.0,0.0
9.219999999999999,432.7986264,7.427976000000001,0.7046976,-0.996696,0.0,0.0,0.0,0.0
9.239999999999998,434.0760432,6.5605152,1.2469368,-0.30662880000000003,0.0,0.0,0.0,0.0
9.26,435.2842704,7.807452,0.1085088,0.3834384,0.0,0.0,0.0,0.0
9.28,436.3986192,7.5904344,1.6264128000000002,0.8433816000000001,0.0,0.0,0.0,0.0
9.3,437.581548,7.3737216000000005,0.9759696,-1.3036296,0.0,0.0,0.0,0.0
9.32,438.7422264,7.427976000000001,1.5724632,0.4599432,0.0,0.0,0.0,0.0
9.34,439.8306672,7.2652128,-0.3252216,-0.8433816000000001,0.0,0.0,0.0,0.0
9.36,440.993784,6.2349888,2.0061936,0.3834384,0.0,0.0,0.0,0.0
9.379999999999999,442.14227040000003,8.1326736,0.650748,0.0768096,0.0,0.0,0.0,0.0
9.399999999999999,443.2749072,5.9097672,-0.0542544,-0.5367528,0.0,0.0,0.0,0.0
9.42,444.3697488,7.156704,0.7589520000000001,-0.4599432,0.0,0.0,0.0,0.0
9.44,445.5651744,6.397752,1.1926824,0.6135624,0.0,0.0,0.0,0.0
9.46,446.65940639999997,6.7229735999999995,-0.3252216,-0.9201912000000001,0.0,0.0,0.0,0.0
9.48,447.8115504,5.8555128,1.0844784,0.3834384,0.0,0.0,0.0,0.0
9.5,449.0182536,6.5605152,0.5964936000000001,0.3834384,0.0,0.0,0.0,0.0
9.52,450.14387999999997,7.048500000000001,0.8674608,1.0735056,0.0,0.0,0.0,0.0
9.54,451.17654239999996,6.0725304,0.650748,0.6900672,0.0,0.0,0.0,0.0
9.559999999999999,452.195184,5.5302912,1.1926824,0.0768096,0.0,0.0,0.0,0.0
9.58,453.3235536,6.885736800000001,1.030224,0.3834384,0.0,0.0,0.0,0.0
9.6,454.4226624,5.259324,0.7046976,0.23012400000000002,0.0,0.0,0.0,0.0
9.62,455.5123224,6.8314824000000005,0.650748,-0.15331440000000002,0.0,0.0,0.0,0.0
9.64,456.6318528,6.506260800000001,0.9759696,0.7668768,0.0,0.0,0.0,0.0
9.66,457.71876960000003,5.638800000000001,1.1926824,0.7668768,0.0,0.0,0.0,0.0
9.68,458.8608552,6.1807343999999995,0.8674608,0.23012400000000002,0.0,0.0,0.0,0.0
9.7,459.92735039999997,5.7470040000000004,0.7589520000000001,-0.5367528,0.0,0.0,0.0,0.0
9.719999999999999,461.05358640000003,5.8555128,0.1085088,0.23012400000000002,0.0,0.0,0.0,0.0
9.739999999999998,462.10545119999995,5.476036800000001,1.030224,-0.23012400000000002,0.0,0.0,0.0,0.0
9.76,463.17225119999995,5.367528,0.5964936000000001,-0.6900672,0.0,0.0,0.0,0.0
9.78,464.3122032,5.205069600000001,0.650748,0.0768096,0.0,0.0,0.0,0.0
9.8,465.389976,5.964021600000001,0.7589520000000001,1.0735056,0.0,0.0,0.0,0.0
9.82,466.40008320000004,4.988052,0.8674608,-0.30662880000000003,0.0,0.0,0.0,0.0
9.84,467.39281680000005,5.5302912,-0.1085088,-0.4599432,0.0,0.0,0.0,0.0
9.86,468.537036,5.801258400000001,-0.5964936000000001,-0.4599432,0.0,0.0,0.0,0.0
9.879999999999999,469.58524320000004,4.7170848,0.37947600000000004,-0.3834384,0.0,0.0,0.0,0.0
9.899999999999999,470.5255512,5.801258400000001,0.5964936000000001,0.0768096,0.0,0.0,0.0,0.0
9.92,471.5765016,5.0423064,0.37947600000000004,0.6135624,0.0,0.0,0.0,0.0
9.94,472.6201368,5.3132736,1.3011912,0.0768096,0.0,0.0,0.0,0.0
9.96,473.6460936,5.1508152,0.4879848,-1.0735056,0.0,0.0,0.0,0.0
9.98,474.64431360000003,5.259324,0.37947600000000004,-0.4599432,0.0,0.0,0.0,0.0
10.0,475.734888,4.2291,0.8674608,0.3834384,0.0,0.0,0.0,0.0
10.02,476.64898320000003,5.421782400000001,-0.1085088,-0.8433816000000001,0.0,0.0,0.0,0.0
10.04,477.56612640000003,4.7170848,0.4879848,-0.23012400000000002,0.0,0.0,0.0,0.0
10.059999999999999,478.6423752,4.988052,1.0844784,0.6900672,0.0,0.0,0.0,0.0
10.08,479.672904,5.367528,0.8132064000000001,0.0768096,0.0,0.0,0.0,0.0
10.1,480.62784239999996,5.096560800000001,0.4337304,0.0768096,0.0,0.0,0.0,0.0
10.12,481.65989520000005,3.957828,0.7046976,0.3834384,0.0,0.0,0.0,0.0
10.14,482.7419352,4.0663368,1.030224,0.6135624,0.0,0.0,0.0,0.0
10.16,483.70632240000003,4.2833544,0.37947600000000004,0.0768096,0.0,0.0,0.0,0.0
10.18,484.54238879999997,4.7713392,0.3252216,-0.6135624,0.0,0.0,0.0,0.0
10.2,485.4436824,4.7170848,0.5964936000000001,0.4599432,0.0,0.0,0.0,0.0
10.219999999999999,486.29315999999994,3.9035736000000005,1.1926824,0.3834384,0.0,0.0,0.0,0.0
10.239999999999998,487.1167296,4.3915584,1.030224,-0.15331440000000002,0.0,0.0,0.0,0.0
10.26,488.00461199999995,4.7713392,0.650748,0.4599432,0.0,0.0,0.0,0.0
10.28,488.80867440000003,3.7953696000000003,0.650748,0.4599432,0.0,0.0,0.0,0.0
10.3,489.6706488,3.6868608000000003,0.8674608,-0.8433816000000001,0.0,0.0,0.0,0.0
10.32,490.5045816,4.2291,0.2170176,-0.4599432,0.0,0.0,0.0,0.0
10.34,491.23640639999996,4.2833544,0.0542544,-0.4599432,0.0,0.0,0.0,0.0
10.36,492.0773496,4.2833544,-0.16276320000000002,-0.0768096,0.0,0.0,0.0,0.0
10.379999999999999,493.0115616,4.1748456,0.5964936000000001,0.4599432,0.0,0.0,0.0,0.0
10.399999999999999,493.8235488,4.554321600000001,-0.2170176,0.30662880000000003,0.0,0.0,0.0,0.0
10.42,494.67759839999997,3.7411152,0.7046976,0.5367528,0.0,0.0,0.0,0.0
10.44,495.51671280000005,3.8496240000000004,0.7046976,0.23012400000000002,0.0,0.0,0.0,0.0
10.46,496.392708,3.6868608000000003,0.8674608,0.0768096,0.0,0.0,0.0,0.0
10.48,497.2708368,3.5240976,-0.4879848,-1.1500104,0.0,0.0,0.0,0.0
10.5,498.1983432,3.3073848000000003,0.4879848,-0.4599432,0.0,0.0,0.0,0.0
10.52,499.0816536,3.578352,0.2170176,0.30662880000000003,0.0,0.0,0.0,0.0
10.54,499.8756576,3.6868608000000003,0.0,0.15331440000000002,0.0,0.0,0.0,0.0
10.559999999999999,500.6970936,3.198876,0.0542544,-0.4599432,0.0,0.0,0.0,0.0
10.58,501.5441328,3.5240976,0.16276320000000002,-0.0768096,0.0,0.0,0.0,0.0
10.6,502.5487536,2.7651456,1.030224,-0.3834384,0.0,0.0,0.0,0.0
10.62,503.386344,3.2531304000000003,0.9759696,0.9201912000000001,0.0,0.0,0.0,0.0
10.64,504.2525856,2.9279088,0.650748,0.4599432,0.0,0.0,0.0,0.0
10.66,505.100844,3.0361128,0.3252216,-0.30662880000000003,0.0,0.0,0.0,0.0
10.68,505.96464720000006,3.1446216000000002,0.4337304,0.0768096,0.0,0.0,0.0,0.0
10.7,506.693424,3.1446216000000002,0.4337304,-0.0768096,0.0,0.0,0.0,0.0
10.719999999999999,507.46212959999997,3.198876,0.0542544,-0.6900672,0.0,0.0,0.0,0.0
10.739999999999998,508.2427224,2.9279088,0.2170176,-0.6135624,0.0,0.0,0.0,0.0
10.76,509.049528,2.6023824,0.3252216,0.15331440000000002,0.0,0.0,0.0,0.0
10.78,509.8395696,3.0361128,1.0844784,-0.0768096,0.0,0.0,0.0,0.0
10.8,510.5890728,3.4698432,0.7589520000000001,0.0,0.0,0.0,0.0,0.0
10.82,511.40715600000004,2.9818584,0.4879848,-0.3834384,0.0,0.0,0.0,0.0
10.84,512.167632,2.6566368,0.8132064000000001,0.15331440000000002,0.0,0.0,0.0,0.0
10.86,512.7814992,2.6566368,0.8132064000000001,0.30662880000000003,0.0,0.0,0.0,0.0
10.879999999999999,513.7748424,2.3314152,0.5964936000000001,0.4599432,0.0,0.0,0.0,0.0
10.899999999999999,514.4496696,3.0903671999999998,0.2709672,-0.3834384,0.0,0.0,0.0,0.0
10.92,515.0964551999999,2.3314152,0.7046976,-0.5367528,0.0,0.0,0.0,0.0
10.94,515.7529943999999,2.7108912000000003,0.3252216,-1.2268200000000002,0.0,0.0,0.0,0.0
10.96,516.5588855999999,2.8194000000000004,0.2170176,-0.7668768,0.0,0.0,0.0,0.0
10.98,517.1791536,2.4399240000000004,0.8132064000000001,0.5367528,0.0,0.0,0.0,0.0
11.0,517.8058224,2.8194000000000004,0.7589520000000001,-0.5367528,0.0,0.0,0.0,0.0
11.02,518.528808,2.548128,0.2709672,-0.15331440000000002,0.0,0.0,0.0,0.0
11.04,519.368532,1.9519392,0.3252216,-0.3834384,0.0,0.0,0.0,0.0
11.059999999999999,520.1387616000001,2.548128,0.5964936000000001,-0.30662880000000003,0.0,0.0,0.0,0.0
11.08,520.8675384000001,2.3856696,0.8674608,-0.3834384,0.0,0.0,0.0,0.0
11.1,521.616432,2.3314152,0.37947600000000004,-0.0768096,0.0,0.0,0.0,0.0
11.12,522.3555719999999,2.7108912000000003,0.2170176,-0.3834384,0.0,0.0,0.0,0.0
11.14,522.9868128,2.0061936,-0.0542544,-0.30662880000000003,0.0,0.0,0.0,0.0
11.16,523.6360367999999,1.9519392,0.4337304,0.23012400000000002,0.0,0.0,0.0,0.0
11.18,524.2541712,2.3314152,0.0542544,-0.7668768,0.0,0.0,0.0,0.0
11.2,524.8948608000001,2.2229064000000003,0.16276320000000002,-0.5367528,0.0,0.0,0.0,0.0
11.219999999999999,525.6227232,2.2229064000000003,-0.0542544,-0.0768096,0.0,0.0,0.0,0.0
11.239999999999998,526.3886856,1.789176,0.5964936000000001,-0.3834384,0.0,0.0,0.0,0.0
11.26,527.108928,2.3314152,0.0542544,-0.3834384,0.0,0.0,0.0,0.0
11.28,527.8377048,2.0601432,0.4337304,0.0768096,0.0,0.0,0.0,0.0
11.3,528.5771496,1.9519392,0.4337304,0.0,0.0,0.0,0.0,0.0
11.32,529.1882736,2.0601432,0.3252216,-0.4599432,0.0,0.0,0.0,0.0
11.34,529.7862912,1.6806672000000002,0.4879848,-0.23012400000000002,0.0,0.0,0.0,0.0
11.36,530.4766632,2.0061936,0.37947600000000004,0.23012400000000002,0.0,0.0,0.0,0.0
11.379999999999999,531.0722423999999,2.0601432,0.3252216,-0.3834384,0.0,0.0,0.0,0.0
11.399999999999999,531.7004352,1.5182088,0.2170176,0.23012400000000002,0.0,0.0,0.0,0.0
11.42,532.3822728,1.8976848000000002,0.2709672,0.30662880000000003,0.0,0.0,0.0,0.0
11.44,533.019,2.2229064000000003,0.16276320000000002,0.0,0.0,0.0,0.0,0.0
11.46,533.5453896,1.6806672000000002,0.4879848,0.3834384,0.0,0.0,0.0,0.0
11.48,534.1062216,1.7349216,0.3252216,-0.30662880000000003,0.0,0.0,0.0,0.0
11.5,534.716736,1.9519392,-0.1085088,-0.23012400000000002,0.0,0.0,0.0,0.0
11.52,535.2909792,1.5182088,0.2170176,-0.0768096,0.0,0.0,0.0,0.0
11.54,535.9146000000001,1.6264128000000002,0.3252216,-0.6900672,0.0,0.0,0.0,0.0
11.559999999999999,536.5117031999999,2.0601432,0.3252216,0.4599432,0.0,0.0,0.0,0.0
11.58,537.0307776000001,1.0844784,0.5422392,0.23012400000000002,0.0,0.0,0.0,0.0
11.6,537.6531792000001,1.6806672000000002,0.2709672,0.0768096,0.0,0.0,0.0,0.0
11.62,538.1079408,1.2469368,0.4879848,0.23012400000000002,0.0,0.0,0.0,0.0
11.64,538.6541424,1.3011912,0.3252216,-0.15331440000000002,0.0,0.0,0.0,0.0
11.66,539.1616344,1.6806672000000002,0.16276320000000002,-0.15331440000000002,0.0,0.0,0.0,0.0
11.68,539.6121287999999,1.3011912,0.1085088,-0.23012400000000002,0.0,0.0,0.0,0.0
11.7,540.2903088,1.9519392,0.2170176,0.30662880000000003,0.0,0.0,0.0,0.0
11.719999999999999,540.7843895999999,1.5182088,0.1085088,0.15331440000000002,0.0,0.0,0.0,0.0
11.739999999999998,541.23336,1.0844784,0.4337304,0.5367528,0.0,0.0,0.0,0.0
11.76,541.8411312000001,1.789176,0.0542544,0.0768096,0.0,0.0,0.0,0.0
11.78,542.405316,1.1926824,0.2170176,-0.23012400000000002,0.0,0.0,0.0,0.0
11.8,542.9222568,1.2469368,0.2709672,-0.0768096,0.0,0.0,0.0,0.0
11.82,543.5111304000001,1.4097000000000002,0.5422392,-0.4599432,0.0,0.0,0.0,0.0
11.84,544.0914696,1.1387328,0.16276320000000002,-0.30662880000000003,0.0,0.0,0.0,0.0
11.86,544.6056672,1.1387328,0.0542544,-0.30662880000000003,0.0,0.0,0.0,0.0
11.879999999999999,545.1814344000001,1.4097000000000002,0.1085088,-0.15331440000000002,0.0,0.0,0.0,0.0
11.899999999999999,545.771832,1.0844784,0.3252216,-0.23012400000000002,0.0,0.0,0.0,0.0
11.92,546.2332991999999,1.1387328,0.16276320000000002,-0.5367528,0.0,0.0,0.0,0.0
11.94,546.7133592,1.1926824,0.1085088,-0.15331440000000002,0.0,0.0,0.0,0.0
11.96,547.1461752,1.1926824,0.2170176,-0.23012400000000002,0.0,0.0,0.0,0.0
11.98,547.6155672,0.9217152000000001,0.37947600000000004,0.30662880000000003,0.0,0.0,0.0,0.0
12.0,548.169084,1.4097000000000002,0.3252216,0.15331440000000002,0.0,0.0,0.0,0.0
12.02,548.653716,1.030224,0.2709672,-0.3834384,0.0,0.0,0.0,0.0
12.04,549.1700472,0.9217152000000001,0.2709672,-0.23012400000000002,0.0,0.0,0.0,0.0
12.059999999999999,549.8107368,1.030224,0.16276320000000002,-0.3834384,0.0,0.0,0.0,0.0
12.08,550.3081704,1.2469368,0.2709672,-0.30662880000000003,0.0,0.0,0.0,0.0
12.1,550.793412,0.8132064000000001,0.4879848,-0.0768096,0.0,0.0,0.0,0.0
12.12,551.3118767999999,1.1387328,0.0542544,-0.3834384,0.0,0.0,0.0,0.0
12.14,551.7309768,0.9759696,0.2170176,-0.0768096,0.0,0.0,0.0,0.0
12.16,552.2174376,0.8674608,0.3252216,-0.23012400000000002,0.0,0.0,0.0,0.0
12.18,552.620688,1.030224,0.2709672,-0.3834384,0.0,0.0,0.0,0.0
12.2,553.0461888,0.9759696,0.2170176,-0.0768096,0.0,0.0,0.0,0.0
12.219999999999999,553.4860152,0.8674608,0.3252216,-0.6900672,0.0,0.0,0.0,0.0
12.239999999999998,553.9166976,0.8674608,0.3252216,-0.30662880000000003,0.0,0.0,0.0,0.0
12.26,554.4119976,0.8674608,0.3252216,-0.23012400000000002,0.0,0.0,0.0,0.0
12.28,554.8704168,0.7589520000000001,0.2170176,-0.3834384,0.0,0.0,0.0,0.0
12.3,555.2788488,1.0844784,0.1085088,-0.30662880000000003,0.0,0.0,0.0,0.0
12.32,555.7973136,0.9217152000000001,0.2709672,0.0,0.0,0.0,0.0,0.0
12.34,556.09998,0.8674608,0.3252216,-0.15331440000000002,0.0,0.0,0.0,0.0
12.36,556.5523032,0.8132064000000001,0.37947600000000004,-0.30662880000000003,0.0,0.0,0.0,0.0
12.379999999999999,557.050956,0.7589520000000001,0.2170176,-0.23012400000000002,0.0,0.0,0.0,0.0
12.399999999999999,557.5328448,0.7046976,0.4879848,-0.23012400000000002,0.0,0.0,0.0,0.0
12.42,557.9522496,0.8132064000000001,0.37947600000000004,-0.0768096,0.0,0.0,0.0,0.0
12.44,558.3561096,0.7046976,0.4879848,-0.15331440000000002,0.0,0.0,0.0,0.0
12.46,558.734976,0.5964936000000001,0.37947600000000004,-0.23012400000000002,0.0,0.0,0.0,0.0
12.48,559.1696208,0.9217152000000001,0.2709672,-0.23012400000000002,0.0,0.0,0.0,0.0
12.5,559.538124,0.7046976,0.2709672,0.15331440000000002,0.0,0.0,0.0,0.0
12.52,560.17668,0.7589520000000001,0.3252216,-0.30662880000000003,0.0,0.0,0.0,0.0
12.54,560.5305528,0.7589520000000001,0.2170176,-0.30662880000000003,0.0,0.0,0.0,0.0
12.559999999999999,560.9316696000001,0.650748,0.4337304,-0.0768096,0.0,0.0,0.0,0.0
12.58,561.3114504,0.7046976,0.2709672,-0.0768096,0.0,0.0,0.0,0.0
12.6,561.671724,0.7046976,0.37947600000000004,-0.23012400000000002,0.0,0.0,0.0,0.0
12.62,562.0292544,0.7589520000000001,0.4337304,-0.0768096,0.0,0.0,0.0,0.0
12.639999999999999,562.3410648,0.650748,0.3252216,-0.4599432,0.0,0.0,0.0,0.0
12.66,562.6004496,0.5422392,0.3252216,-0.3834384,0.0,0.0,0.0,0.0
12.68,562.925976,0.5964936000000001,0.37947600000000004,-0.3834384,0.0,0.0,0.0,0.0
12.7,563.2194984,0.7589520000000001,0.4337304,0.0,0.0,0.0,0.0,0.0
12.719999999999999,563.549292,0.650748,0.2170176,-0.3834384,0.0,0.0,0.0,0.0
12.74,563.8775616,0.8132064000000001,0.2709672,0.0,0.0,0.0,0.0,0.0
12.76,564.2613048000001,0.650748,0.4337304,0.0768096,0.0,0.0,0.0,0.0
12.78,564.6002424,0.4337304,0.3252216,-0.4599432,0.0,0.0,0.0,0.0
12.799999999999999,564.8331096000001,0.7046976,0.4879848,-0.15331440000000002,0.0,0.0,0.0,0.0
12.82,565.1193168000001,0.5964936000000001,0.37947600000000004,-0.3834384,0.0,0.0,0.0,0.0
12.84,565.4856864000001,0.5422392,0.1085088,-0.0768096,0.0,0.0,0.0,0.0
12.86,565.7874384,0.5964936000000001,0.2709672,-0.15331440000000002,0.0,0.0,0.0,0.0
12.879999999999999,566.11266,0.4879848,0.0542544,-0.15331440000000002,0.0,0.0,0.0,0.0
12.9,566.4153264,0.4337304,0.2170176,-0.0768096,0.0,0.0,0.0,0.0
12.92,566.7362808,-3.5240976,-0.37947600000000004,-1.7635728,0.0,0.0,0.0,0.0
12.94,568.020708,114.0753624,-64.08602880000001,156.9561504,0.0,0.0,0.0,0.0
12.959999999999999,568.4672400000001,23.801832,12.199010400000002,4.4473368,0.0,0.0,0.0,0.0
12.98,568.4937576,18.9222888,8.186928,-4.677156,0.0,0.0,0.0,0.0
13.0,568.9265736,29.7658536,13.0664712,-5.137404,0.0,0.0,0.0,0.0
13.02,569.5639104,14.58468,4.8252888,-2.5304496,0.0,0.0,0.0,0.0
13.04,570.3335304000001,27.4344384,9.867595200000002,-2.683764,0.0,0.0,0.0,0.0
13.06,570.8245632,40.8806904,9.108643200000001,-1.8400776,0.0,0.0,0.0,0.0
13.08,571.4829312,11.8195344,-1.0844784,-5.6741568000000004,0.0,0.0,0.0,0.0
13.1,572.0382768,30.2538384,10.626852000000001,0.6135624,0.0,0.0,0.0,0.0
13.12,572.2988808,34.3201752,11.657076,1.7635728,0.0,0.0,0.0,0.0
13.139999999999999,572.6725656,36.5430816,15.506395200000002,-1.8400776,0.0,0.0,0.0,0.0
13.16,572.7853416,9.9218496,-3.957828,22.772827200000002,0.0,0.0,0.0,0.0
13.18,573.2102328,54.760368,3.0361128,34.1976456,0.0,0.0,0.0,0.0
13.2,573.4181063999999,47.4409008,8.837676,2.3003256,0.0,0.0,0.0,0.0
13.219999999999999,573.5138136,43.80829440000001,8.1326736,2.683764,0.0,0.0,0.0,0.0
13.24,573.6704808,38.2780032,13.3377432,1.5334488,0.0,0.0,0.0,0.0
13.26,573.8493984,34.049208,9.0001344,0.996696,0.0,0.0,0.0,0.0
13.28,574.12128,27.380184,11.5485672,2.9135831999999997,0.0,0.0,0.0,0.0
13.299999999999999,574.2764232,23.964595199999998,10.3013256,2.0702016,0.0,0.0,0.0,0.0
13.32,574.352928,18.217286400000003,6.506260800000001,-1.3801344,0.0,0.0,0.0,0.0
13.34,574.4699712,12.795504,4.445812800000001,-0.996696,0.0,0.0,0.0,0.0
13.36,574.5227016,4.6628304,0.650748,-1.3036296,0.0,0.0,0.0,0.0
13.379999999999999,574.5992064,1.4639544,-0.2709672,-1.0735056,0.0,0.0,0.0,0.0
13.4,574.7741616000001,2.3856696,0.4337304,-1.1500104,0.0,0.0,0.0,0.0
13.42,574.88328,3.198876,0.9217152000000001,-1.0735056,0.0,0.0,0.0,0.0
13.44,574.9920936,1.8976848000000002,0.16276320000000002,-0.996696,0.0,0.0,0.0,0.0
13.459999999999999,575.072256,1.4097000000000002,-0.2170176,-1.3801344,0.0,0.0,0.0,0.0
13.48,575.0957256,1.030224,-0.16276320000000002,-1.5334488,0.0,0.0,0.0,0.0
13.5,575.1222432000001,0.8674608,-0.2170176,-1.5334488,0.0,0.0,0.0,0.0
13.52,575.07378,0.8674608,-0.1085088,-1.5334488,0.0,0.0,0.0,0.0
13.54,575.0463480000001,1.030224,-0.16276320000000002,-1.6867632000000001,0.0,0.0,0.0,0.0
13.56,575.13474,0.5422392,-0.4337304,-1.7635728,0.0,0.0,0.0,0.0
13.58,575.166744,0.3252216,-0.2170176,-1.7635728,0.0,0.0,0.0,0.0
13.6,575.1228528,0.16276320000000002,-0.37947600000000004,-1.8400776,0.0,0.0,0.0,0.0
13.62,575.1070032,0.5422392,-0.1085088,-1.8400776,0.0,0.0,0.0,0.0
13.639999999999999,575.2478208,0.37947600000000004,-0.16276320000000002,-1.9936968000000002,0.0,0.0,0.0,0.0
13.66,575.3502336,0.7046976,0.4879848,-2.0702016,0.0,0.0,0.0,0.0
13.68,575.5227504,2.1143976,1.8976848000000002,-3.1437072,0.0,0.0,0.0,0.0
13.7,575.5931592,3.4698432,-22.5548952,4.1404032,0.0,0.0,0.0,0.0
13.719999999999999,575.7864024,5.1508152,2.1143976,-16.0254696,0.0,0.0,0.0,0.0
13.74,575.9452031999999,0.5422392,2.7108912000000003,-10.734751200000002,0.0,0.0,0.0,0.0
13.76,575.9842176000001,-0.4337304,2.1686520000000002,-9.2013024,0.0,0.0,0.0,0.0
13.78,576.1381416,-1.9519392,3.6868608000000003,-6.747662400000001,0.0,0.0,0.0,0.0
13.799999999999999,576.50634,-1.0844784,6.1807343999999995,-7.36092,0.0,0.0,0.0,0.0
13.82,576.6852576,0.8132064000000001,6.4520064,-6.9774816,0.0,0.0,0.0,0.0
13.84,576.8029104,-0.0542544,8.837676,-5.903976000000001,0.0,0.0,0.0,0.0
13.86,577.0065168,1.9519392,6.7229735999999995,-9.1244928,0.0,0.0,0.0,0.0
13.879999999999999,577.0979568,3.3073848000000003,3.957828,-8.4344256,0.0,0.0,0.0,0.0
13.9,577.0833264,6.343497600000001,1.3554456000000001,-6.364224,0.0,0.0,0.0,0.0
13.92,577.12356,10.0303584,9.596628,-3.68046,0.0,0.0,0.0,0.0
13.94,577.1842152,13.1207256,0.650748,0.6900672,0.0,0.0,0.0,0.0
13.959999999999999,577.2756552,17.1870624,4.933797600000001,3.2970216000000003,0.0,0.0,0.0,0.0
13.98,577.097652,25.6995168,9.867595200000002,3.7572696000000003,0.0,0.0,0.0,0.0
14.0,576.9333648,36.4888272,11.5485672,-0.30662880000000003,0.0,0.0,0.0,0.0
14.02,576.936108,27.271675200000004,4.933797600000001,-2.683764,0.0,0.0,0.0,0.0
14.04,576.8998368,17.5668432,0.9759696,-5.137404,0.0,0.0,0.0,0.0
14.06,576.9022752,7.048500000000001,0.0,-1.4569440000000002,0.0,0.0,0.0,0.0
14.08,576.9519576,2.4941784,2.3856696,-0.9201912000000001,0.0,0.0,0.0,0.0
14.1,577.07022,2.0601432,2.4941784,-0.4599432,0.0,0.0,0.0,0.0
14.12,577.1013096,3.6326064,3.4158936000000004,0.23012400000000002,0.0,0.0,0.0,0.0
14.139999999999999,577.2006744,14.6389344,18.8680344,6.594043200000001,0.0,0.0,0.0,0.0
14.16,577.2247536,5.9097672,4.3915584,-1.1500104,0.0,0.0,0.0,0.0
14.18,577.2957719999999,3.6868608000000003,1.9519392,-0.8433816000000001,0.0,0.0,0.0,0.0
14.2,577.2665112,4.988052,0.9759696,-0.996696,0.0,0.0,0.0,0.0
14.219999999999999,577.3332624,4.7170848,1.2469368,-1.3036296,0.0,0.0,0.0,0.0
14.24,577.2628536,6.343497600000001,0.9217152000000001,-1.1500104,0.0,0.0,0.0,0.0
14.26,577.173852,7.970215200000001,1.789176,-0.996696,0.0,0.0,0.0,0.0
14.28,577.0882032,11.006328,3.0903671999999998,-0.5367528,0.0,0.0,0.0,0.0
14.299999999999999,576.997068,13.5005064,3.957828,-1.6867632000000001,0.0,0.0,0.0,0.0
14.32,576.9449472,19.572732000000002,5.6930544,0.3834384,0.0,0.0,0.0,0.0
14.34,576.9260496,17.024604,4.8795432000000005,-1.1500104,0.0,0.0,0.0,0.0
14.36,576.8882543999999,19.789749600000004,6.1267848,-1.8400776,0.0,0.0,0.0,0.0
14.379999999999999,576.8047392,10.626852000000001,0.7589520000000001,0.0768096,0.0,0.0,0.0,0.0
14.4,576.6651408,5.5302912,2.4941784,0.0768096,0.0,0.0,0.0,0.0
14.42,576.6121056000001,3.9035736000000005,3.4698432,-4.677156,0.0,0.0,0.0,0.0
14.44,576.52158,6.2349888,7.8617064,-9.6612456,0.0,0.0,0.0,0.0
14.459999999999999,576.4557432,12.5787912,10.193121600000001,-6.594043200000001,0.0,0.0,0.0,0.0
14.48,576.4292256,19.572732000000002,9.596628,-2.5304496,0.0,0.0,0.0,0.0
14.5,576.4496472000001,20.3319888,9.813645600000001,-5.4440328000000004,0.0,0.0,0.0,0.0
14.52,576.3713136,18.054828,12.0908064,-7.8208632,0.0,0.0,0.0,0.0
