time,baro_altitude,accl_x,accl_y,accl_z,gps_altitude,gyro_roll,gyro_pitch,gyro_yaw
0.0,0.0,-8.4039456,6.885736800000001,0.30662880000000003,0.0,0.0,0.0,0.0
0.020000000000000462,0.014325600000000013,-8.4039456,6.777228,0.3834384,0.0,0.0,0.0,0.0
0.040000000000000036,-0.05303520000000002,-8.295436800000001,6.777228,0.7668768,0.0,0.0,0.0,0.0
0.0600000000000005,0.014325600000000013,-8.4039456,6.668719200000001,0.7668768,0.0,0.0,0.0,0.0
0.08000000000000007,0.007010400000000007,-8.566404,6.614769600000001,0.8433816000000001,0.0,0.0,0.0,0.0
0.10000000000000053,0.0027432000000000025,-8.5121496,6.668719200000001,0.8433816000000001,0.0,0.0,0.0,0.0
0.1200000000000001,0.1914144,-8.566404,6.614769600000001,0.5367528,0.0,0.0,0.0,0.0
0.14000000000000057,0.1444752,-8.5121496,6.5605152,0.4599432,0.0,0.0,0.0,0.0
0.16000000000000014,0.20360640000000002,-8.6206584,6.668719200000001,0.30662880000000003,0.0,0.0,0.0,0.0
0.1800000000000006,0.29474160000000005,-8.566404,6.7229735999999995,0.4599432,0.0,0.0,0.0,0.0
0.20000000000000018,0.3462528,-8.566404,6.8314824000000005,0.30662880000000003,0.0,0.0,0.0,0.0
0.22000000000000064,0.2167128,-8.4582,6.7229735999999995,0.4599432,0.0,0.0,0.0,0.0
0.2400000000000002,-0.0329184,-8.295436800000001,6.777228,0.6135624,0.0,0.0,0.0,0.0
0.2600000000000007,0.2109216,-8.5121496,6.668719200000001,0.7668768,0.0,0.0,0.0,0.0
0.28000000000000025,0.0954024,-8.5121496,6.668719200000001,0.8433816000000001,0.0,0.0,0.0,0.0
0.3000000000000007,0.04572000000000001,-8.566404,6.614769600000001,0.8433816000000001,0.0,0.0,0.0,0.0
0.3200000000000003,0.049987200000000016,-8.5121496,6.668719200000001,0.6900672,0.0,0.0,0.0,0.0
0.34000000000000075,0.04876800000000001,-8.4582,6.7229735999999995,0.6135624,0.0,0.0,0.0,0.0
0.3600000000000003,0.041452800000000005,-8.3496912,6.7229735999999995,0.30662880000000003,0.0,0.0,0.0,0.0
0.38000000000000034,-0.2081784,-8.4039456,6.668719200000001,0.15331440000000002,0.0,0.0,0.0,0.0
0.40000000000000036,-0.2490216,-8.4582,6.7229735999999995,0.15331440000000002,0.0,0.0,0.0,0.0
0.4200000000000004,-0.25146,-8.6206584,6.668719200000001,0.30662880000000003,0.0,0.0,0.0,0.0
0.4400000000000004,-0.14904720000000005,-8.566404,6.614769600000001,0.30662880000000003,0.0,0.0,0.0,0.0
0.4600000000000004,-0.1450848,-8.5121496,6.668719200000001,0.6900672,0.0,0.0,0.0,0.0
0.4800000000000004,-0.017678399999999983,-8.566404,6.8314824000000005,0.9201912000000001,0.0,0.0,0.0,0.0
0.5000000000000004,-0.0707136,-8.4039456,6.885736800000001,0.996696,0.0,0.0,0.0,0.0
0.5200000000000005,0.04754880000000001,-8.241182400000001,6.8314824000000005,0.996696,0.0,0.0,0.0,0.0
0.5400000000000005,-0.015240000000000014,-8.4039456,6.777228,0.6135624,0.0,0.0,0.0,0.0
0.5600000000000005,0.018592800000000017,-8.4039456,6.668719200000001,0.3834384,0.0,0.0,0.0,0.0
0.5800000000000005,0.06126480000000001,-8.5121496,6.5605152,0.30662880000000003,0.0,0.0,0.0,0.0
0.6000000000000005,0.029260799999999993,-8.6206584,6.668719200000001,0.23012400000000002,0.0,0.0,0.0,0.0
0.6200000000000001,-0.12466320000000002,-8.6206584,6.5605152,0.15331440000000002,0.0,0.0,0.0,0.0
0.6400000000000001,-0.20970239999999998,-8.6749128,6.506260800000001,0.3834384,0.0,0.0,0.0,0.0
0.6600000000000001,-0.0755904,-8.6206584,6.5605152,0.7668768,0.0,0.0,0.0,0.0
0.6800000000000002,0.1810512,-8.5121496,6.668719200000001,0.8433816000000001,0.0,0.0,0.0,0.0
0.7000000000000002,0.21427440000000003,-8.4039456,6.777228,0.8433816000000001,0.0,0.0,0.0,0.0
0.7200000000000002,0.1703832,-8.295436800000001,6.777228,0.9201912000000001,0.0,0.0,0.0,0.0
0.7400000000000002,0.2310384,-8.186928,6.777228,0.8433816000000001,0.0,0.0,0.0,0.0
0.7600000000000002,0.1414272,-8.3496912,6.8314824000000005,0.6900672,0.0,0.0,0.0,0.0
0.7800000000000002,0.20665440000000002,-8.3496912,6.7229735999999995,0.6135624,0.0,0.0,0.0,0.0
0.8000000000000003,0.257556,-8.5121496,6.668719200000001,0.5367528,0.0,0.0,0.0,0.0
0.8200000000000003,0.2212848,-8.566404,6.614769600000001,0.30662880000000003,0.0,0.0,0.0,0.0
0.8400000000000003,0.12252960000000002,-8.6206584,6.5605152,0.30662880000000003,0.0,0.0,0.0,0.0
0.8600000000000003,0.1761744,-8.6749128,6.614769600000001,0.30662880000000003,0.0,0.0,0.0,0.0
0.8800000000000003,0.21000720000000003,-8.6206584,6.668719200000001,0.3834384,0.0,0.0,0.0,0.0
0.9000000000000004,0.28956,-8.5121496,6.668719200000001,0.6135624,0.0,0.0,0.0,0.0
0.9200000000000004,0.2584704,-8.4039456,6.777228,0.6900672,0.0,0.0,0.0,0.0
0.9400000000000004,0.1731264,-8.4582,6.8314824000000005,0.996696,0.0,0.0,0.0,0.0
0.9600000000000004,0.1984248,-8.295436800000001,6.885736800000001,0.996696,0.0,0.0,0.0,0.0
0.9800000000000004,0.0341376,-8.186928,6.885736800000001,0.6900672,0.0,0.0,0.0,0.0
1.0000000000000004,0.1914144,-8.295436800000001,6.885736800000001,0.4599432,0.0,0.0,0.0,0.0
1.0200000000000005,0.146304,-8.4039456,6.668719200000001,0.3834384,0.0,0.0,0.0,0.0
1.0400000000000005,0.2267712,-8.5121496,6.5605152,0.3834384,0.0,0.0,0.0,0.0
1.0600000000000005,0.19659600000000002,-8.6206584,6.4520064,0.30662880000000003,0.0,0.0,0.0,0.0
1.0800000000000005,0.2633472,-8.729167200000001,6.5605152,0.4599432,0.0,0.0,0.0,0.0
1.1000000000000005,0.339852,-8.7834216,6.506260800000001,0.6135624,0.0,0.0,0.0,0.0
1.12,0.28620720000000005,-8.6749128,6.614769600000001,0.5367528,0.0,0.0,0.0,0.0
1.1400000000000001,0.16581120000000002,-8.5121496,6.777228,0.5367528,0.0,0.0,0.0,0.0
1.1600000000000001,0.1822704,-8.3496912,6.9399912,0.6135624,0.0,0.0,0.0,0.0
1.1800000000000002,0.0734568,-8.3496912,6.9399912,0.6900672,0.0,0.0,0.0,0.0
1.2000000000000002,0.2459736,-8.241182400000001,6.9399912,0.9201912000000001,0.0,0.0,0.0,0.0
1.2200000000000002,0.19964400000000002,-8.295436800000001,6.885736800000001,0.8433816000000001,0.0,0.0,0.0,0.0
1.2400000000000002,0.21305520000000003,-8.241182400000001,6.8314824000000005,0.7668768,0.0,0.0,0.0,0.0
1.2600000000000002,0.2706624,-8.4039456,6.668719200000001,0.4599432,0.0,0.0,0.0,0.0
1.2800000000000002,0.2215896,-8.566404,6.614769600000001,0.3834384,0.0,0.0,0.0,0.0
1.3000000000000003,0.28315920000000006,-8.566404,6.506260800000001,0.23012400000000002,0.0,0.0,0.0,0.0
1.3200000000000003,0.32766,-8.729167200000001,6.4520064,0.23012400000000002,0.0,0.0,0.0,0.0
1.3400000000000003,0.11856720000000001,-8.6749128,6.397752,0.5367528,0.0,0.0,0.0,0.0
1.3600000000000003,0.192024,-8.7834216,6.614769600000001,0.6900672,0.0,0.0,0.0,0.0
1.3800000000000003,0.0789432,-8.6206584,6.5605152,0.7668768,0.0,0.0,0.0,0.0
1.4000000000000004,0.23622,-8.3496912,6.7229735999999995,0.5367528,0.0,0.0,0.0,0.0
1.4200000000000004,0.2828544,-8.3496912,6.9399912,0.6900672,0.0,0.0,0.0,0.0
1.4400000000000004,0.3755136,-8.241182400000001,6.9399912,0.7668768,0.0,0.0,0.0,0.0
1.4600000000000004,0.277368,-8.186928,6.885736800000001,0.7668768,0.0,0.0,0.0,0.0
1.4800000000000004,0.3026664,-8.186928,6.885736800000001,0.6900672,0.0,0.0,0.0,0.0
1.5000000000000004,0.16946880000000003,-8.186928,6.885736800000001,0.7668768,0.0,0.0,0.0,0.0
1.5200000000000005,0.3773424,-8.4582,6.614769600000001,0.7668768,0.0,0.0,0.0,0.0
1.5400000000000005,0.3462528,-8.566404,6.506260800000001,0.5367528,0.0,0.0,0.0,0.0
1.5600000000000005,0.307848,-8.6206584,6.4520064,0.4599432,0.0,0.0,0.0,0.0
1.5800000000000005,0.3416808,-8.6206584,6.4520064,0.30662880000000003,0.0,0.0,0.0,0.0
1.6000000000000005,0.2572512,-8.7834216,6.506260800000001,0.30662880000000003,0.0,0.0,0.0,0.0
1.62,0.2624328,-8.729167200000001,6.5605152,0.5367528,0.0,0.0,0.0,0.0
1.6400000000000001,0.1880616,-8.6206584,6.5605152,0.6900672,0.0,0.0,0.0,0.0
1.6600000000000001,0.1475232,-8.5121496,6.777228,0.7668768,0.0,0.0,0.0,0.0
1.6800000000000002,0.039014400000000005,-8.3496912,6.8314824000000005,0.7668768,0.0,0.0,0.0,0.0
1.7000000000000002,0.1520952,-8.295436800000001,6.885736800000001,0.8433816000000001,0.0,0.0,0.0,0.0
1.7200000000000002,0.1072896,-8.295436800000001,6.885736800000001,0.8433816000000001,0.0,0.0,0.0,0.0
1.7400000000000002,0.15880080000000002,-8.295436800000001,6.777228,0.5367528,0.0,0.0,0.0,0.0
1.7600000000000002,0.10393680000000001,-8.241182400000001,6.8314824000000005,0.4599432,0.0,0.0,0.0,0.0
1.7800000000000002,0.10668000000000001,-8.566404,6.614769600000001,0.5367528,0.0,0.0,0.0,0.0
1.8000000000000003,0.028651199999999995,-8.6206584,6.5605152,0.4599432,0.0,0.0,0.0,0.0
1.8200000000000003,-0.015849600000000016,-8.6749128,6.506260800000001,0.3834384,0.0,0.0,0.0,0.0
1.8400000000000003,0.11582400000000001,-8.729167200000001,6.4520064,0.3834384,0.0,0.0,0.0,0.0
1.8600000000000003,0.222504,-8.729167200000001,6.5605152,0.4599432,0.0,0.0,0.0,0.0
1.8800000000000003,0.2127504,-8.6749128,6.506260800000001,0.6900672,0.0,0.0,0.0,0.0
1.9000000000000004,0.2542032,-8.5121496,6.777228,0.5367528,0.0,0.0,0.0,0.0
1.9200000000000004,0.201168,-8.3496912,6.7229735999999995,0.6135624,0.0,0.0,0.0,0.0
1.9400000000000004,0.24140160000000002,-8.295436800000001,6.885736800000001,0.6135624,0.0,0.0,0.0,0.0
1.9600000000000004,0.313944,-8.241182400000001,7.048500000000001,0.6900672,0.0,0.0,0.0,0.0
1.9800000000000004,0.134112,-8.186928,6.9942456,0.7668768,0.0,0.0,0.0,0.0
2.0000000000000004,0.31181040000000004,-8.295436800000001,6.777228,0.6900672,0.0,0.0,0.0,0.0
2.0200000000000005,0.38861999999999997,-8.4039456,6.5605152,0.6900672,0.0,0.0,0.0,0.0
2.0400000000000005,0.3014472,-8.729167200000001,6.5605152,0.4599432,0.0,0.0,0.0,0.0
2.0600000000000005,0.2718816,-8.566404,6.506260800000001,0.3834384,0.0,0.0,0.0,0.0
2.0800000000000005,0.2932176,-8.6206584,6.4520064,0.3834384,0.0,0.0,0.0,0.0
2.1000000000000005,0.19659600000000002,-8.729167200000001,6.5605152,0.5367528,0.0,0.0,0.0,0.0
2.12,0.1597152,-8.729167200000001,6.4520064,0.6135624,0.0,0.0,0.0,0.0
2.14,0.19659600000000002,-8.566404,6.7229735999999995,0.6900672,0.0,0.0,0.0,0.0
2.16,0.096012,-8.3496912,6.8314824000000005,0.8433816000000001,0.0,0.0,0.0,0.0
2.18,0.1133856,-8.295436800000001,6.885736800000001,0.8433816000000001,0.0,0.0,0.0,0.0
2.2,0.2624328,-8.241182400000001,6.9399912,0.6900672,0.0,0.0,0.0,0.0
2.22,0.19659600000000002,-8.186928,6.885736800000001,0.4599432,0.0,0.0,0.0,0.0
2.24,0.11643360000000001,-8.4582,6.7229735999999995,0.4599432,0.0,0.0,0.0,0.0
2.2600000000000002,0.08351520000000001,-8.566404,6.614769600000001,0.6135624,0.0,0.0,0.0,0.0
2.2800000000000002,0.21518879999999999,-8.6749128,6.506260800000001,0.5367528,0.0,0.0,0.0,0.0
2.3000000000000003,0.34899600000000003,-8.729167200000001,6.5605152,0.5367528,0.0,0.0,0.0,0.0
2.3200000000000003,0.4538472,-8.729167200000001,6.5605152,0.5367528,0.0,0.0,0.0,0.0
2.3400000000000003,0.45232320000000004,-8.6749128,6.506260800000001,0.5367528,0.0,0.0,0.0,0.0
2.3600000000000003,0.438912,-8.566404,6.7229735999999995,0.30662880000000003,0.0,0.0,0.0,0.0
2.3800000000000003,0.3694176,-8.4582,6.7229735999999995,0.23012400000000002,0.0,0.0,0.0,0.0
2.4000000000000004,0.4904232,-8.4039456,6.777228,0.4599432,0.0,0.0,0.0,0.0
2.4200000000000004,0.3944112,-8.4039456,6.885736800000001,0.5367528,0.0,0.0,0.0,0.0
2.4400000000000004,0.4197096,-8.4582,6.8314824000000005,0.8433816000000001,0.0,0.0,0.0,0.0
2.4600000000000004,0.3072384,-8.4582,6.8314824000000005,0.9201912000000001,0.0,0.0,0.0,0.0
2.4800000000000004,0.2749296,-8.295436800000001,6.885736800000001,0.9201912000000001,0.0,0.0,0.0,0.0
2.5,0.1597152,-8.3496912,6.8314824000000005,0.6135624,0.0,0.0,0.0,0.0
2.5200000000000005,0.2667,-8.3496912,6.7229735999999995,0.4599432,0.0,0.0,0.0,0.0
2.54,0.140208,-8.5121496,6.777228,0.30662880000000003,0.0,0.0,0.0,0.0
2.5600000000000005,0.16581120000000002,-8.4039456,6.5605152,0.23012400000000002,0.0,0.0,0.0,0.0
2.58,0.16123920000000003,-8.6749128,6.506260800000001,0.30662880000000003,0.0,0.0,0.0,0.0
2.6000000000000005,0.330708,-8.6206584,6.5605152,0.4599432,0.0,0.0,0.0,0.0
2.62,0.2599944,-8.6749128,6.614769600000001,0.5367528,0.0,0.0,0.0,0.0
2.6400000000000006,0.1795272,-8.6206584,6.668719200000001,0.5367528,0.0,0.0,0.0,0.0
2.66,0.06675120000000001,-8.4582,6.7229735999999995,0.7668768,0.0,0.0,0.0,0.0
2.6800000000000006,0.06827520000000001,-8.3496912,6.8314824000000005,0.6900672,0.0,0.0,0.0,0.0
2.7,0.18958560000000002,-8.295436800000001,6.777228,0.7668768,0.0,0.0,0.0,0.0
2.7200000000000006,0.1106424,-8.241182400000001,6.9399912,0.6900672,0.0,0.0,0.0,0.0
2.74,0.06126480000000001,-8.4039456,6.885736800000001,0.3834384,0.0,0.0,0.0,0.0
2.7600000000000002,0.10515600000000001,-8.5121496,6.777228,0.5367528,0.0,0.0,0.0,0.0
2.7800000000000002,0.10698480000000002,-8.5121496,6.668719200000001,0.4599432,0.0,0.0,0.0,0.0
2.8000000000000003,-0.0384048,-8.6749128,6.614769600000001,0.3834384,0.0,0.0,0.0,0.0
2.8200000000000003,0.265176,-8.6206584,6.5605152,0.4599432,0.0,0.0,0.0,0.0
2.8400000000000003,0.46299120000000005,-8.6206584,6.2349888,0.8433816000000001,0.0,0.0,0.0,0.0
2.8600000000000003,0.5026152,-8.4039456,6.5605152,0.6900672,0.0,0.0,0.0,0.0
2.8800000000000003,0.6312407999999999,-8.4582,6.614769600000001,0.7668768,0.0,0.0,0.0,0.0
2.9000000000000004,0.7735824000000001,-8.295436800000001,6.885736800000001,0.6900672,0.0,0.0,0.0,0.0
2.9200000000000004,0.7927848000000001,-8.3496912,6.8314824000000005,0.3834384,0.0,0.0,0.0,0.0
2.9400000000000004,0.6175248,-8.3496912,6.8314824000000005,0.30662880000000003,0.0,0.0,0.0,0.0
2.9600000000000004,0.44348400000000004,-8.3496912,6.7229735999999995,0.3834384,0.0,0.0,0.0,0.0
2.9800000000000004,0.40599359999999995,-8.6206584,6.4520064,0.6135624,0.0,0.0,0.0,0.0
3.0,0.40416480000000005,-8.6206584,6.668719200000001,0.4599432,0.0,0.0,0.0,0.0
3.0200000000000005,0.4727448000000001,-8.6206584,6.4520064,0.7668768,0.0,0.0,0.0,0.0
3.04,0.4980432,-8.6749128,6.7229735999999995,0.7668768,0.0,0.0,0.0,0.0
3.0600000000000005,0.382524,-8.6749128,6.7229735999999995,0.5367528,0.0,0.0,0.0,0.0
3.08,0.34899600000000003,-8.4039456,6.777228,0.6900672,0.0,0.0,0.0,0.0
3.1000000000000005,0.3934968,-8.4039456,6.777228,0.5367528,0.0,0.0,0.0,0.0
3.12,0.451104,-8.4039456,6.777228,0.3834384,0.0,0.0,0.0,0.0
3.1400000000000006,0.5443728,-8.4039456,6.885736800000001,0.4599432,0.0,0.0,0.0,0.0
3.16,0.5672328,-8.3496912,6.7229735999999995,0.30662880000000003,0.0,0.0,0.0,0.0
3.1800000000000006,0.3614928,-8.4039456,6.777228,0.5367528,0.0,0.0,0.0,0.0
3.2,0.489204,-8.4582,6.506260800000001,0.8433816000000001,0.0,0.0,0.0,0.0
3.2200000000000006,0.46786800000000006,-8.566404,6.506260800000001,0.6900672,0.0,0.0,0.0,0.0
3.24,0.36850320000000003,-8.5121496,6.5605152,0.8433816000000001,0.0,0.0,0.0,0.0
3.2600000000000002,0.43494960000000005,-8.4039456,6.777228,0.5367528,0.0,0.0,0.0,0.0
3.2800000000000002,0.4462272,-8.295436800000001,6.885736800000001,0.3834384,0.0,0.0,0.0,0.0
3.3000000000000003,0.47792640000000003,-8.295436800000001,6.777228,0.4599432,0.0,0.0,0.0,0.0
3.3200000000000003,0.4489704,-8.4582,6.614769600000001,0.3834384,0.0,0.0,0.0,0.0
3.3400000000000003,0.382524,-8.566404,6.614769600000001,0.4599432,0.0,0.0,0.0,0.0
3.3600000000000003,0.374904,-8.6206584,6.4520064,0.5367528,0.0,0.0,0.0,0.0
3.3800000000000003,0.3669792,-8.6206584,6.5605152,0.30662880000000003,0.0,0.0,0.0,0.0
3.4000000000000004,0.22890480000000002,-8.4582,6.397752,1.0735056,0.0,0.0,0.0,0.0
3.4200000000000004,0.2578608,-8.4582,6.7229735999999995,0.6900672,0.0,0.0,0.0,0.0
3.4400000000000004,0.23042880000000002,-8.3496912,6.7229735999999995,0.6900672,0.0,0.0,0.0,0.0
3.4600000000000004,0.2127504,-8.241182400000001,6.9399912,0.6135624,0.0,0.0,0.0,0.0
3.4800000000000004,0.25359360000000003,-8.3496912,6.7229735999999995,0.4599432,0.0,0.0,0.0,0.0
3.5000000000000004,0.376428,-8.295436800000001,6.777228,0.30662880000000003,0.0,0.0,0.0,0.0
3.5200000000000005,0.3188208,-8.4582,6.614769600000001,0.3834384,0.0,0.0,0.0,0.0
3.5400000000000005,0.37124640000000003,-8.5121496,6.5605152,0.4599432,0.0,0.0,0.0,0.0
3.5600000000000005,0.3480816,-8.6749128,6.506260800000001,0.5367528,0.0,0.0,0.0,0.0
3.58,0.31424880000000005,-8.6206584,6.4520064,0.7668768,0.0,0.0,0.0,0.0
3.6000000000000005,0.4242816,-8.4582,6.614769600000001,0.8433816000000001,0.0,0.0,0.0,0.0
3.62,0.560832,-8.4039456,6.668719200000001,0.5367528,0.0,0.0,0.0,0.0
3.6400000000000006,0.5544312,-8.295436800000001,6.885736800000001,0.6135624,0.0,0.0,0.0,0.0
3.66,0.5541264,-8.3496912,6.8314824000000005,0.6135624,0.0,0.0,0.0,0.0
3.68,0.4514088,-8.295436800000001,6.777228,0.3834384,0.0,0.0,0.0,0.0
3.7,0.3849624,-8.4039456,6.668719200000001,0.7668768,0.0,0.0,0.0,0.0
3.72,0.34533840000000005,-8.566404,6.614769600000001,0.5367528,0.0,0.0,0.0,0.0
3.74,0.2938272,-8.5121496,6.5605152,0.6900672,0.0,0.0,0.0,0.0
3.7600000000000002,0.29839920000000003,-8.5121496,6.668719200000001,0.6900672,0.0,0.0,0.0,0.0
3.7800000000000002,0.24201120000000004,-8.4039456,6.668719200000001,0.6900672,0.0,0.0,0.0,0.0
3.8000000000000003,0.19354800000000003,-8.4582,6.614769600000001,0.5367528,0.0,0.0,0.0,0.0
3.8200000000000003,0.2197608,-8.4039456,6.668719200000001,0.5367528,0.0,0.0,0.0,0.0
3.8400000000000003,0.2801112,-8.566404,6.614769600000001,0.4599432,0.0,0.0,0.0,0.0
3.8600000000000003,0.2115312,-8.6206584,6.668719200000001,0.3834384,0.0,0.0,0.0,0.0
3.8800000000000003,0.029260799999999993,-8.6206584,6.777228,0.4599432,0.0,0.0,0.0,0.0
3.9000000000000004,0.1149096,-8.4582,6.7229735999999995,0.4599432,0.0,0.0,0.0,0.0
3.9200000000000004,0.05852160000000001,-8.295436800000001,6.777228,0.5367528,0.0,0.0,0.0,0.0
3.9400000000000004,0.036576,-8.3496912,6.7229735999999995,0.7668768,0.0,0.0,0.0,0.0
3.9600000000000004,0.288036,-8.566404,6.9399912,0.8433816000000001,0.0,0.0,0.0,0.0
3.9800000000000004,0.4047744,-8.6206584,6.5605152,0.8433816000000001,0.0,0.0,0.0,0.0
4.0,0.5632704000000001,-8.6206584,6.668719200000001,0.5367528,0.0,0.0,0.0,0.0
4.0200000000000005,0.6284976000000001,-8.6206584,6.668719200000001,0.5367528,0.0,0.0,0.0,0.0
4.04,0.600456,-8.5121496,6.668719200000001,0.30662880000000003,0.0,0.0,0.0,0.0
4.0600000000000005,0.49408080000000004,-8.5121496,6.777228,0.30662880000000003,0.0,0.0,0.0,0.0
4.08,0.432816,-8.6206584,6.5605152,0.5367528,0.0,0.0,0.0,0.0
4.1000000000000005,0.47061120000000006,-8.566404,6.614769600000001,0.6135624,0.0,0.0,0.0,0.0
4.12,0.24749760000000004,-8.4582,6.614769600000001,0.8433816000000001,0.0,0.0,0.0,0.0
4.140000000000001,0.0816864,-8.4582,6.7229735999999995,0.7668768,0.0,0.0,0.0,0.0
4.16,-0.06187439999999999,-8.4039456,6.9942456,0.5367528,0.0,0.0,0.0,0.0
4.180000000000001,-0.01036320000000001,-8.295436800000001,6.668719200000001,0.6135624,0.0,0.0,0.0,0.0
4.2,0.04267200000000001,-8.5121496,6.668719200000001,0.4599432,0.0,0.0,0.0,0.0
4.220000000000001,0.15727680000000002,-8.5121496,6.668719200000001,0.5367528,0.0,0.0,0.0,0.0
4.24,0.32369760000000003,-8.6749128,6.506260800000001,0.5367528,0.0,0.0,0.0,0.0
4.260000000000001,0.4020312,-8.6206584,6.668719200000001,0.5367528,0.0,0.0,0.0,0.0
4.28,0.35692080000000004,-8.6749128,6.7229735999999995,0.4599432,0.0,0.0,0.0,0.0
4.300000000000001,0.24292560000000002,-8.3496912,6.8314824000000005,0.4599432,0.0,0.0,0.0,0.0
4.32,0.2816352,-8.295436800000001,6.885736800000001,0.5367528,0.0,0.0,0.0,0.0
4.340000000000001,0.2282952,-8.4039456,6.777228,0.6900672,0.0,0.0,0.0,0.0
4.36,0.2478024,-8.566404,6.7229735999999995,0.7668768,0.0,0.0,0.0,0.0
4.38,0.4163568,-8.5121496,6.668719200000001,0.6900672,0.0,0.0,0.0,0.0
4.4,0.5004816,-8.5121496,6.777228,0.6135624,0.0,0.0,0.0,0.0
4.42,0.38770560000000004,-8.7834216,6.9399912,0.5367528,0.0,0.0,0.0,0.0
4.44,0.330708,-12.795504,9.4338648,1.4569440000000002,0.0,0.0,0.0,0.0
4.46,0.3386328,-45.597470400000006,29.440632,4.370527200000001,0.0,0.0,0.0,0.0
4.48,0.743712,-69.12833520000001,36.163605600000004,1.4569440000000002,0.0,0.0,0.0,0.0
4.5,1.5060168,-57.7425312,59.0437224,10.811256,0.0,0.0,0.0,0.0
4.5200000000000005,1.7885664000000001,-46.7904576,39.633448800000004,-24.996343200000002,0.0,0.0,0.0,0.0
4.54,1.9482816000000003,-66.20042640000001,66.20042640000001,16.5622224,0.0,0.0,0.0,0.0
4.5600000000000005,1.7391888000000002,-66.6884112,51.6157464,-22.389388800000003,0.0,0.0,0.0,0.0
4.58,1.374648,-60.2906592,46.302472800000004,-21.9294456,0.0,0.0,0.0,0.0
4.6000000000000005,1.3133832,-66.63415680000001,67.71863520000001,5.597347200000001,0.0,0.0,0.0,0.0
4.62,1.4688312000000001,-72.2187024,44.675755200000005,13.341705600000001,0.0,0.0,0.0,0.0
4.640000000000001,1.4029944,-76.3392936,50.531572800000006,-7.2841104,0.0,0.0,0.0,0.0
4.66,1.6038576,-72.7066872,46.573440000000005,-8.971178400000001,0.0,0.0,0.0,0.0
4.680000000000001,2.0759928000000003,-74.33340480000001,44.0795664,-10.1979984,0.0,0.0,0.0,0.0
4.7,2.2908768,-72.38146560000001,47.224188000000005,-0.4599432,0.0,0.0,0.0,0.0
4.720000000000001,2.5795224000000005,-71.08027440000001,51.23627040000001,4.370527200000001,0.0,0.0,0.0,0.0
4.74,3.0208728000000007,-71.2969872,48.3083616,12.498324000000002,0.0,0.0,0.0,0.0
4.760000000000001,3.3022032,-71.8392264,46.6819488,4.6006512,0.0,0.0,0.0,0.0
4.78,3.7121592,-74.3873544,48.90485520000001,-1.1500104,0.0,0.0,0.0,0.0
4.800000000000001,4.1614344,-72.43572,46.193964,-8.2043016,0.0,0.0,0.0,0.0
4.82,4.8932592,-71.51400480000001,44.6218056,-4.4473368,0.0,0.0,0.0,0.0
4.84,5.72262,-73.574148,44.0795664,0.6135624,0.0,0.0,0.0,0.0
4.86,6.31698,-71.8934808,43.7000904,4.4473368,0.0,0.0,0.0,0.0
4.880000000000001,6.958279200000001,-73.574148,44.187770400000005,3.2970216000000003,0.0,0.0,0.0,0.0
4.9,7.491069599999999,-71.6225136,45.814488000000004,-0.7668768,0.0,0.0,0.0,0.0
4.92,8.1616296,-69.5078112,44.8927728,-2.3768304000000002,0.0,0.0,0.0,0.0
4.94,8.9233248,-73.1404176,45.27224880000001,-2.0702016,0.0,0.0,0.0,0.0
4.96,9.7148904,-72.43572,43.0493424,-0.7668768,0.0,0.0,0.0,0.0
4.98,10.489082400000001,-72.43572,44.8927728,0.0768096,0.0,0.0,0.0,0.0
5.0,11.407140000000002,-72.38146560000001,43.9710576,-1.8400776,0.0,0.0,0.0,0.0
5.0200000000000005,12.370612800000002,-71.784972,44.1338208,-0.7668768,0.0,0.0,0.0,0.0
5.04,13.011912000000002,-72.16444800000001,43.1035968,-0.996696,0.0,0.0,0.0,0.0
5.0600000000000005,13.8680952,-71.94773520000001,42.452848800000005,-1.9936968000000002,0.0,0.0,0.0,0.0
5.08,14.790420000000003,-72.16444800000001,42.7783752,-3.0672024,0.0,0.0,0.0,0.0
5.1000000000000005,15.566136,-70.5922896,42.0733728,-1.3801344,0.0,0.0,0.0,0.0
5.12,16.431463200000003,-69.236844,41.585388,-1.4569440000000002,0.0,0.0,0.0,0.0
5.140000000000001,17.515027200000002,-69.12833520000001,42.0191184,-2.0702016,0.0,0.0,0.0,0.0
5.16,18.408700800000002,-70.10430480000001,42.7783752,-1.4569440000000002,0.0,0.0,0.0,0.0
5.180000000000001,19.4654424,-69.1825896,41.422929599999996,-2.223516,0.0,0.0,0.0,0.0
5.2,20.6337408,-69.01982640000001,42.34434,-2.3768304000000002,0.0,0.0,0.0,0.0
5.220000000000001,21.898356,-66.47169840000001,41.205912,-3.1437072,0.0,0.0,0.0,0.0
5.24,23.0392224,-69.56206560000001,43.5373272,-1.1500104,0.0,0.0,0.0,0.0
5.260000000000001,24.076761599999998,-67.3934136,42.669866400000004,-1.6867632000000001,0.0,0.0,0.0,0.0
5.28,25.144171200000002,-66.20042640000001,42.669866400000004,-0.8433816000000001,0.0,0.0,0.0,0.0
5.300000000000001,26.309726400000002,-66.63415680000001,42.5613576,-0.996696,0.0,0.0,0.0,0.0
5.32,27.25674,-65.38722,42.0733728,-0.23012400000000002,0.0,0.0,0.0,0.0
5.34,28.446374399999996,-65.658492,42.5613576,-0.23012400000000002,0.0,0.0,0.0,0.0
5.36,29.334561599999997,-64.51975920000001,41.6396424,-0.23012400000000002,0.0,0.0,0.0,0.0
5.380000000000001,30.391607999999998,-65.5499832,42.669866400000004,0.30662880000000003,0.0,0.0,0.0,0.0
5.4,31.368796800000002,-64.4655048,42.452848800000005,0.30662880000000003,0.0,0.0,0.0,0.0
5.42,32.208216,-63.1643136,40.175688,-0.5367528,0.0,0.0,0.0,0.0
5.44,33.1811376,-63.598044,39.416736,-0.4599432,0.0,0.0,0.0,0.0
5.460000000000001,34.3802208,-65.2247616,40.6094184,0.5367528,0.0,0.0,0.0,0.0
5.48,35.529316800000004,-63.598044,39.1997184,-0.7668768,0.0,0.0,0.0,0.0
5.5,36.6860328,-63.92326560000001,38.4407664,-1.6867632000000001,0.0,0.0,0.0,0.0
5.5200000000000005,37.857684,-64.1945376,38.820242400000005,-2.3003256,0.0,0.0,0.0,0.0
5.54,39.1658856,-63.055804800000004,38.1155448,-2.8370784000000002,0.0,0.0,0.0,0.0
5.5600000000000005,40.650871200000005,-64.1402832,37.898527200000004,-4.2937176,0.0,0.0,0.0,0.0
5.58,42.19773120000001,-61.591850400000006,35.1333816,-5.137404,0.0,0.0,0.0,0.0
5.6000000000000005,43.9680096,-64.51975920000001,34.4829384,-6.5175384,0.0,0.0,0.0,0.0
5.62,45.705369600000004,-63.543789600000004,36.326368800000004,-6.747662400000001,0.0,0.0,0.0,0.0
5.640000000000001,47.6231712,-62.2968528,34.1031576,-6.2109096,0.0,0.0,0.0,0.0
5.66,49.48549920000001,-60.670135200000004,34.3201752,-6.9774816,0.0,0.0,0.0,0.0
5.680000000000001,51.5364984,-61.754613600000006,33.5612232,-7.591044000000001,0.0,0.0,0.0,0.0
5.7,53.6591256,-62.3511072,34.3744296,-6.2109096,0.0,0.0,0.0,0.0
5.720000000000001,55.81070880000001,-61.3751376,32.4224904,-5.827471200000001,0.0,0.0,0.0,0.0
5.74,57.92358240000001,-59.856928800000006,31.6635384,-5.5205376,0.0,0.0,0.0,0.0
5.76,60.00475680000001,-58.7185008,31.609284000000002,-3.9870888,0.0,0.0,0.0,0.0
5.78,62.13165120000001,-58.88095920000001,31.8802512,-3.2970216000000003,0.0,0.0,0.0,0.0
5.800000000000001,64.2871968,-56.549544000000004,32.9104752,-1.9168872,0.0,0.0,0.0,0.0
5.82,66.31472640000001,-56.9293248,34.2659208,-0.996696,0.0,0.0,0.0,0.0
5.84,68.2236888,-56.820816,36.0008424,-2.6069544000000002,0.0,0.0,0.0,0.0
5.86,70.1442336,-55.03164,34.9709232,-1.3801344,0.0,0.0,0.0,0.0
5.880000000000001,72.10287840000001,-53.13395520000001,33.615477600000006,-0.8433816000000001,0.0,0.0,0.0,0.0
5.9,74.06335200000001,-53.5134312,34.7539056,-0.7668768,0.0,0.0,0.0,0.0
5.92,75.844908,-53.7843984,33.39846,-1.3801344,0.0,0.0,0.0,0.0
5.94,77.5984224,-51.1277616,31.609284000000002,-1.1500104,0.0,0.0,0.0,0.0
5.960000000000001,79.52628239999999,-53.67619440000001,33.7236816,-1.8400776,0.0,0.0,0.0,0.0
5.98,81.43707359999999,-53.9471616,32.260032,-3.450336,0.0,0.0,0.0,0.0
6.0,83.3527416,-52.21224000000001,30.7418232,-4.4473368,0.0,0.0,0.0,0.0
6.0200000000000005,85.3004136,-51.182016,31.3383168,-3.2970216000000003,0.0,0.0,0.0,0.0
6.04,87.1764576,-51.561492,32.260032,-2.9135831999999997,0.0,0.0,0.0,0.0
6.0600000000000005,89.1375408,-52.4832072,31.8802512,-4.7539656,0.0,0.0,0.0,0.0
6.08,90.9952968,-50.80254000000001,31.825996800000002,-4.1404032,0.0,0.0,0.0,0.0
6.1000000000000005,92.9438832,-48.14590320000001,30.4705512,-3.9870888,0.0,0.0,0.0,0.0
6.12,94.9150248,-47.603664,30.4705512,-2.3003256,0.0,0.0,0.0,0.0
6.140000000000001,96.7989936,-46.248218400000006,31.1755536,-2.683764,0.0,0.0,0.0,0.0
6.16,98.6991168,-46.4109816,30.579060000000002,-1.4569440000000002,0.0,0.0,0.0,0.0
6.180000000000001,100.6986048,-47.224188000000005,29.440632,-1.8400776,0.0,0.0,0.0,0.0
6.2,102.8322048,-47.92888560000001,28.627120800000004,-3.3738312000000006,0.0,0.0,0.0,0.0
6.220000000000001,104.90454,-48.3083616,26.5127232,-4.0638984,0.0,0.0,0.0,0.0
6.24,106.9783992,-45.326503200000005,26.0247384,-6.2109096,0.0,0.0,0.0,0.0
6.26,109.0806048,-47.8206816,27.4344384,-3.9870888,0.0,0.0,0.0,0.0
6.28,111.2248728,-46.4649312,28.247644800000003,-5.060594400000001,0.0,0.0,0.0,0.0
6.300000000000001,113.3770656,-44.78426400000001,28.0851864,-4.984089600000001,0.0,0.0,0.0,0.0
6.32,115.5347448,-44.5675512,28.518916800000003,-3.2970216000000003,0.0,0.0,0.0,0.0
6.34,117.672612,-43.428818400000004,26.837944800000002,-2.8370784000000002,0.0,0.0,0.0,0.0
6.36,119.8772304,-44.350533600000006,27.651456,-3.2205168000000004,0.0,0.0,0.0,0.0
6.380000000000001,122.1208632,-46.4109816,25.265786400000003,-2.223516,0.0,0.0,0.0,0.0
6.4,124.4763576,-44.5132968,26.4042144,-1.3036296,0.0,0.0,0.0,0.0
6.42,126.9357888,-42.1276272,26.5127232,-3.2205168000000004,0.0,0.0,0.0,0.0
6.44,129.4875744,-43.645836,28.6813752,-2.5304496,0.0,0.0,0.0,0.0
6.460000000000001,132.1533552,-44.9470272,25.5367536,-3.2970216000000003,0.0,0.0,0.0,0.0
6.48,134.7868272,-41.8024056,25.753771200000003,-4.1404032,0.0,0.0,0.0,0.0
6.5,137.5111296,-43.916803200000004,26.241756000000002,-5.4440328000000004,0.0,0.0,0.0,0.0
6.5200000000000005,140.1732528,-40.284196800000004,24.235562400000003,-6.8241672,0.0,0.0,0.0,0.0
6.540000000000001,142.67718480000002,-38.061290400000004,23.422356,-5.903976000000001,0.0,0.0,0.0,0.0
6.5600000000000005,145.17624,-36.8683032,19.6269864,-6.747662400000001,0.0,0.0,0.0,0.0
6.58,147.6445104,-30.416601600000003,14.0424408,-4.370527200000001,0.0,0.0,0.0,0.0
6.6000000000000005,150.0167688,-21.5246712,12.0908064,-1.8400776,0.0,0.0,0.0,0.0
6.62,152.2500384,-14.421916800000002,8.566404,-3.6036504000000003,0.0,0.0,0.0,0.0
6.640000000000001,154.385772,-6.343497600000001,3.957828,-1.6102584000000002,0.0,0.0,0.0,0.0
6.66,156.37611600000002,-1.030224,1.030224,-2.4536400000000005,0.0,0.0,0.0,0.0
6.68,158.1677304,2.6023824,-2.2771608000000003,-1.3036296,0.0,0.0,0.0,0.0
6.7,159.86729520000003,3.6868608000000003,-3.4698432,-0.6900672,0.0,0.0,0.0,0.0
6.720000000000001,161.2641936,-1.7349216,3.1446216000000002,0.5367528,0.0,0.0,0.0,0.0
6.74,162.35812080000002,-6.506260800000001,-1.4097000000000002,-22.236074400000003,0.0,0.0,0.0,0.0
6.76,163.29019920000002,2.6023824,-3.0361128,-4.6006512,0.0,0.0,0.0,0.0
6.78,164.2372128,0.4879848,2.8736544000000004,-3.2205168000000004,0.0,0.0,0.0,0.0
6.800000000000001,165.13911600000003,-6.2349888,7.970215200000001,-4.0638984,0.0,0.0,0.0,0.0
6.82,166.120572,-64.248792,17.729301600000003,12.345009600000001,0.0,0.0,0.0,0.0
6.84,167.23766400000002,-4.608576,-3.957828,-9.047683200000002,0.0,0.0,0.0,0.0
6.86,168.47271360000005,9.2714064,2.3314152,-3.2970216000000003,0.0,0.0,0.0,0.0
6.880000000000001,169.79524080000002,6.018276,19.0304928,0.7668768,0.0,0.0,0.0,0.0
6.9,171.1333128,-3.7953696000000003,-4.3376088,-10.811256,0.0,0.0,0.0,0.0
6.92,172.5268584,-1.5724632,-1.2469368,-14.2618968,0.0,0.0,0.0,0.0
6.94,173.95088400000003,3.9035736000000005,-44.675755200000005,4.677156,0.0,0.0,0.0,0.0
6.960000000000001,175.58034480000003,4.5000672,-12.416028,-8.6645496,0.0,0.0,0.0,0.0
6.98,177.30642720000003,-22.7173536,17.837810400000002,0.6900672,0.0,0.0,0.0,0.0
7.0,178.9096752,-26.621232000000003,-12.3075192,-14.72184,0.0,0.0,0.0,0.0
7.0200000000000005,180.4196544,-12.199010400000002,-4.0663368,6.1341,0.0,0.0,0.0,0.0
7.040000000000001,181.96316160000003,-14.367967200000002,2.1143976,10.888065600000001,0.0,0.0,0.0,0.0
7.0600000000000005,183.5030112,-8.186928,0.9217152000000001,10.3513128,0.0,0.0,0.0,0.0
7.08,185.07577920000003,-14.259458400000002,1.4639544,11.4248184,0.0,0.0,0.0,0.0
7.1000000000000005,186.84910560000003,1.030224,-20.5487016,7.6675488,0.0,0.0,0.0,0.0
7.12,188.9199168,-8.837676,-5.0423064,9.3546168,0.0,0.0,0.0,0.0
7.140000000000001,191.13276480000002,-9.217152,-4.120591200000001,9.737750400000001,0.0,0.0,0.0,0.0
7.16,193.17035280000005,-12.036552,-0.7589520000000001,10.888065600000001,0.0,0.0,0.0,0.0
7.18,195.30852480000004,-11.1690912,0.1085088,11.04138,0.0,0.0,0.0,0.0
7.2,197.53417440000004,-12.9040128,2.1686520000000002,8.971178400000001,0.0,0.0,0.0,0.0
7.220000000000001,199.6412568,-11.440058400000002,-2.4399240000000004,9.047683200000002,0.0,0.0,0.0,0.0
7.24,201.96169920000003,-10.4640888,-2.7651456,8.971178400000001,0.0,0.0,0.0,0.0
7.26,204.16692720000003,-11.006328,-1.5724632,9.584436,0.0,0.0,0.0,0.0
7.28,206.389224,-9.217152,-0.5422392,9.6612456,0.0,0.0,0.0,0.0
7.300000000000001,208.61975040000004,-10.193121600000001,0.1085088,9.2778072,0.0,0.0,0.0,0.0
7.32,210.64545120000002,-8.6206584,-1.8976848000000002,9.2013024,0.0,0.0,0.0,0.0
7.34,212.6918784,-8.6206584,-3.6326064,10.5814368,0.0,0.0,0.0,0.0
7.36,214.7227608,-7.3737216000000005,-4.988052,11.1181896,0.0,0.0,0.0,0.0
7.380000000000001,216.75821520000002,-10.247376,-2.6566368,9.2778072,0.0,0.0,0.0,0.0
7.4,218.76105600000002,-9.379915200000001,-4.608576,9.4311216,0.0,0.0,0.0,0.0
7.42,220.73555040000005,-10.952073600000002,-5.205069600000001,7.591044000000001,0.0,0.0,0.0,0.0
7.44,222.57562800000002,-10.247376,-2.9818584,6.8241672,0.0,0.0,0.0,0.0
7.460000000000001,224.44313760000003,-8.024164800000001,-3.9035736000000005,8.357616,0.0,0.0,0.0,0.0
7.48,226.42769040000002,-9.2714064,-1.6806672000000002,8.2043016,0.0,0.0,0.0,0.0
7.5,228.55306080000003,-5.964021600000001,0.4337304,8.971178400000001,0.0,0.0,0.0,0.0
7.5200000000000005,230.60741280000002,-7.915960800000001,-0.1085088,8.817864,0.0,0.0,0.0,0.0
7.540000000000001,232.67639520000003,-9.867595200000002,1.3011912,8.8943688,0.0,0.0,0.0,0.0
7.5600000000000005,235.0331088,-11.5485672,5.476036800000001,9.4311216,0.0,0.0,0.0,0.0
7.58,237.56386320000001,-9.2714064,2.6566368,7.8208632,0.0,0.0,0.0,0.0
7.6000000000000005,240.1589304,-9.6508824,-0.650748,8.58774,0.0,0.0,0.0,0.0
7.62,242.8298928,-9.379915200000001,1.1387328,7.591044000000001,0.0,0.0,0.0,0.0
7.640000000000001,245.28962880000003,-12.361773600000001,-1.4097000000000002,6.2874144,0.0,0.0,0.0,0.0
7.66,247.74723120000004,-8.566404,-4.445812800000001,8.1277968,0.0,0.0,0.0,0.0
7.68,250.3358976,-7.5364848,-4.608576,8.741054400000001,0.0,0.0,0.0,0.0
7.7,252.79563360000003,-6.614769600000001,-2.6023824,8.4344256,0.0,0.0,0.0,0.0
7.720000000000001,255.22549920000003,-5.9097672,-2.6566368,9.2778072,0.0,0.0,0.0,0.0
7.74,257.46456,-7.6446888,-3.4158936000000004,7.5142344,0.0,0.0,0.0,0.0
7.76,259.74202560000003,-9.217152,0.1085088,8.1277968,0.0,0.0,0.0,0.0
7.78,261.95274,-9.976104,3.2531304000000003,6.6708528000000005,0.0,0.0,0.0,0.0
7.800000000000001,264.12718320000005,-9.7051368,-1.1387328,6.364224,0.0,0.0,0.0,0.0
7.82,266.2043952,-7.3737216000000005,-1.4097000000000002,6.4407288000000005,0.0,0.0,0.0,0.0
7.84,268.16425920000006,-6.9399912,-0.7589520000000001,7.9744824,0.0,0.0,0.0,0.0
7.86,269.8601664,-6.9399912,-0.2170176,7.9744824,0.0,0.0,0.0,0.0
7.880000000000001,271.5664368,-6.1267848,-1.4639544,7.5142344,0.0,0.0,0.0,0.0
7.9,273.128232,-5.476036800000001,-3.4158936000000004,8.2811112,0.0,0.0,0.0,0.0
7.92,274.63302960000004,-6.2349888,-2.3314152,8.2811112,0.0,0.0,0.0,0.0
7.94,276.2152464,-5.5302912,-1.5182088,6.9774816,0.0,0.0,0.0,0.0
7.960000000000001,277.8562896,-7.970215200000001,-2.7651456,8.1277968,0.0,0.0,0.0,0.0
7.98,279.41838960000007,-5.801258400000001,-1.1387328,7.0542912,0.0,0.0,0.0,0.0
8.0,280.97530800000004,-9.0001344,-1.4097000000000002,6.364224,0.0,0.0,0.0,0.0
8.02,282.70139040000004,-6.8314824000000005,0.1085088,6.9009768,0.0,0.0,0.0,0.0
8.040000000000001,284.1732696,-9.108643200000001,0.2170176,6.2109096,0.0,0.0,0.0,0.0
8.06,285.67410480000007,-9.2714064,0.0542544,5.5205376,0.0,0.0,0.0,0.0
8.08,287.12464800000004,-6.8314824000000005,-2.2771608000000003,6.9009768,0.0,0.0,0.0,0.0
8.100000000000001,288.6718128,-5.3132736,-4.554321600000001,6.8241672,0.0,0.0,0.0,0.0
8.120000000000001,290.1522264,-6.4520064,-3.5240976,6.6708528000000005,0.0,0.0,0.0,0.0
8.14,291.82466400000004,-6.397752,-2.0601432,7.6675488,0.0,0.0,0.0,0.0
8.16,293.38280160000005,-4.3376088,0.8674608,7.437729600000001,0.0,0.0,0.0,0.0
8.18,294.9162504,-5.801258400000001,0.7046976,7.130796,0.0,0.0,0.0,0.0
8.2,296.5588176,-4.3915584,0.7046976,7.8976728000000005,0.0,0.0,0.0,0.0
8.22,298.05660480000006,-4.3915584,1.1387328,7.130796,0.0,0.0,0.0,0.0
8.24,299.46203760000003,-7.5364848,-1.8976848000000002,5.367223200000001,0.0,0.0,0.0,0.0
8.26,301.07534400000003,-4.8252888,0.9217152000000001,6.0572904,0.0,0.0,0.0,0.0
8.280000000000001,302.7112056,-6.668719200000001,-0.8132064000000001,5.4440328000000004,0.0,0.0,0.0,0.0
8.3,304.2032016,-9.7051368,-0.5964936000000001,4.4473368,0.0,0.0,0.0,0.0
8.32,305.66045040000006,-5.964021600000001,-1.7349216,5.6741568000000004,0.0,0.0,0.0,0.0
8.34,307.22346480000004,-8.024164800000001,-3.1446216000000002,4.370527200000001,0.0,0.0,0.0,0.0
8.36,308.7508176,-7.156704,-2.4941784,4.984089600000001,0.0,0.0,0.0,0.0
8.379999999999999,310.2614064,-5.1508152,-0.0542544,6.5175384,0.0,0.0,0.0,0.0
8.4,311.8192392,-5.964021600000001,-0.4337304,5.827471200000001,0.0,0.0,0.0,0.0
8.42,313.2496656,-5.5302912,1.9519392,5.5205376,0.0,0.0,0.0,0.0
8.440000000000001,314.8132896,-6.777228,2.3314152,5.137404,0.0,0.0,0.0,0.0
8.46,316.4040408000001,-6.9399912,2.7108912000000003,4.6006512,0.0,0.0,0.0,0.0
8.48,318.11092080000003,-6.2349888,1.1387328,6.8241672,0.0,0.0,0.0,0.0
8.5,319.81292400000007,-5.8555128,1.1926824,5.827471200000001,0.0,0.0,0.0,0.0
8.52,321.40763760000004,-6.1267848,2.548128,5.060594400000001,0.0,0.0,0.0,0.0
8.54,323.0060088,-5.801258400000001,4.1748456,5.597347200000001,0.0,0.0,0.0,0.0
8.56,324.4812408000001,-5.7470040000000004,0.5422392,4.523841600000001,0.0,0.0,0.0,0.0
8.58,326.11771200000004,-6.9399912,0.9759696,3.9870888,0.0,0.0,0.0,0.0
8.600000000000001,327.8181912,-5.6930544,-0.8132064000000001,4.907280000000001,0.0,0.0,0.0,0.0
8.620000000000001,329.50464960000005,-4.608576,-3.198876,5.367223200000001,0.0,0.0,0.0,0.0
8.64,331.1237472,-6.2892432000000005,-3.0361128,4.4473368,0.0,0.0,0.0,0.0
8.66,332.71145040000005,-6.018276,-0.9217152000000001,4.6006512,0.0,0.0,0.0,0.0
8.68,334.41954960000004,-6.1267848,-1.1387328,5.2907184,0.0,0.0,0.0,0.0
8.7,336.10753200000005,-7.156704,-0.7589520000000001,4.1404032,0.0,0.0,0.0,0.0
8.72,337.7104752,-4.445812800000001,-1.3011912,6.747662400000001,0.0,0.0,0.0,0.0
8.74,339.27989040000006,-4.6628304,-1.0844784,5.4440328000000004,0.0,0.0,0.0,0.0
8.760000000000002,340.82126400000004,-4.2833544,1.6806672000000002,5.9807856,0.0,0.0,0.0,0.0
8.780000000000001,342.4723656,-5.259324,2.6566368,5.4440328000000004,0.0,0.0,0.0,0.0
8.8,344.0320272,-5.7470040000000004,2.4941784,4.4473368,0.0,0.0,0.0,0.0
8.82,345.5785824,-6.018276,2.2229064000000003,4.677156,0.0,0.0,0.0,0.0
8.84,347.2208448,-5.5845456,2.6566368,4.4473368,0.0,0.0,0.0,0.0
8.86,348.86706960000004,-6.2892432000000005,0.0,2.9903928,0.0,0.0,0.0,0.0
8.879999999999999,350.46635520000007,-7.3194672,0.0542544,2.7602688,0.0,0.0,0.0,0.0
8.9,352.1936568,-5.421782400000001,-0.4337304,4.2937176,0.0,0.0,0.0,0.0
8.92,353.78989440000004,-5.367528,-1.1387328,3.7572696000000003,0.0,0.0,0.0,0.0
8.940000000000001,355.288596,-4.120591200000001,-1.8434304000000001,4.4473368,0.0,0.0,0.0,0.0
8.96,356.710488,-3.4698432,-0.9759696,4.523841600000001,0.0,0.0,0.0,0.0
8.98,358.1488392,-5.259324,-0.37947600000000004,4.2172128,0.0,0.0,0.0,0.0
9.0,359.51312400000006,-4.120591200000001,0.1085088,5.2907184,0.0,0.0,0.0,0.0
9.02,360.9039264,-3.4698432,-1.4097000000000002,5.4440328000000004,0.0,0.0,0.0,0.0
9.04,362.31240720000005,-3.2531304000000003,0.3252216,5.597347200000001,0.0,0.0,0.0,0.0
9.06,363.8324448,-3.3616392,0.8674608,5.2907184,0.0,0.0,0.0,0.0
9.08,365.60363760000007,-2.548128,3.8496240000000004,5.9807856,0.0,0.0,0.0,0.0
9.100000000000001,367.3254528,-5.096560800000001,1.5182088,3.8337744,0.0,0.0,0.0,0.0
9.120000000000001,369.048792,-5.0423064,-0.0542544,4.370527200000001,0.0,0.0,0.0,0.0
9.14,370.7133048,-6.777228,0.2709672,3.1437072,0.0,0.0,0.0,0.0
9.16,372.4302432,-7.1024496,-2.0061936,2.9135831999999997,0.0,0.0,0.0,0.0
9.18,374.11426320000004,-5.9097672,-1.3554456000000001,2.6069544000000002,0.0,0.0,0.0,0.0
9.2,375.53280240000004,-4.3915584,-3.0903671999999998,4.0638984,0.0,0.0,0.0,0.0
9.22,377.08880640000007,-3.0361128,-3.4698432,4.370527200000001,0.0,0.0,0.0,0.0
9.24,378.6615744,-3.578352,-1.8434304000000001,4.2172128,0.0,0.0,0.0,0.0
9.260000000000002,380.06152080000004,-4.988052,-0.1085088,3.0672024,0.0,0.0,0.0,0.0
9.280000000000001,381.3270504000001,-4.2291,-0.650748,3.68046,0.0,0.0,0.0,0.0
9.3,382.48193760000004,-3.6868608000000003,-1.1926824,4.370527200000001,0.0,0.0,0.0,0.0
9.32,383.8754832,-2.8736544000000004,-0.5964936000000001,4.1404032,0.0,0.0,0.0,0.0
9.34,385.13948880000004,-2.6566368,-0.37947600000000004,4.7539656,0.0,0.0,0.0,0.0
9.36,386.29193760000004,-3.9035736000000005,0.1085088,3.3738312000000006,0.0,0.0,0.0,0.0
9.379999999999999,387.4072008,-3.3616392,0.8674608,4.6006512,0.0,0.0,0.0,0.0
9.4,388.52459760000005,-3.957828,-0.16276320000000002,3.450336,0.0,0.0,0.0,0.0
9.42,389.749284,-3.957828,0.8132064000000001,3.9870888,0.0,0.0,0.0,0.0
9.440000000000001,390.9413568,-4.5000672,0.7046976,4.0638984,0.0,0.0,0.0,0.0
9.46,392.28247680000004,-4.2291,1.7349216,3.6036504000000003,0.0,0.0,0.0,0.0
9.48,393.58915440000004,-4.6628304,0.5422392,3.68046,0.0,0.0,0.0,0.0
9.5,394.89034560000005,-4.7713392,1.1926824,3.2970216000000003,0.0,0.0,0.0,0.0
9.52,396.0702264,-4.8795432000000005,1.7349216,3.1437072,0.0,0.0,0.0,0.0
9.54,397.52899920000004,-4.7713392,0.5422392,3.2970216000000003,0.0,0.0,0.0,0.0
9.56,398.92284960000006,-5.5845456,0.4879848,2.3003256,0.0,0.0,0.0,0.0
9.58,400.29048720000003,-5.0423064,0.16276320000000002,2.3768304000000002,0.0,0.0,0.0,0.0
9.600000000000001,401.6038704,-4.554321600000001,1.3011912,3.0672024,0.0,0.0,0.0,0.0
9.620000000000001,402.9949776,-5.421782400000001,0.650748,1.9936968000000002,0.0,0.0,0.0,0.0
9.64,404.31689520000003,-4.6628304,0.8674608,2.0702016,0.0,0.0,0.0,0.0
9.66,405.67386480000005,-4.2291,1.9519392,3.0672024,0.0,0.0,0.0,0.0
9.68,407.043636,-3.6868608000000003,0.5422392,3.1437072,0.0,0.0,0.0,0.0
9.7,408.3094704,-3.4158936000000004,-0.5964936000000001,3.2970216000000003,0.0,0.0,0.0,0.0
9.72,409.7405064000001,-4.2833544,0.37947600000000004,3.2970216000000003,0.0,0.0,0.0,0.0
9.74,411.06821520000005,-2.3856696,-0.650748,3.910584,0.0,0.0,0.0,0.0
9.760000000000002,412.1722008,-1.4639544,-0.8132064000000001,4.4473368,0.0,0.0,0.0,0.0
9.780000000000001,413.45144640000007,-1.1926824,-1.0844784,4.2937176,0.0,0.0,0.0,0.0
9.8,414.8239608,-2.0601432,-0.4337304,3.9870888,0.0,0.0,0.0,0.0
9.82,416.1809304,-3.0903671999999998,-0.7046976,3.3738312000000006,0.0,0.0,0.0,0.0
9.84,417.4534704,-2.548128,-0.2709672,3.7572696000000003,0.0,0.0,0.0,0.0
9.86,418.66139280000004,-2.4399240000000004,-0.37947600000000004,3.7572696000000003,0.0,0.0,0.0,0.0
9.879999999999999,419.9747760000001,-2.6023824,0.0,3.5271456,0.0,0.0,0.0,0.0
9.9,421.2052536,-3.0361128,0.1085088,3.0672024,0.0,0.0,0.0,0.0
9.92,422.4729168,-3.3073848000000003,0.0542544,4.0638984,0.0,0.0,0.0,0.0
9.940000000000001,423.7286928000001,-3.4698432,-0.8674608,2.3003256,0.0,0.0,0.0,0.0
9.96,424.8969912,-2.9279088,-0.5422392,3.1437072,0.0,0.0,0.0,0.0
9.98,426.07656720000006,-3.4698432,-0.5422392,2.9903928,0.0,0.0,0.0,0.0
10.0,427.2220056,-3.8496240000000004,0.0542544,2.9903928,0.0,0.0,0.0,0.0
10.02,428.42200320000006,-3.7411152,-0.16276320000000002,2.8370784000000002,0.0,0.0,0.0,0.0
10.04,429.65491920000005,-3.6868608000000003,0.1085088,2.8370784000000002,0.0,0.0,0.0,0.0
10.06,430.9177056,-4.1748456,0.2709672,2.3003256,0.0,0.0,0.0,0.0
10.08,432.05613360000007,-4.5000672,-0.16276320000000002,2.7602688,0.0,0.0,0.0,0.0
10.100000000000001,433.3807944,-4.2833544,-0.0542544,2.3003256,0.0,0.0,0.0,0.0
10.120000000000001,434.6685744,-3.4698432,0.2170176,2.5304496,0.0,0.0,0.0,0.0
10.14,435.82346160000003,-3.9035736000000005,0.7589520000000001,2.683764,0.0,0.0,0.0,0.0
10.16,436.9256184,-2.9279088,-0.1085088,2.4536400000000005,0.0,0.0,0.0,0.0
10.18,438.12378720000004,-2.7651456,0.16276320000000002,2.8370784000000002,0.0,0.0,0.0,0.0
10.2,439.29757200000006,-2.8736544000000004,-0.9217152000000001,2.9135831999999997,0.0,0.0,0.0,0.0
10.22,440.3143848000001,-2.9279088,-0.1085088,2.3768304000000002,0.0,0.0,0.0,0.0
10.24,441.4384872,-3.3073848000000003,-0.8132064000000001,2.5304496,0.0,0.0,0.0,0.0
10.260000000000002,442.44310800000005,-2.8194000000000004,-0.5422392,2.4536400000000005,0.0,0.0,0.0,0.0
10.280000000000001,443.62969440000006,-3.4158936000000004,0.8132064000000001,2.6069544000000002,0.0,0.0,0.0,0.0
10.3,444.81658560000005,-3.3073848000000003,-0.37947600000000004,2.4536400000000005,0.0,0.0,0.0,0.0
10.32,446.0327376,-3.1446216000000002,0.5422392,2.5304496,0.0,0.0,0.0,0.0
10.34,447.1592784,-2.7108912000000003,0.5422392,2.5304496,0.0,0.0,0.0,0.0
10.36,448.34190240000004,-3.198876,0.8132064000000001,2.5304496,0.0,0.0,0.0,0.0
10.379999999999999,449.36907840000003,-2.4399240000000004,0.8132064000000001,2.9135831999999997,0.0,0.0,0.0,0.0
10.4,450.52823280000007,-2.8194000000000004,0.7589520000000001,2.3003256,0.0,0.0,0.0,0.0
10.42,451.57186800000005,-2.6023824,0.1085088,2.5304496,0.0,0.0,0.0,0.0
10.440000000000001,452.74047120000006,-2.3314152,0.8132064000000001,2.683764,0.0,0.0,0.0,0.0
10.46,453.79934640000005,-2.1143976,0.37947600000000004,2.9903928,0.0,0.0,0.0,0.0
10.48,455.0215944,-2.2771608000000003,0.5422392,2.5304496,0.0,0.0,0.0,0.0
10.5,456.12923760000007,-1.5724632,0.7046976,2.8370784000000002,0.0,0.0,0.0,0.0
10.52,457.21371600000003,-2.2229064000000003,1.8976848000000002,2.8370784000000002,0.0,0.0,0.0,0.0
10.54,458.3058144,-2.1686520000000002,0.7589520000000001,2.223516,0.0,0.0,0.0,0.0
10.56,459.4558248,-2.2229064000000003,0.37947600000000004,2.3003256,0.0,0.0,0.0,0.0
10.58,460.4912304,-2.548128,0.4879848,1.9936968000000002,0.0,0.0,0.0,0.0
10.600000000000001,461.61563760000007,-3.0903671999999998,0.5964936000000001,2.5304496,0.0,0.0,0.0,0.0
10.620000000000001,462.64372800000007,-2.3856696,-0.5422392,1.9168872,0.0,0.0,0.0,0.0
10.64,463.66938000000005,-2.548128,0.0542544,1.9168872,0.0,0.0,0.0,0.0
10.66,464.79195840000006,-2.6566368,-0.0542544,1.7635728,0.0,0.0,0.0,0.0
10.68,465.78042480000005,-2.6566368,0.4879848,1.8400776,0.0,0.0,0.0,0.0
10.7,466.9100136,-3.2531304000000003,1.0844784,1.8400776,0.0,0.0,0.0,0.0
10.72,467.9265216,-3.0903671999999998,0.4879848,1.7635728,0.0,0.0,0.0,0.0
10.74,468.9384576,-2.2229064000000003,1.030224,1.9168872,0.0,0.0,0.0,0.0
10.760000000000002,469.972644,-2.2771608000000003,0.3252216,2.3003256,0.0,0.0,0.0,0.0
10.780000000000001,471.02085120000004,-1.9519392,0.2170176,2.6069544000000002,0.0,0.0,0.0,0.0
10.8,471.9544536,-2.1143976,-0.37947600000000004,1.9168872,0.0,0.0,0.0,0.0
10.82,472.976448,-1.5182088,0.2170176,2.223516,0.0,0.0,0.0,0.0
10.84,473.90425920000007,-1.5182088,-0.650748,1.9936968000000002,0.0,0.0,0.0,0.0
10.86,474.8150016000001,-1.9519392,-0.2170176,2.223516,0.0,0.0,0.0,0.0
10.879999999999999,475.7492136,-1.5724632,-0.4879848,2.3003256,0.0,0.0,0.0,0.0
10.9,476.528892,-1.3011912,0.3252216,2.223516,0.0,0.0,0.0,0.0
10.92,477.45396000000005,-1.8434304000000001,0.650748,2.1470112,0.0,0.0,0.0,0.0
10.940000000000001,478.3250784,-1.6806672000000002,1.5724632,1.9936968000000002,0.0,0.0,0.0,0.0
10.96,479.35164480000003,-1.6264128000000002,1.3011912,2.5304496,0.0,0.0,0.0,0.0
10.98,480.36601920000004,-2.0601432,0.8674608,2.0702016,0.0,0.0,0.0,0.0
11.0,481.53066,-2.2229064000000003,0.4879848,1.9168872,0.0,0.0,0.0,0.0
11.02,482.4319536,-2.7651456,0.5964936000000001,1.2268200000000002,0.0,0.0,0.0,0.0
11.04,483.3710424,-2.7108912000000003,-0.4337304,1.0735056,0.0,0.0,0.0,0.0
11.06,484.33177200000006,-2.6566368,-0.0542544,1.2268200000000002,0.0,0.0,0.0,0.0
11.08,485.47812480000005,-2.6566368,-0.4879848,1.4569440000000002,0.0,0.0,0.0,0.0
11.100000000000001,486.52755120000006,-3.0361128,0.5422392,1.1500104,0.0,0.0,0.0,0.0
11.120000000000001,487.5193704,-2.1686520000000002,0.9759696,1.6102584000000002,0.0,0.0,0.0,0.0
11.14,488.5553856,-2.2771608000000003,0.0,1.0735056,0.0,0.0,0.0,0.0
11.16,489.58042800000004,-2.3314152,1.030224,1.5334488,0.0,0.0,0.0,0.0
11.18,490.58108640000006,-2.3314152,0.8132064000000001,1.3801344,0.0,0.0,0.0,0.0
11.2,491.5186512,-2.0601432,0.4337304,1.3801344,0.0,0.0,0.0,0.0
11.22,492.38032080000005,-2.0601432,0.4337304,1.1500104,0.0,0.0,0.0,0.0
11.24,493.33891680000005,-1.8434304000000001,0.9759696,1.5334488,0.0,0.0,0.0,0.0
11.260000000000002,494.29934160000005,-1.8976848000000002,0.8132064000000001,1.3036296,0.0,0.0,0.0,0.0
11.280000000000001,495.2600712000001,-2.0061936,0.4879848,1.2268200000000002,0.0,0.0,0.0,0.0
11.3,496.3332720000001,-2.4941784,0.9759696,1.4569440000000002,0.0,0.0,0.0,0.0
11.32,497.2053048,-1.5724632,0.2709672,1.3036296,0.0,0.0,0.0,0.0
11.34,498.02796000000006,-1.6264128000000002,0.650748,1.6102584000000002,0.0,0.0,0.0,0.0
11.36,498.75948000000005,-1.6264128000000002,0.7589520000000001,1.6867632000000001,0.0,0.0,0.0,0.0
11.379999999999999,499.59006000000005,-1.3554456000000001,0.5964936000000001,1.6102584000000002,0.0,0.0,0.0,0.0
11.4,500.43953760000005,-1.1926824,0.650748,1.7635728,0.0,0.0,0.0,0.0
11.42,501.298464,-1.5182088,0.2170176,1.4569440000000002,0.0,0.0,0.0,0.0
11.440000000000001,502.0811904,-2.1686520000000002,0.1085088,1.1500104,0.0,0.0,0.0,0.0
11.46,502.83648480000005,-1.5724632,0.16276320000000002,1.3801344,0.0,0.0,0.0,0.0
11.48,503.5609944,-1.5724632,0.7046976,1.3801344,0.0,0.0,0.0,0.0
11.5,504.265692,-1.4097000000000002,0.9759696,1.1500104,0.0,0.0,0.0,0.0
11.52,505.0237296,-1.3011912,0.0,1.6102584000000002,0.0,0.0,0.0,0.0
11.54,505.82413440000005,-1.7349216,1.0844784,1.2268200000000002,0.0,0.0,0.0,0.0
11.56,506.68641360000004,-1.3554456000000001,0.9217152000000001,1.4569440000000002,0.0,0.0,0.0,0.0
11.58,507.4282968,-1.030224,1.1387328,1.4569440000000002,0.0,0.0,0.0,0.0
11.600000000000001,508.23388320000004,-1.1926824,0.650748,1.3801344,0.0,0.0,0.0,0.0
11.620000000000001,509.03276400000004,-1.6264128000000002,0.8674608,1.2268200000000002,0.0,0.0,0.0,0.0
11.64,509.86334400000004,-1.6806672000000002,0.37947600000000004,1.1500104,0.0,0.0,0.0,0.0
11.66,510.58572000000004,-1.789176,0.7046976,0.7668768,0.0,0.0,0.0,0.0
11.68,511.5226752,-1.789176,1.030224,0.6900672,0.0,0.0,0.0,0.0
11.7,512.3072304,-1.789176,0.16276320000000002,0.6900672,0.0,0.0,0.0,0.0
11.72,513.1143408,-2.0601432,0.2170176,0.6900672,0.0,0.0,0.0,0.0
11.74,513.8815224,-1.8976848000000002,0.16276320000000002,0.8433816000000001,0.0,0.0,0.0,0.0
11.760000000000002,514.71576,-2.0061936,0.0542544,0.4599432,0.0,0.0,0.0,0.0
11.780000000000001,515.5411584000001,-2.1143976,0.5964936000000001,0.4599432,0.0,0.0,0.0,0.0
11.8,516.2772504000001,-1.8976848000000002,0.7046976,0.8433816000000001,0.0,0.0,0.0,0.0
11.82,516.9840816000001,-2.1143976,0.8132064000000001,0.3834384,0.0,0.0,0.0,0.0
11.84,517.8036888,-1.7349216,0.650748,0.5367528,0.0,0.0,0.0,0.0
11.86,518.6641392,-1.7349216,0.8674608,0.4599432,0.0,0.0,0.0,0.0
11.879999999999999,519.5108736000001,-1.7349216,0.7589520000000001,0.6135624,0.0,0.0,0.0,0.0
11.9,520.4194824,-1.7349216,0.4337304,0.6900672,0.0,0.0,0.0,0.0
11.92,521.0787648,-1.8976848000000002,0.8132064000000001,0.6135624,0.0,0.0,0.0,0.0
11.940000000000001,521.8011408000001,-1.5182088,0.3252216,0.6135624,0.0,0.0,0.0,0.0
11.96,522.4872456,-1.4639544,0.7046976,0.6900672,0.0,0.0,0.0,0.0
11.98,523.3239216000001,-1.5182088,0.8674608,0.6135624,0.0,0.0,0.0,0.0
12.0,523.9429704,-1.5724632,0.7046976,0.6900672,0.0,0.0,0.0,0.0
12.02,524.4842952,-1.5724632,1.030224,0.4599432,0.0,0.0,0.0,0.0
12.04,525.1892976,-1.4639544,1.1387328,0.6135624,0.0,0.0,0.0,0.0
12.06,525.9284376,-1.3554456000000001,0.16276320000000002,0.6900672,0.0,0.0,0.0,0.0
12.08,526.6337448,-1.3554456000000001,0.16276320000000002,0.7668768,0.0,0.0,0.0,0.0
12.100000000000001,527.3759328000001,-1.3011912,-0.3252216,0.6135624,0.0,0.0,0.0,0.0
12.120000000000001,528.0821544,-1.0844784,0.650748,0.5367528,0.0,0.0,0.0,0.0
12.14,528.763992,-0.9759696,0.2170176,0.7668768,0.0,0.0,0.0,0.0
12.16,529.4409528,-1.1387328,0.37947600000000004,0.8433816000000001,0.0,0.0,0.0,0.0
12.18,530.0429328,-1.0844784,0.4337304,0.7668768,0.0,0.0,0.0,0.0
12.2,530.9765352000001,-0.8674608,0.5422392,0.996696,0.0,0.0,0.0,0.0
12.22,531.7281720000001,-1.030224,0.4879848,0.6900672,0.0,0.0,0.0,0.0
12.24,532.4478048,-0.8132064000000001,0.9217152000000001,0.9201912000000001,0.0,0.0,0.0,0.0
12.260000000000002,533.1534168000001,-0.8132064000000001,0.7046976,0.996696,0.0,0.0,0.0,0.0
12.280000000000001,533.9145024000001,-0.7589520000000001,0.5422392,0.996696,0.0,0.0,0.0,0.0
12.3,534.5859768,-0.7589520000000001,0.5422392,0.9201912000000001,0.0,0.0,0.0,0.0
12.32,535.27452,-0.8132064000000001,0.9217152000000001,0.8433816000000001,0.0,0.0,0.0,0.0
12.34,535.9453848,-0.5964936000000001,0.8132064000000001,0.9201912000000001,0.0,0.0,0.0,0.0
12.36,536.6177736000001,-0.5964936000000001,1.1387328,0.7668768,0.0,0.0,0.0,0.0
12.379999999999999,537.3121080000001,-0.37947600000000004,1.030224,0.9201912000000001,0.0,0.0,0.0,0.0
12.399999999999999,537.9887640000001,-0.7589520000000001,1.0844784,0.9201912000000001,0.0,0.0,0.0,0.0
12.420000000000002,538.64256,-0.650748,1.1926824,0.7668768,0.0,0.0,0.0,0.0
12.440000000000001,539.3143392000001,-0.7589520000000001,1.1926824,0.6900672,0.0,0.0,0.0,0.0
12.46,539.9144904000001,-0.7589520000000001,1.1926824,0.6135624,0.0,0.0,0.0,0.0
12.48,540.4497192000001,-0.8674608,0.8674608,0.5367528,0.0,0.0,0.0,0.0
12.5,541.0837032000001,-1.2469368,1.030224,0.4599432,0.0,0.0,0.0,0.0
12.52,541.6180176,-1.0844784,1.1926824,0.30662880000000003,0.0,0.0,0.0,0.0
12.54,542.2154256,-1.5724632,1.1387328,0.0768096,0.0,0.0,0.0,0.0
12.559999999999999,542.743644,-1.7349216,1.1926824,0.23012400000000002,0.0,0.0,0.0,0.0
12.580000000000002,543.3998784,-1.8976848000000002,1.4639544,-0.15331440000000002,0.0,0.0,0.0,0.0
12.600000000000001,543.9753408,-2.1143976,1.5724632,-0.15331440000000002,0.0,0.0,0.0,0.0
12.620000000000001,544.59378,-2.1143976,1.6806672000000002,-0.23012400000000002,0.0,0.0,0.0,0.0
12.64,545.2356888,-2.1143976,1.5724632,-0.23012400000000002,0.0,0.0,0.0,0.0
12.66,546.0556008,-2.0601432,1.3011912,-0.30662880000000003,0.0,0.0,0.0,0.0
12.68,546.632892,-2.1143976,1.4639544,-0.4599432,0.0,0.0,0.0,0.0
12.7,547.2303,-1.8976848000000002,0.9217152000000001,-0.23012400000000002,0.0,0.0,0.0,0.0
12.719999999999999,547.7661384,-2.0601432,0.9759696,-0.30662880000000003,0.0,0.0,0.0,0.0
12.740000000000002,548.3470872,-1.9519392,0.9759696,-0.3834384,0.0,0.0,0.0,0.0
12.760000000000002,548.9673552,-1.7349216,1.0844784,-0.30662880000000003,0.0,0.0,0.0,0.0
12.780000000000001,549.4836864,-1.5182088,0.9759696,-0.23012400000000002,0.0,0.0,0.0,0.0
12.8,550.1225472,-1.6806672000000002,1.030224,-0.15331440000000002,0.0,0.0,0.0,0.0
12.82,550.6980096,-1.5724632,0.5964936000000001,-0.15331440000000002,0.0,0.0,0.0,0.0
12.84,551.3426616,-1.6264128000000002,0.650748,-0.15331440000000002,0.0,0.0,0.0,0.0
12.86,551.8675272,-1.4639544,0.7046976,-0.23012400000000002,0.0,0.0,0.0,0.0
12.879999999999999,552.4570104000001,-1.4639544,0.4879848,-0.0768096,0.0,0.0,0.0,0.0
12.899999999999999,552.9754752,-1.3554456000000001,0.37947600000000004,0.0,0.0,0.0,0.0,0.0
12.920000000000002,553.4360280000001,-1.1926824,0.4337304,0.0,0.0,0.0,0.0,0.0
12.940000000000001,553.9447392000001,-1.4097000000000002,0.3252216,-0.23012400000000002,0.0,0.0,0.0,0.0
12.96,554.4619848000001,-1.3011912,0.3252216,-0.15331440000000002,0.0,0.0,0.0,0.0
12.98,554.9295480000001,-1.1387328,0.0542544,0.0,0.0,0.0,0.0,0.0
13.0,555.3696792000001,-1.1387328,0.2709672,0.0,0.0,0.0,0.0,0.0
13.02,555.9512376,-1.1387328,0.0542544,0.0768096,0.0,0.0,0.0,0.0
13.04,556.517556,-1.1387328,0.16276320000000002,0.0768096,0.0,0.0,0.0,0.0
13.059999999999999,557.0381544,-0.8674608,0.4337304,0.0768096,0.0,0.0,0.0,0.0
13.080000000000002,557.6718336,-0.8132064000000001,0.37947600000000004,0.0,0.0,0.0,0.0,0.0
13.100000000000001,558.1275096,-0.7589520000000001,0.5422392,0.0768096,0.0,0.0,0.0,0.0
13.120000000000001,558.5359416000001,-0.8674608,0.5422392,0.23012400000000002,0.0,0.0,0.0,0.0
13.14,558.9925320000001,-0.7046976,0.5964936000000001,0.23012400000000002,0.0,0.0,0.0,0.0
13.16,559.5378192000001,-0.4879848,0.4879848,0.30662880000000003,0.0,0.0,0.0,0.0
13.18,560.0855448,-0.4337304,0.4337304,0.23012400000000002,0.0,0.0,0.0,0.0
13.2,560.5479264,-0.4337304,0.8674608,0.30662880000000003,0.0,0.0,0.0,0.0
13.219999999999999,561.0157944,-0.5964936000000001,0.5964936000000001,0.23012400000000002,0.0,0.0,0.0,0.0
13.240000000000002,561.5577288000001,-0.37947600000000004,0.7046976,0.23012400000000002,0.0,0.0,0.0,0.0
13.260000000000002,562.0219392,-0.3252216,0.8674608,0.3834384,0.0,0.0,0.0,0.0
13.280000000000001,562.5641784000001,-0.3252216,0.8674608,0.23012400000000002,0.0,0.0,0.0,0.0
13.3,563.1436032,-0.2709672,0.8132064000000001,0.30662880000000003,0.0,0.0,0.0,0.0
13.32,563.6431704,-0.37947600000000004,0.7046976,0.30662880000000003,0.0,0.0,0.0,0.0
13.34,564.006492,-0.4337304,0.8674608,0.23012400000000002,0.0,0.0,0.0,0.0
13.36,564.3545736,-0.2709672,0.7046976,0.30662880000000003,0.0,0.0,0.0,0.0
13.379999999999999,564.8608464,-0.2709672,0.5964936000000001,0.23012400000000002,0.0,0.0,0.0,0.0
13.399999999999999,565.2412368,-0.37947600000000004,0.7046976,0.23012400000000002,0.0,0.0,0.0,0.0
13.420000000000002,565.6902072,-0.5422392,0.5422392,0.0768096,0.0,0.0,0.0,0.0
13.440000000000001,566.0648064000001,-0.650748,0.8674608,0.0768096,0.0,0.0,0.0,0.0
13.46,566.52414,-0.8132064000000001,0.8132064000000001,0.0,0.0,0.0,0.0,0.0
13.48,566.9091024,-0.8132064000000001,0.9217152000000001,0.0768096,0.0,0.0,0.0,0.0
13.5,567.4882224,-0.650748,0.7589520000000001,0.0768096,0.0,0.0,0.0,0.0
13.52,567.9304872,-0.7046976,0.8132064000000001,0.0768096,0.0,0.0,0.0,0.0
13.54,568.3565976000001,-0.4879848,0.5964936000000001,0.0,0.0,0.0,0.0,0.0
13.559999999999999,568.7229672000001,-0.4879848,0.7046976,0.0768096,0.0,0.0,0.0,0.0
13.580000000000002,569.1957120000001,-0.4879848,0.7046976,0.15331440000000002,0.0,0.0,0.0,0.0
13.600000000000001,569.593476,-0.5422392,0.650748,-0.15331440000000002,0.0,0.0,0.0,0.0
13.620000000000001,570.0153192,-0.5422392,0.650748,0.0,0.0,0.0,0.0,0.0
13.64,570.422532,-0.5422392,0.5422392,0.0,0.0,0.0,0.0,0.0
13.66,570.7611648000001,-0.5964936000000001,0.4879848,0.0,0.0,0.0,0.0,0.0
13.68,571.0147584000001,-0.7046976,0.5964936000000001,0.0,0.0,0.0,0.0,0.0
13.7,571.5435864,-0.650748,0.650748,-0.15331440000000002,0.0,0.0,0.0,0.0
13.719999999999999,571.8874008,-0.4879848,0.5964936000000001,0.0768096,0.0,0.0,0.0,0.0
13.740000000000002,572.2714488,-0.5964936000000001,0.5964936000000001,-0.0768096,0.0,0.0,0.0,0.0
13.760000000000002,572.6625072,-0.5422392,0.650748,-0.0768096,0.0,0.0,0.0,0.0
13.780000000000001,573.0614904,-0.5422392,0.5422392,-0.0768096,0.0,0.0,0.0,0.0
13.8,573.4345656,-0.5422392,0.650748,0.0,0.0,0.0,0.0,0.0
13.82,573.7393656,-0.4879848,0.4879848,-0.15331440000000002,0.0,0.0,0.0,0.0
13.84,574.0941528000001,-0.37947600000000004,0.5964936000000001,-0.0768096,0.0,0.0,0.0,0.0
13.86,574.4727144,-0.5422392,0.650748,-0.15331440000000002,0.0,0.0,0.0,0.0
13.879999999999999,574.8211008000001,-0.650748,0.650748,-0.0768096,0.0,0.0,0.0,0.0
13.899999999999999,575.3200584000001,-0.650748,0.5422392,-0.23012400000000002,0.0,0.0,0.0,0.0
13.920000000000002,575.5779192000001,-0.5422392,0.5422392,-0.15331440000000002,0.0,0.0,0.0,0.0
13.940000000000001,575.819016,-0.5422392,0.5422392,-0.23012400000000002,0.0,0.0,0.0,0.0
13.96,576.1448472000001,-0.5422392,0.5422392,-0.0768096,0.0,0.0,0.0,0.0
13.98,576.4295304,-0.5964936000000001,0.4879848,-0.15331440000000002,0.0,0.0,0.0,0.0
14.0,576.8989224000001,-0.4879848,0.4879848,-0.15331440000000002,0.0,0.0,0.0,0.0
14.02,577.2829704000001,-0.5964936000000001,0.5964936000000001,-0.23012400000000002,0.0,0.0,0.0,0.0
14.04,577.5889896000001,-0.7046976,0.37947600000000004,-0.0768096,0.0,0.0,0.0,0.0
14.059999999999999,577.9026288,-0.5964936000000001,0.4879848,-0.30662880000000003,0.0,0.0,0.0,0.0
14.080000000000002,578.1452496,-0.5422392,0.4337304,-0.30662880000000003,0.0,0.0,0.0,0.0
14.100000000000001,578.5161912,-0.650748,0.4337304,-0.3834384,0.0,0.0,0.0,0.0
14.120000000000001,578.8737216000001,-0.4879848,0.37947600000000004,-0.23012400000000002,0.0,0.0,0.0,0.0
14.14,579.171816,-0.5964936000000001,0.2709672,-0.30662880000000003,0.0,0.0,0.0,0.0
14.16,579.4217520000001,-0.5964936000000001,0.2709672,-0.23012400000000002,0.0,0.0,0.0,0.0
14.18,579.575676,-0.5422392,0.4337304,-0.30662880000000003,0.0,0.0,0.0,0.0
14.2,579.8429856,-0.5422392,0.2170176,-0.23012400000000002,0.0,0.0,0.0,0.0
14.219999999999999,580.284336,-0.4879848,0.4879848,-0.23012400000000002,0.0,0.0,0.0,0.0
14.240000000000002,580.5251280000001,-0.5964936000000001,0.4879848,-0.30662880000000003,0.0,0.0,0.0,0.0
14.260000000000002,580.8308424,-0.5422392,0.3252216,-0.23012400000000002,0.0,0.0,0.0,0.0
14.280000000000001,581.0539560000001,-0.4879848,0.37947600000000004,-0.30662880000000003,0.0,0.0,0.0,0.0
14.3,581.2569528,-0.5964936000000001,0.37947600000000004,-0.23012400000000002,0.0,0.0,0.0,0.0
14.32,581.6333808,-0.5964936000000001,0.5964936000000001,-0.15331440000000002,0.0,0.0,0.0,0.0
14.34,581.9869488,-0.4879848,0.2709672,-0.23012400000000002,0.0,0.0,0.0,0.0
14.36,582.3487464000001,-0.5422392,0.4337304,-0.30662880000000003,0.0,0.0,0.0,0.0
14.379999999999999,582.6806736000001,-0.4337304,0.4337304,-0.15331440000000002,0.0,0.0,0.0,0.0
14.399999999999999,582.9488976000001,-0.4879848,0.4879848,-0.15331440000000002,0.0,0.0,0.0,0.0
14.420000000000002,583.3332504000001,-0.37947600000000004,0.2709672,-0.0768096,0.0,0.0,0.0,0.0
