time,baro_altitude,accl_x,accl_y,accl_z,gps_altitude,gyro_roll,gyro_pitch,gyro_yaw
0.0,0.0,2.029599315,-98.94296551,-0.478679107,0.0,0.007956895,1.498896599,0.011074275
1.239,162.6085358,-1.196697731,12.24939835,-4.212376493,0.0,0.065480672,4.198809624,-0.088527121
1.269,182.9967194,-1.196697731,12.1393012,-5.31812464,0.0,0.089449123,4.143415928,-0.101842925
1.32,182.9967194,-0.933424255,12.22067807,-5.404286659,0.0,0.076665945,4.07417345,-0.113028206
1.3699999999999999,182.9967194,-0.933424255,12.22067807,-5.404286659,0.0,0.076665945,4.07417345,-0.113028206
1.42,182.9967194,-0.933424255,12.22067807,-5.404286659,0.0,0.076665945,4.07417345,-0.113028206
1.472,231.9818878,-1.895569378,12.46480398,-5.389927101,0.0,0.069211118,3.828629971,-0.18067582
1.52,231.9818878,-1.742391953,12.32120023,-5.179308379,0.0,0.030861598,3.942080736,-0.146054715
1.569,255.0448303,-1.364235517,12.22546439,-4.27939117,0.0,0.022872113,4.042215824,-0.122086257
1.621,255.0448303,-1.526986322,12.12015591,-4.178868425,0.0,0.025002642,4.057129383,-0.117825203
1.669,278.5997925,-1.603574961,11.9478307,-4.078345972,0.0,0.042046875,4.15406847,-0.086932532
1.8719999999999999,301.8087463,-0.493039504,11.70370362,-3.795925373,0.0,0.065482698,4.146611691,-0.100248337
1.92,326.8488464,-0.435597988,11.46915152,-3.977823228,0.0,0.110754155,3.944211006,-0.134865716
1.97,351.9042358,-1.139256215,11.22502444,-3.781564939,0.0,0.05322988,3.774833918,-0.151909947
2.019,351.9042358,-0.732379058,11.08620818,-4.131000799,0.0,0.041511968,3.788682461,-0.149246782
2.0700000000000003,376.5739746,-1.100961895,10.99047351,-4.102279639,0.0,0.051099349,3.759920359,-0.157236263
2.12,376.5739746,-1.172763918,10.8947365,-3.791138756,0.0,0.054827776,3.804128647,-0.152442575
2.171,400.9155884,-1.153616722,10.77985303,-4.202802676,0.0,0.058023568,3.902665615,-0.1114299
2.221,400.9155884,-1.144043051,10.63146412,-3.704976445,0.0,0.067078315,3.925568819,-0.0933204
2.274,424.1881714,-0.598348866,10.59316885,-3.197576398,0.0,0.070274107,3.920242548,-0.089059345
2.326,424.1881714,-1.124895854,10.50700567,-3.460849947,0.0,0.076133057,3.897871971,-0.09545093
2.371,447.0960083,-0.382943308,10.38733587,-3.953889561,0.0,0.061219361,3.864316225,-0.092787772
2.483,447.0960083,-0.191471636,10.29160004,-3.537438732,0.0,0.040446702,3.610250711,-0.165225759
2.519,447.0960083,-0.215405595,10.23894579,-3.996970862,0.0,0.035653014,3.56870532,-0.174280494
2.57,516.7423096,-1.507839271,10.0043937,-3.709763062,0.0,0.029794058,3.690145493,-0.146583632
2.621,516.7423096,-2.163629544,9.832068491,-2.651882249,0.0,0.027130896,3.919177294,-0.072015114
2.672,538.9639282,-1.163190174,9.836855984,-2.929516232,0.0,0.032989852,3.990550041,-0.03526349
2.92,538.9639282,-0.770673378,9.659744453,-2.307233444,0.0,0.133119822,3.553790808,-0.123672448
2.973,606.019165,-1.048307215,9.171491456,-4.647974372,0.0,0.061214473,3.403055906,-0.115150325
3.024,627.7709351,0.268060293,9.051821661,-3.479996997,0.0,-0.01388667,3.310378075,-0.132727191
3.076,627.7709351,-0.186684855,9.023101377,-2.307233444,0.0,-0.027735107,3.200655699,-0.181196719
3.121,627.7709351,-1.062667575,8.965660226,-2.35510107,0.0,-0.006962451,3.230483055,-0.183327243
3.173,649.9932861,-0.880769502,8.970447135,-3.063546461,0.0,0.043104976,3.367369652,-0.16202195
3.223,649.9932861,-0.890343173,8.783761787,-2.675816208,0.0,0.070801854,3.490940332,-0.125270337
3.27,671.175415,-1.483905312,8.664091992,-3.120987612,0.0,0.093705043,3.595336199,-0.07786607
3.33,671.175415,-1.426463723,8.668878317,-3.034825593,0.0,0.093705043,3.595336199,-0.07786607
3.3689999999999998,691.7520142,-0.497826304,8.501341188,-2.580080372,0.0,0.065475538,3.663513184,-0.044310242
3.42,691.7520142,0.210618814,8.491767955,-2.565719938,0.0,0.066008165,3.628359318,-0.043777611
3.472,712.6067505,0.583988505,8.352951109,-2.345527691,0.0,0.061214473,3.515441418,-0.075735547
3.522,712.6067505,-0.387730107,8.257214105,-2.814633054,0.0,0.100096628,3.267234802,-0.146042988
3.575,734.9276123,-0.871195976,8.13754431,-3.03961221,0.0,0.098498732,3.233146191,-0.151369318
3.621,755.8013916,-0.981292173,8.07531625,-3.140134954,0.0,0.061747108,3.31304121,-0.115150325
3.67,755.8013916,-0.832901584,8.027448916,-2.958236808,0.0,0.045235507,3.327422142,-0.099703997
3.723,755.8013916,-0.775460213,7.883844578,-2.31202006,0.0,0.02393022,3.359380245,-0.089583986
3.77,775.5783691,-0.344648951,7.821616518,-3.044399118,0.0,0.028191278,3.361510754,-0.084257662
3.821,795.3751221,-0.378156509,7.663652623,-1.862061602,0.0,0.040441815,3.344999075,-0.090649247
3.874,795.3751221,-0.248913134,7.668439531,-1.981731397,0.0,0.039909184,3.32049799,-0.101834521
3.922,815.6053467,-0.828114894,7.539195919,-1.953010675,0.0,0.10488838,3.366304159,-0.079993427
3.969,815.6053467,-0.641429985,7.481754184,-2.149269256,0.0,0.108084179,3.355651379,-0.065612361
4.0200000000000005,815.6053467,-0.392516869,7.424313033,-2.436476618,0.0,0.118204191,3.314638853,-0.061883938
4.073,835.2548218,-0.234552773,7.333364105,-2.49870497,0.0,0.098496795,3.25711441,-0.079460792
4.12,835.2548218,-0.545694222,7.25677532,-3.207149923,0.0,0.062277801,3.206514359,-0.083721854
4.171,874.836731,-0.071801868,7.218480635,-2.503491879,0.0,0.033515662,3.13354373,-0.092243969
4.221,874.836731,-0.296781052,7.084450698,-2.259365526,0.0,-0.001638066,3.063769102,-0.114614524
4.271,894.3415527,-0.852048853,7.079663789,-2.417329568,0.0,0.017536694,3.046724796,-0.119408213
4.32,894.3415527,-0.852048853,7.103598332,-2.015239173,0.0,0.020732487,3.058442593,-0.122604005
4.372,912.7850342,-0.732379058,6.897765934,-1.651443025,0.0,0.031917762,3.137804985,-0.106625043
4.42,931.3914795,-1.182337371,6.763735414,-1.005226205,0.0,0.089207761,3.16385746,-0.099265933
4.473,931.3914795,0.301567851,6.806817007,-1.775899583,0.0,0.100393035,3.178771019,-0.07210169
4.524,931.3914795,-0.459531911,6.73501513,-2.201923791,0.0,0.095599346,3.170248985,-0.07796064
4.571,949.8328857,-0.483465906,6.610558426,-2.843353921,0.0,0.075891957,3.049874067,-0.085417494
4.6209999999999996,968.2349243,-0.148390526,6.567477417,-3.245444316,0.0,0.070565633,2.999274015,-0.09393961
4.673,968.2349243,0.244126334,6.529183316,-2.359887978,0.0,0.026357161,2.891149759,-0.113114372
4.721,968.2349243,0.057441493,6.49567554,-1.747178715,0.0,-0.005600774,2.767579079,-0.153061792
4.772,987.1837158,-0.895129935,6.438233805,-1.239778814,0.0,0.039672967,2.841614962,-0.142409146
4.824,987.1837158,-0.703658336,6.404726613,-2.331167257,0.0,0.061510887,2.920444489,-0.116310164
4.8709999999999996,1004.771606,-0.421237627,6.337711644,-1.526986322,0.0,0.051923506,2.981164455,-0.09393961
4.919,1022.386292,-0.335075353,6.304203868,-1.866848511,0.0,0.082814835,3.044014931,-0.080088966
4.97,1022.386292,-0.655790418,6.184534073,-2.158842635,0.0,0.076955877,3.062657118,-0.075295277
5.021,1039.327515,0.095735827,6.107945287,-2.13012206,0.0,0.04979163,3.055732727,-0.061979473
5.073,1039.327515,0.019147164,6.01699636,-1.407316673,0.0,0.016768431,2.902867317,-0.097133197
5.12,1057.015991,-0.215405595,5.964341533,-1.775899583,0.0,0.010376845,2.87144208,-0.102992155
5.17,1057.015991,0.0,5.844671738,-1.340301558,0.0,0.012507374,2.852799892,-0.10938374
5.221,1074.539551,-1.010012968,5.83988483,-1.105748804,0.0,0.055650584,2.861854553,-0.112579532
5.273,1074.539551,-0.636643222,5.696281075,-1.373809043,0.0,0.073760085,2.876768351,-0.09340477
5.321,1091.714722,-0.794607337,5.744149578,-1.459971207,0.0,0.085477993,2.949206352,-0.05718578
5.37,1091.714722,-0.067015073,5.614905965,-1.579641002,0.0,0.070564292,2.953999996,-0.04227208
5.42,1108.96521,0.220192375,5.57661128,-1.354661992,0.0,0.074289933,2.870908976,-0.057181232
5.47,1108.96521,-0.282420672,5.456941485,-2.005665356,0.0,0.095062584,2.795275211,-0.095530748
5.545,1126.464233,-0.55526782,5.519170129,-2.412542659,0.0,0.080148883,2.748403549,-0.100857072
5.586,1126.464233,0.272847111,5.423434293,-2.096614429,0.0,0.070028871,2.742012024,-0.091802321
5.623,1143.645264,-0.641429985,5.533530271,-2.206710553,0.0,0.033277251,2.673302412,-0.102987602
5.673,1143.645264,0.263273513,5.308550823,-2.546572888,0.0,-0.054074433,2.589146376,-0.099259175
5.756,1143.645264,-0.670150779,5.33727169,-1.766325912,0.0,-0.066857614,2.580091715,-0.11257498
5.773,1159.552979,-1.129682763,5.25589658,-0.799394099,0.0,-0.025844926,2.688748598,-0.098193906
5.831,1191.986572,-1.311580837,5.155373836,-1.005226205,0.0,0.027418297,2.845342636,-0.044398058
5.877,1191.986572,-1.010012968,5.160160744,-1.148829813,0.0,0.036473047,2.903932095,-0.021494873
5.917,1207.856445,-1.53177323,5.169734561,-1.632295829,0.0,0.039136205,2.931096315,-0.009776963
5.971,1207.856445,0.387730107,5.035704041,-1.670590076,0.0,0.001315865,2.948140144,0.015795035
6.023,1223.897095,-0.057441493,5.011770082,-1.589214674,0.0,-0.016793631,2.860255718,-0.006042886
6.07,1223.897095,0.59356214,4.901674104,-1.239778814,0.0,-0.017326264,2.751066208,-0.05664295
6.12,1239.895752,0.014360372,4.930394971,-0.583988505,0.0,0.010370612,2.637082815,-0.100851424
6.17,1239.895752,-0.081375448,4.896887487,-0.081375448,0.0,0.056176983,2.613646984,-0.121091448
6.22,1255.552246,-0.718018697,4.75807035,-0.569628144,0.0,0.109972842,2.637615442,-0.114167228
6.274,1255.552246,-0.655790418,4.743709624,-1.584427911,0.0,0.138202339,2.736685038,-0.044392407
6.321,1270.481812,-0.631856459,4.714989632,-1.680163601,0.0,0.123821281,2.739348173,-0.04066398
6.378,1270.481812,-0.148390526,4.590532637,-1.929076716,0.0,0.084406495,2.674899817,-0.025217645
6.421,1285.749878,0.469105545,4.542664719,-2.288086101,0.0,0.034871694,2.530023813,-0.055045053
6.471,1285.749878,0.818541296,4.485223567,-1.574854386,0.0,-0.006673619,2.373962641,-0.092329308
6.525,1301.827271,0.718018697,4.490010184,-1.072241174,0.0,-0.015728366,2.207781315,-0.141864091
6.574,1301.827271,-0.545694222,4.442142266,-0.92385073,0.0,0.019957993,2.101787567,-0.197257847
6.622,1317.651611,-0.402090468,4.446928883,-0.674937542,0.0,0.033273797,2.116168499,-0.194062054
6.673,1317.651611,-1.25892601,4.365553772,-0.94299778,0.0,0.088667549,2.365972996,-0.125885129
6.72,1332.051147,-0.890343173,4.34640643,-1.479118404,0.0,0.073753849,2.508185863,-0.04971873
6.772,1332.051147,-0.421237627,4.250670594,-1.694524181,0.0,0.053513825,2.578493357,-0.015630266
6.823,1346.523193,-0.382943308,4.202802676,-1.507839271,0.0,0.025284315,2.580623865,-0.008173415
6.872,1360.578857,0.196258435,4.169295192,-1.287646878,0.0,-0.005075722,2.531621695,-0.023087116
6.922,1360.578857,0.344648951,4.040051872,-1.517412797,0.0,-0.013065206,2.411246777,-0.052914523
6.971,1360.578857,0.368582947,4.063985831,-1.062667575,0.0,-0.029046699,2.25092411,-0.104043081
7.021,1375.410156,0.057441493,4.054412013,-1.005226205,0.0,-0.005078249,2.133744955,-0.159436837
7.07,1375.410156,-0.143603736,3.944316036,-0.823328058,0.0,0.00663966,2.130549192,-0.165828422
7.123,1390.127441,-0.44517155,3.939529127,-0.564841381,0.0,0.036999699,2.173159838,-0.165295795
7.172,1404.219238,-0.59356214,3.953889561,-1.16797701,0.0,0.080142908,2.216302872,-0.14345786
7.223,1404.219238,-0.627069624,3.853366816,-1.086601534,0.0,0.079077646,2.260511398,-0.118956782
7.272,1417.766724,-0.483465906,3.872514158,-1.661016551,0.0,0.066827103,2.319101095,-0.086466216
7.321,1417.766724,-0.94299778,3.843793291,-1.809407067,0.0,0.062033415,2.332416773,-0.077411473
7.37,1417.766724,-0.540907349,3.75763098,-1.885995707,0.0,0.011965982,2.36916852,-0.042257745
7.421,1431.492798,-0.651003583,3.704976445,-1.718457848,0.0,-0.035438284,2.380353689,-0.033735629
7.472,1431.492798,0.090949037,3.676255286,-1.450397682,0.0,-0.047690764,2.384081841,-0.031601928
7.521,1458.138184,-0.114882987,3.623601043,-0.531333788,0.0,-0.068996049,2.353721857,-0.037993517
7.57,1458.138184,0.090949037,3.575732833,-0.014360372,0.0,-0.020526521,2.262109041,-0.089126207
7.625,1471.802856,-0.191471636,3.551799166,-0.004786791,0.0,0.023681954,2.262109041,-0.108833596
7.679,1485.034424,-0.665364017,3.508717865,-0.416450792,0.0,0.087597825,2.323894501,-0.094985157
7.72,1485.034424,-0.703658336,3.436915696,-0.718018697,0.0,0.098783098,2.335612297,-0.083267249
7.774,1498.189209,-0.368582947,3.422555554,-0.986079009,0.0,0.111033641,2.408050299,-0.029471397
7.819,1498.189209,-0.497826304,3.451276422,-0.899916698,0.0,0.107837848,2.414974451,-0.022014547
7.87,1511.102173,-0.34943575,3.350753969,-0.770673378,0.0,0.081738867,2.374494553,-0.00603558
7.923,1511.102173,0.0,3.341180152,-0.852048853,0.0,0.059368316,2.343601942,-0.00603558
7.97,1524.176758,-0.023933957,3.2789518,-0.875982812,0.0,0.051906493,2.320165396,-0.012419034
8.022,1524.176758,-0.067015073,3.255017841,-1.000439297,0.0,0.045514908,2.194464207,-0.042779073
8.072000000000001,1524.176758,-0.071801868,3.255017841,-1.081814845,0.0,0.043917011,2.168365002,-0.048638027
8.139000000000001,1537.303345,-0.33028859,3.264591658,-1.335514796,0.0,0.027405409,2.126287222,-0.064616993
8.173,1537.303345,-0.263273513,3.202363306,-0.986079009,0.0,0.009828546,2.074621916,-0.074204378
8.223,1549.967041,0.071801868,3.183216256,-0.976505338,0.0,0.000773798,2.046392441,-0.084857017
8.272,1549.967041,-0.090949037,3.149708772,-0.713231862,0.0,0.000773798,2.030413389,-0.090715975
8.32,1562.391357,-0.291994252,3.111414379,-0.823328058,0.0,0.013024339,2.023489237,-0.102966517
8.370000000000001,1574.772461,-0.449958349,3.111414379,-0.770673378,0.0,0.01781803,2.033609152,-0.101901248
8.420000000000002,1574.772461,-0.76109978,3.049186027,-0.914277132,0.0,0.025807513,2.077817678,-0.087520182
8.471,1586.864258,-0.756313017,3.015678543,-0.866409214,0.0,0.025273111,2.149190187,-0.056624614
8.519,1586.864258,-0.828114894,2.991744584,-0.895129935,0.0,0.022077318,2.206714392,-0.032656163
8.571000000000002,1599.007568,-0.641429985,2.953449899,-0.880769502,0.0,0.010892042,2.265836477,-0.005491921
8.625,1599.007568,-0.574414907,2.919942415,-0.789820501,0.0,0.002369926,2.280750275,0.000899666
8.671000000000001,1610.837158,-0.291994252,2.848140538,-0.72280546,0.0,-0.007217454,2.298327208,0.010487046
8.724,1610.837158,-0.114882987,2.814633054,-0.512186628,0.0,-0.01094588,2.274891376,0.005160724
8.775,1622.790649,-0.148390526,2.800272912,-0.512186628,0.0,-0.012543776,2.2525208,-0.003361392
8.82,1622.790649,0.0,2.718897218,-0.411664029,0.0,-0.006684822,2.225356579,-0.011883507
8.874,1634.805054,-0.167537677,2.723684126,-0.382943308,0.0,0.014087835,2.173691273,-0.030525636
8.921000000000001,1634.805054,-0.124456567,2.704537076,-0.339862152,0.0,0.03219733,2.145994425,-0.040113013
8.969000000000001,1646.351196,-0.177111275,2.656669158,-0.516973463,0.0,0.051902868,2.116166592,-0.045436304
9.020000000000001,1646.351196,-0.134030147,2.661456066,-0.603135665,0.0,0.061490249,2.100720406,-0.043305773
9.071000000000002,1657.967896,-0.143603736,2.604014331,-0.741952656,0.0,0.061490249,2.094328642,-0.043305773
9.120000000000001,1657.967896,-0.157964115,2.613587856,-0.823328058,0.0,0.05669656,2.066631794,-0.042240512
9.171000000000001,1680.71875,-0.162750896,2.508278787,-0.904703461,0.0,0.038587064,2.021890879,-0.048099466
9.22,1680.71875,-0.100522617,2.556146413,-0.880769502,0.0,0.03272811,2.012303352,-0.048632096
9.271,1691.939819,-0.157964115,2.527425545,-0.890343173,0.0,0.01568388,1.972355962,-0.055556316
9.317,1691.939819,-0.067015073,2.479557627,-0.938211091,0.0,0.00875966,1.956377029,-0.059284743
9.376000000000001,1702.914795,-0.229765974,2.460410577,-0.72280546,0.0,-0.004023514,1.91802752,-0.069937386
9.422,1702.914795,-0.215405595,2.379035321,-0.741952656,0.0,-0.007751939,1.895656943,-0.078992136
9.47,1713.881592,-0.224979175,2.359887978,-0.55526782,0.0,-0.008817204,1.893526435,-0.079524763
9.520000000000001,1713.881592,-0.229765974,2.331167257,-0.564841381,0.0,-0.007222171,1.895123839,-0.081117973
9.57,1724.765625,-0.258486732,2.350314599,-0.583988505,0.0,-0.004026378,1.896189094,-0.079520077
9.623000000000001,1724.765625,-0.426024427,2.316806823,-0.603135665,0.0,0.002897841,1.90950489,-0.07206323
9.671000000000001,1735.328613,-0.34943575,2.264152288,-0.478679107,0.0,0.004495738,1.92601645,-0.060877953
9.72,1735.328613,-0.359009349,2.225858042,-0.435597988,0.0,0.00982206,1.935603857,-0.057149526
9.769,1745.926514,-0.397303668,2.197137028,-0.631856459,0.0,0.015681015,1.942528129,-0.049692675
9.821000000000002,1745.926514,-0.373369709,2.182776886,-0.59356214,0.0,0.012485221,1.962768078,-0.038507398
9.872000000000002,1756.32959,-0.411664029,2.163629544,-0.598348866,0.0,0.01461575,1.972888112,-0.033181075
9.920000000000002,1756.32959,-0.258486732,2.177990124,-0.493039504,0.0,0.013017854,1.976083875,-0.027322123
9.97,1766.45459,-0.215405595,2.077467233,-0.430811189,0.0,0.013017854,1.971290231,-0.026256859
10.020000000000001,1766.45459,-0.201045234,2.082253996,-0.469105545,0.0,0.013546781,1.956375957,-0.026250795
10.071000000000002,1776.794678,-0.119669777,2.05353342,-0.478679107,0.0,0.016209939,1.929744363,-0.033707645
10.119000000000002,1776.794678,-0.114882987,2.020025936,-0.478679107,0.0,0.019405734,1.907906413,-0.039033964
10.182,1787.125122,-0.076588658,2.000878593,-0.368582947,0.0,0.023666792,1.871687412,-0.043827657
10.219000000000001,1787.125122,0.0,1.953010675,-0.320714992,0.0,0.028460482,1.842392683,-0.051817138
10.271,1797.528198,-0.071801868,1.962584347,-0.378156509,0.0,0.032188907,1.831207395,-0.05661083
10.321000000000002,1797.528198,-0.062228283,1.919503191,-0.411664029,0.0,0.042308923,1.791792631,-0.066198207
10.368,1807.633545,-0.095735827,1.89078247,-0.382943308,0.0,0.052428935,1.769954681,-0.067796104
10.419,1807.633545,-0.086162238,1.876422182,-0.40687723,0.0,0.052428935,1.759834647,-0.068861373
10.47,1817.472534,-0.071801868,1.857274985,-0.469105545,0.0,0.055092096,1.742257833,-0.068328738
10.517000000000001,1817.472534,-0.239339554,1.857274985,-0.670150779,0.0,0.056682661,1.734799862,-0.070447281
10.572000000000001,1827.087036,-0.100522617,1.790259871,-0.612709263,0.0,0.041768957,1.710831404,-0.066718854
10.620000000000001,1827.087036,-0.100522617,1.785472962,-0.631856459,0.0,0.031648945,1.688993454,-0.066718854
10.672,1836.715942,-0.181898074,1.785472962,-0.713231862,0.0,0.0225942,1.668220878,-0.066718854
10.721,1836.715942,-0.201045234,1.73760519,-0.583988505,0.0,0.012474187,1.647980809,-0.067784116
10.773000000000001,1846.140015,-0.047867913,1.704097706,-0.435597988,0.0,0.009278394,1.638926029,-0.069914646
10.822000000000001,1846.140015,0.033507539,1.68495051,-0.55526782,0.0,0.011408923,1.620816588,-0.070979908
10.875,1865.139282,0.052654699,1.656229788,-0.655790418,0.0,0.007680497,1.593652368,-0.07524097
10.923,1874.58252,0.033507539,1.617935249,-0.641429985,0.0,-0.006167941,1.519083858,-0.091752566
10.971,1874.58252,0.009573582,1.579641002,-0.382943308,0.0,-0.011494263,1.503104806,-0.096546255
11.021,1883.530151,-0.268060293,1.584427911,-0.248913134,0.0,0.004481587,1.499375939,-0.105063267
11.071000000000002,1883.530151,0.0,1.579641002,-0.263273513,0.0,0.00767738,1.499375939,-0.101867475
11.128,1883.530151,-0.359009349,1.579641002,-0.081375448,0.0,0.016199496,1.484994888,-0.108791694
11.172,1892.380859,-0.440384751,1.493478838,-0.325501791,0.0,0.04549427,1.537725449,-0.087486409
11.232000000000001,1901.086914,-0.483465906,1.44561092,-0.449958349,0.0,0.054016385,1.595249772,-0.061387427
11.270000000000001,1901.086914,-0.402090468,1.483905312,-0.31592823,0.0,0.054549016,1.596315026,-0.051267415
11.321000000000002,1909.704834,-0.387730107,1.431250632,-0.373369709,0.0,0.055614281,1.609630823,-0.03582108
11.371,1909.704834,-0.210618814,1.431250632,-0.469105545,0.0,0.057744808,1.616022348,-0.022505276
11.425,1918.265991,-0.373369709,1.426463723,-0.263273513,0.0,0.048157431,1.621881366,-0.011319999
11.471,1918.265991,-0.244126334,1.402529764,-0.449958349,0.0,0.052418489,1.62667501,0.001463175
11.520000000000001,1918.265991,-0.34943575,1.426463723,-0.301567851,0.0,0.05081857,1.623479009,0.001999116
11.572000000000001,1926.701416,-0.201045234,1.359448609,-0.359009349,0.0,0.039100658,1.624544263,0.007325438
11.625,1926.701416,-0.354222549,1.364235517,-0.186684855,0.0,0.039100658,1.625609517,0.015314922
11.673,1934.988403,-0.220192375,1.325941125,-0.311141431,0.0,0.041231189,1.626142144,0.022771772
11.721,1934.988403,-0.306354631,1.321154362,-0.253699914,0.0,0.041231189,1.626142144,0.022771772
11.771,1943.234009,-0.311141431,1.278073207,-0.215405595,0.0,0.039100658,1.628272653,0.030761257
11.823,1951.310425,-0.215405595,1.273286444,-0.215405595,0.0,0.0348396,1.644784331,0.039283372
11.871,1951.310425,-0.287207472,1.29243364,-0.215405595,0.0,0.032176439,1.644784331,0.044077061
11.919,1959.304565,-0.287207472,1.268499681,-0.086162238,0.0,0.029513279,1.647447467,0.045142327
11.972000000000001,1959.304565,-0.210618814,1.215844855,-0.023933957,0.0,0.0364375,1.634664297,0.047805488
12.026000000000002,1967.283325,-0.100522617,1.191910969,0.076588658,0.0,0.039095942,1.618684649,0.047813207
12.071000000000002,1967.283325,-0.076588658,1.20627133,0.095735827,0.0,0.043889634,1.608031988,0.043019515
12.119000000000002,1975.075317,0.004786791,1.187124133,0.138816946,0.0,0.064662293,1.559029818,0.035030033
12.171000000000001,1975.075317,0.062228283,1.182337371,-0.134030147,0.0,0.074249677,1.541452885,0.028638445
12.221,1982.695435,0.119669777,1.144043051,-0.047867913,0.0,0.081706524,1.465286493,0.012126846
12.271,1982.695435,0.31592823,1.134469599,-0.253699914,0.0,0.084369689,1.445046544,0.011061583
12.333,1982.695435,0.153177316,1.129682763,-0.205832015,0.0,0.084902316,1.393381119,-0.00385212
12.372000000000002,1990.374756,0.019147164,1.091388443,-0.426024427,0.0,0.074249677,1.295909524,-0.028353203
12.420000000000002,1998.007568,0.023933957,1.086601534,-0.339862152,0.0,0.067325458,1.26395154,-0.03740795
12.471,1998.007568,-0.110096188,1.053094123,-0.320714992,0.0,0.054009646,1.250103116,-0.040603742
12.521,2013.243774,-0.043081119,1.024373256,-0.402090468,0.0,0.051346485,1.252233624,-0.041669007
12.572000000000001,2013.243774,-0.263273513,1.024373256,-0.440384751,0.0,0.038029332,1.230395436,-0.046460494
12.622000000000002,2020.345337,-0.296781052,0.976505338,-0.392516869,0.0,0.02790932,1.224536538,-0.041666802
12.672,2020.345337,-0.311141431,0.971718575,-0.454745148,0.0,0.016724043,1.230928063,-0.035275217
12.721,2027.398804,-0.483465906,0.966931812,-0.416450792,0.0,0.010332455,1.230395436,-0.033144686
12.776000000000002,2027.398804,-0.416450792,0.976505338,-0.493039504,0.0,-0.005646511,1.260755539,-0.016100455
12.824000000000002,2034.28894,-0.34943575,0.94299778,-0.426024427,0.0,-0.031212857,1.295376539,0.004672201
12.872000000000002,2034.28894,-0.459531911,0.933424255,-0.373369709,0.0,-0.036539182,1.301235557,0.005204834
12.922,2034.28894,-0.229765974,0.928637493,-0.426024427,0.0,-0.045593929,1.317747116,0.010531155
12.97,2041.066406,-0.31592823,0.895129935,-0.416450792,0.0,-0.062638156,1.37154305,0.015857477
13.024000000000001,2047.856567,-0.282420672,0.890343173,-0.402090468,0.0,-0.070098042,1.367814064,0.016395072
13.075000000000001,2047.856567,-0.359009349,0.866409214,-0.296781052,0.0,-0.076489627,1.381129861,0.017460337
13.122000000000002,2054.616943,-0.416450792,0.861622378,-0.177111275,0.0,-0.082348585,1.408826828,0.019058233
13.171000000000001,2054.616943,-0.272847111,0.832901584,-0.114882987,0.0,-0.085544378,1.422142625,0.020123497
13.22,2061.200928,-0.311141431,0.823328058,-0.067015073,0.0,-0.078087524,1.433327913,0.023851924
13.270000000000001,2061.200928,-0.263273513,0.818541296,-0.014360372,0.0,-0.067967512,1.437056303,0.02544982
13.321000000000002,2067.763916,-0.110096188,0.804180935,-0.028720747,0.0,-0.064239085,1.43386054,0.02544982
13.370000000000001,2067.763916,-0.234552773,0.808967625,-0.023933957,0.0,-0.053586446,1.414685726,0.013731912
13.425,2074.212158,-0.162750896,0.789820501,0.004786791,0.0,-0.045596961,1.388054132,0.007872957
13.47,2074.212158,-0.138816946,0.794607337,-0.028720747,0.0,-0.036009584,1.371009946,0.003611899
13.527000000000001,2080.539551,-0.114882987,0.76109978,0.067015073,0.0,-0.026958538,1.355562925,-0.002773623
13.571000000000002,2080.539551,-0.129243366,0.746739419,0.014360372,0.0,-0.012577469,1.350236654,-0.009697841
13.624,2086.817871,-0.253699914,0.72280546,0.014360372,0.0,-0.009381675,1.345975637,-0.010230473
13.670000000000002,2086.817871,-0.153177316,0.72280546,-0.009573582,0.0,0.006064659,1.333192468,-0.008099944
13.721,2093.098633,-0.153177316,0.72280546,-0.033507539,0.0,0.014054143,1.317213416,-0.008099944
13.771,2093.098633,-0.129243366,0.674937542,-0.047867913,0.0,0.022576259,1.295375466,-0.010230473
13.821000000000002,2099.304932,-0.071801868,0.694084738,-0.081375448,0.0,0.024706786,1.286853433,-0.012893635
13.870000000000001,2099.304932,-0.114882987,0.651003583,-0.148390526,0.0,0.03003311,1.271407127,-0.015024164
13.919,2105.323486,-0.023933957,0.665364017,-0.191471636,0.0,0.031631004,1.251167059,-0.017154694
13.976,2105.323486,-0.047867913,0.660577181,-0.248913134,0.0,0.027369948,1.230394363,-0.019817855
14.020000000000001,2111.282959,0.023933957,0.627069624,-0.272847111,0.0,0.019913098,1.18725121,-0.028872602
14.069,2111.282959,0.047867913,0.607922427,-0.31592823,0.0,0.011386602,1.130258918,-0.03738755
14.121,2117.184326,0.062228283,0.598348866,-0.311141431,0.0,0.00392975,1.090844154,-0.045377035
14.171000000000001,2117.184326,0.081375448,0.583988505,-0.363796148,0.0,-0.004059733,1.030124068,-0.056029677
14.22,2128.85498,0.038294329,0.588775267,-0.344648951,0.0,-0.015777642,0.968871355,-0.067747585
14.270000000000001,2128.85498,0.119669777,0.550480948,-0.268060293,0.0,-0.018440804,0.95342505,-0.072541282
14.323,2134.567383,0.143603736,0.564841381,-0.382943308,0.0,-0.02483239,0.907086015,-0.083193921
14.370000000000001,2134.567383,-0.047867913,0.569628144,-0.31592823,0.0,-0.031223977,0.866605997,-0.092248671
14.423,2139.911865,-0.143603736,0.536120587,-0.320714992,0.0,-0.047202941,0.822930157,-0.105031841
14.471,2145.138672,0.043081119,0.497826304,-0.40687723,0.0,-0.05412716,0.792570114,-0.11195606
14.523000000000001,2145.138672,-0.062228283,0.50261303,-0.440384751,0.0,-0.06105138,0.770199537,-0.113553956
14.572000000000001,2150.422607,0.028720747,0.512186628,-0.325501791,0.0,-0.067447767,0.740904093,-0.121535584
14.620000000000001,2150.422607,-0.095735827,0.493039504,-0.31592823,0.0,-0.069045663,0.729718804,-0.122600846
14.672,2150.422607,-0.110096188,0.469105545,-0.421237627,0.0,-0.071708828,0.714805067,-0.126329273
14.721,2155.52832,-0.258486732,0.507399829,-0.320714992,0.0,-0.074904621,0.706282973,-0.125796646
14.772,2155.52832,-0.153177316,0.497826304,-0.258486732,0.0,-0.085024633,0.714272439,-0.118872419
14.822000000000001,2160.42041,-0.138816946,0.454745148,-0.258486732,0.0,-0.088220425,0.722261965,-0.114611365
14.879000000000001,2160.42041,-0.210618814,0.435597988,-0.153177316,0.0,-0.08768779,0.732914567,-0.1119482
14.922,2165.260498,-0.143603736,0.416450792,-0.110096188,0.0,-0.086622529,0.75421989,-0.110882938
14.969000000000001,2165.260498,-0.201045234,0.440384751,-0.090949037,0.0,-0.08182884,0.759013534,-0.109817676
15.025,2170.09082,-0.138816946,0.430811189,-0.090949037,0.0,-0.076502517,0.786710441,-0.107154511
15.07,2174.791992,-0.186684855,0.392516869,-0.028720747,0.0,-0.065853328,0.799493074,-0.102355175
15.121,2174.791992,-0.110096188,0.382943308,0.009573582,0.0,-0.058929108,0.803221524,-0.100757279
15.171000000000001,2174.791992,-0.205832015,0.378156509,0.023933957,0.0,-0.045080669,0.819200456,-0.100224644
15.221,2179.533691,-0.210618814,0.354222549,0.014360372,0.0,-0.032830127,0.846364737,-0.091169901
15.269,2179.533691,-0.157964115,0.363796148,-0.119669777,0.0,-0.026971173,0.850625753,-0.08690884
15.333,2184.129395,-0.162750896,0.354222549,-0.019147164,0.0,-0.021112218,0.857017338,-0.083180413
15.370000000000001,2184.129395,-0.124456567,0.359009349,-0.062228283,0.0,-0.017916426,0.859147906,-0.081049882
15.421000000000001,2188.607666,-0.148390526,0.33028859,-0.038294329,0.0,-0.008329046,0.860213161,-0.074658297
15.471,2192.985107,-0.057441493,0.325501791,-0.047867913,0.0,-0.003002723,0.857549965,-0.075190932
15.519,2192.985107,-0.100522617,0.306354631,0.062228283,0.0,0.003388863,0.853821576,-0.073060401
15.57,2197.231445,-0.038294329,0.291994252,0.019147164,0.0,0.010843356,0.844766438,-0.073589176
15.625,2197.231445,-0.067015073,0.296781052,0.004786791,0.0,0.022561265,0.838374853,-0.07412181
15.670000000000002,2201.471191,-0.033507539,0.301567851,0.052654699,0.0,0.025757058,0.83517909,-0.074654438
15.721,2201.471191,-0.047867913,0.282420672,0.076588658,0.0,0.037474968,0.823993802,-0.074654438
15.771,2201.471191,-0.009573582,0.291994252,0.100522617,0.0,0.044399187,0.818667471,-0.075187072
15.821000000000002,2209.621094,-0.009573582,0.282420672,0.086162238,0.0,0.052388672,0.809612751,-0.079448126
15.871,2213.481934,0.023933957,0.282420672,0.047867913,0.0,0.067835003,0.790970623,-0.080513395
15.918000000000001,2213.481934,0.043081119,0.263273513,0.047867913,0.0,0.067835003,0.790970623,-0.080513395
15.969000000000001,2217.295654,0.019147164,0.263273513,0.090949037,0.0,0.081150807,0.768600047,-0.084241822
16.02,2217.295654,0.038294329,0.258486732,0.062228283,0.0,0.093933985,0.747827411,-0.085839719
16.074,2220.976318,0.009573582,0.234552773,0.067015073,0.0,0.101920433,0.733445823,-0.086900018
16.121000000000002,2220.976318,0.062228283,0.234552773,0.090949037,0.0,0.11257308,0.714271069,-0.090095811
16.169,2224.677002,0.038294329,0.224979175,0.052654699,0.0,0.123225726,0.69403106,-0.09116108
16.219,2224.677002,0.043081119,0.224979175,0.124456567,0.0,0.124823622,0.686574221,-0.09116108
16.27,2228.290527,0.014360372,0.215405595,0.105309398,0.0,0.134411007,0.666866839,-0.092758976
16.323,2228.290527,0.043081119,0.224979175,0.014360372,0.0,0.145063654,0.649289966,-0.094356872
16.37,2231.811035,0.081375448,0.191471636,0.067015073,0.0,0.147194177,0.64662677,-0.092758976
16.421,2231.811035,-0.028720747,0.215405595,0.057441493,0.0,0.157314181,0.626919389,-0.092226341
16.470000000000002,2235.258545,-0.009573582,0.224979175,0.047867913,0.0,0.161042616,0.621593058,-0.094356872
16.523,2235.258545,0.038294329,0.201045234,-0.033507539,0.0,0.167966828,0.607212007,-0.089563183
16.573,2238.634521,0.004786791,0.191471636,0.019147164,0.0,0.17116262,0.604548872,-0.089030549
16.621000000000002,2238.634521,0.014360372,0.186684855,-0.019147164,0.0,0.174885407,0.595493257,-0.087423414
16.67,2241.938232,-0.038294329,0.191471636,0.019147164,0.0,0.182342261,0.584307969,-0.083694987
16.724,2241.938232,-0.009573582,0.177111275,0.019147164,0.0,0.183407515,0.580046952,-0.082629725
16.771,2245.169922,-0.023933957,0.148390526,-0.014360372,0.0,0.186603308,0.578449011,-0.07996656
16.821,2245.169922,-0.019147164,0.153177316,0.0,0.0,0.189266473,0.568329036,-0.074640237
16.87,2248.290771,-0.014360372,0.138816946,0.0,0.0,0.1897991,0.566198468,-0.074640237
16.924,2248.290771,-0.023933957,0.143603736,-0.038294329,0.0,0.190331742,0.546491086,-0.07091181
16.971,2251.313232,-0.009573582,0.143603736,0.019147164,0.0,0.191396996,0.541164756,-0.070379183
17.021,2251.313232,-0.014360372,0.134030147,0.004786791,0.0,0.192994893,0.52944684,-0.065585494
17.105,2254.199463,-0.023933957,0.143603736,0.033507539,0.0,0.192994893,0.52944684,-0.065585494
17.145,2254.199463,-0.038294329,0.114882987,0.0,0.0,0.191393048,0.520924151,-0.061317954
17.173000000000002,2257.021484,-0.043081119,0.129243366,0.004786791,0.0,0.19458884,0.516663074,-0.057589527
17.223000000000003,2257.021484,-0.043081119,0.119669777,0.014360372,0.0,0.19458884,0.512934685,-0.055459
17.271,2259.698975,-0.086162238,0.129243366,0.028720747,0.0,0.194056213,0.509206235,-0.052263208
17.328,2259.698975,-0.067015073,0.110096188,0.028720747,0.0,0.193523586,0.503879905,-0.046936885
17.488,2262.217773,-0.052654699,0.114882987,0.004786791,0.0,0.194056213,0.505477846,-0.044273723
17.521,2264.630127,-0.071801868,0.114882987,0.057441493,0.0,0.193523586,0.503879905,-0.033088446
17.569000000000003,2269.345947,-0.110096188,0.086162238,0.047867913,0.0,0.199379161,0.510271013,-0.020832391
17.62,2269.345947,-0.105309398,0.090949037,0.062228283,0.0,0.197248623,0.511868954,-0.018701863
17.669,2271.539795,-0.105309398,0.076588658,0.047867913,0.0,0.198846519,0.511336267,-0.01071238
17.721,2273.758789,-0.105309398,0.052654699,0.062228283,0.0,0.200977057,0.515597343,-0.004853426
17.779,2273.758789,-0.129243366,0.076588658,0.076588658,0.0,0.20417285,0.520391047,0.005266587
17.821,2273.758789,-0.086162238,0.081375448,0.043081119,0.0,0.203640208,0.525184751,0.006331851
17.872,2275.841309,-0.177111275,0.071801868,0.043081119,0.0,0.200444415,0.521988928,0.007397116
17.919,2275.841309,-0.229765974,0.047867913,0.100522617,0.0,0.208966538,0.539033175,0.023908716
17.977,2277.743896,-0.205832015,0.062228283,0.071801868,0.0,0.212694958,0.543826878,0.031365566
18.02,2277.743896,-0.148390526,0.057441493,0.090949037,0.0,0.213760227,0.552881598,0.037757155
18.07,2279.606689,-0.157964115,0.062228283,0.119669777,0.0,0.214825496,0.558740556,0.045214005
18.121000000000002,2279.606689,-0.153177316,0.071801868,0.105309398,0.0,0.218019024,0.569925487,0.054805107
18.17,2281.379883,-0.191471636,0.062228283,0.124456567,0.0,0.220149547,0.585371792,0.068120912
18.220000000000002,2281.379883,-0.186684855,0.019147164,0.114882987,0.0,0.222812712,0.594426572,0.076110393
18.27,2283.135498,-0.181898074,0.052654699,0.114882987,0.0,0.223877966,0.607742369,0.087828301
18.322,2284.82373,-0.210618814,0.062228283,0.119669777,0.0,0.224410608,0.621058166,0.104339905
18.37,2284.82373,-0.210618814,0.062228283,0.105309398,0.0,0.226541132,0.625319242,0.108600959
18.431,2284.82373,-0.210618814,0.057441493,0.124456567,0.0,0.227073759,0.639167666,0.114992544
18.472,2286.383545,-0.215405595,0.047867913,0.129243366,0.0,0.227606401,0.661005616,0.136297837
18.53,2286.383545,-0.234552773,0.043081119,0.124456567,0.0,0.227073759,0.676451921,0.146950483
18.574,2287.824219,-0.253699914,0.052654699,0.124456567,0.0,0.227606401,0.697224557,0.161864176
18.622,2287.824219,-0.229765974,0.057441493,0.095735827,0.0,0.22920008,0.709474444,0.171458468
18.67,2289.212891,-0.258486732,0.052654699,0.100522617,0.0,0.226004288,0.74303031,0.18743743
18.719,2289.212891,-0.268060293,0.043081119,0.081375448,0.0,0.226536915,0.754748225,0.194361642
18.771,2290.535889,-0.27763391,0.067015073,0.090949037,0.0,0.221743226,0.789369285,0.213536412
18.821,2291.737793,-0.268060293,0.052654699,0.110096188,0.0,0.215884268,0.823990405,0.229515374
18.87,2291.737793,-0.296781052,0.043081119,0.086162238,0.0,0.206829518,0.843165159,0.240700647
18.92,2292.851074,-0.263273513,0.052654699,0.062228283,0.0,0.199905306,0.875123084,0.256146997
18.969,2292.851074,-0.258486732,0.057441493,0.081375448,0.0,0.188187391,0.906548381,0.274256498
19.023,2292.851074,-0.258486732,0.047867913,0.081375448,0.0,0.184991598,0.917201042,0.280115426
19.071,2293.906006,-0.244126334,0.062228283,0.023933957,0.0,0.177002117,0.937973678,0.292365968
19.12,2294.858887,-0.27763391,0.043081119,0.067015073,0.0,0.161552504,0.96726799,0.306752414
19.172,2294.858887,-0.268060293,0.067015073,0.043081119,0.0,0.145573542,0.991769075,0.321133494
19.221,2296.611328,-0.287207472,0.047867913,0.023933957,0.0,0.127464041,1.017335415,0.333384037
19.272000000000002,2296.611328,-0.272847111,0.052654699,0.038294329,0.0,0.114148229,1.033846974,0.34190613
19.32,2297.318604,-0.291994252,0.071801868,0.009573582,0.0,0.099767163,1.049826026,0.350960881
19.371000000000002,2297.318604,-0.268060293,0.052654699,-0.019147164,0.0,0.077396609,1.069000721,0.361080915
19.42,2297.318604,-0.253699914,0.052654699,0.004786791,0.0,0.061417643,1.080186009,0.368005127
19.471,2297.934082,-0.272847111,0.076588658,-0.019147164,0.0,0.036916561,1.090838671,0.374929339
19.52,2297.650146,-0.909490296,4.063985831,-1.818980592,0.0,0.310156882,0.631177068,0.280653447
19.569000000000003,2297.650146,-3.307672668,1.584427911,-1.938650241,0.0,0.026263917,0.599219143,0.191171214
19.62,2299.325684,0.162750896,2.422116476,-0.028720747,0.0,-0.061090969,0.613599718,0.291843951
19.673000000000002,2299.325684,-0.019147164,1.077027936,-0.033507539,0.0,-0.096244693,0.614664972,0.24017863
19.720000000000002,2300.483643,0.34943575,3.010891634,-0.574414907,0.0,-0.12181104,0.632241845,0.205024898
19.771,2300.483643,0.785033739,6.146239972,-1.522199559,0.0,-0.195314288,0.69509244,0.087313183
19.819000000000003,2301.357422,0.521760263,4.006544387,-0.986079009,0.0,-0.253371209,0.697222948,-0.02453959
19.877000000000002,2301.357422,-0.248913134,0.526547025,-0.114882987,0.0,-0.229935378,0.776052535,-0.07727018
19.921,2302.121338,-1.694524181,3.192789781,0.919063821,0.0,-0.196379557,0.924656928,-0.068748064
19.969,2302.121338,-0.507399829,0.938211091,0.110096188,0.0,-0.178802699,0.940103292,-0.060758583
20.021,2302.77002,-1.014799657,1.25892601,-0.325501791,0.0,-0.15856266,0.877785325,-0.053301733
20.079,2302.77002,-2.31202006,2.64709534,-0.516973463,0.0,-0.165486887,0.861806333,-0.043181717
20.12,2303.377441,-2.187563649,2.273725668,0.50261303,0.0,-0.160696492,0.950755417,0.052164827
20.172,2303.377441,-1.661016551,3.020465159,0.138816946,0.0,-0.146848053,1.020530224,0.061752208
20.231,2303.377441,-1.091388443,1.373809043,-0.282420672,0.0,-0.134064883,1.061010361,0.080926962
20.275000000000002,2303.845459,-0.76109978,1.479118404,-0.545694222,0.0,-0.119151168,1.089239836,0.004227926
20.32,2304.054199,-1.16797701,4.978262889,-0.172324476,0.0,-0.138858572,1.09935987,-0.035719492
20.371000000000002,2304.054199,-0.59356214,6.936060619,-1.60836187,0.0,-0.126075387,1.09030509,-0.125734329
20.422,2304.077637,-0.698871501,0.852048853,-0.382943308,0.0,-0.102106936,1.078054547,-0.231195509
20.471,2304.077637,-0.990865698,1.455184591,-0.813754533,0.0,-0.076540589,1.10308826,-0.266881883
20.525000000000002,2304.074463,-1.526986322,2.896008748,-1.349875084,0.0,-0.020081572,1.111077785,-0.38938731
20.57,2304.074463,-6.668000162,5.801590729,-1.033946927,0.0,0.08964067,1.267671585,-0.283926129
20.621000000000002,2304.057861,-2.13012206,2.493918061,-0.631856459,0.0,0.103489101,1.311347485,-0.200302839
20.669,2304.057861,-1.029160164,0.938211091,-1.388169476,0.0,0.123724923,1.24743104,-0.232786521
20.724,2303.925537,-0.904703461,0.397303668,-1.187124133,0.0,0.199358702,1.174460411,-0.43039307
20.77,2303.925537,-1.153616722,1.158403412,-2.221071133,0.0,0.239838749,1.1856457,-0.509755254
20.82,2303.925537,-1.359448609,2.982170767,-4.221949434,0.0,0.269133508,1.119066596,-0.677001774
20.871000000000002,2303.748535,-0.344648951,0.167537677,-3.523078007,0.0,0.250491381,1.004550695,-1.00883162
20.92,2304.579346,-1.22063169,0.263273513,-3.609240609,0.0,0.330918849,0.960874796,-1.228276134
20.970000000000002,2304.579346,-2.75719161,0.201045234,-3.594880176,0.0,0.631323457,0.829847276,-1.251711965
21.02,2305.102051,-2.398182225,0.129243366,-3.839006382,0.0,1.035058618,0.813335657,-1.168088675
21.069000000000003,2305.102051,-0.057441493,-1.091388443,-6.849898016,0.0,1.524547696,0.767529309,-1.218156099
21.119,2306.02124,-0.694084738,-1.244565722,-6.921699893,0.0,1.56928885,0.801085114,-1.420556426
21.17,2306.02124,-0.694084738,-1.244565722,-6.921699893,0.0,1.56928885,0.801085114,-1.420556426
21.222,2306.02124,-2.671029592,-1.632295829,-4.418208307,0.0,1.849450588,0.826651037,-1.603244781
21.271,2306.110107,-3.599666792,-3.642747802,-8.649731266,0.0,2.759186506,1.312944293,-1.635202765
21.32,2305.559082,-2.082253996,-3.82464624,-6.615345335,0.0,2.915247917,1.871675491,-1.318286538
21.369,2305.559082,-2.963023716,-3.915595168,-6.687147212,0.0,2.97117424,1.874871254,-1.198444366
21.422,2303.866211,-2.082253996,-4.169295192,-8.065743601,0.0,2.99674058,1.796574354,-1.050372601
21.471,2303.866211,1.546133518,-3.834219766,-5.667560208,0.0,2.91471529,1.422133923,-0.47939083
21.522000000000002,2301.500488,1.780686346,-4.006544387,-4.863379419,0.0,2.90406251,1.302291632,-0.415474951
21.57,2301.500488,0.454745148,-4.351193047,-5.322912133,0.0,2.739479065,0.764865696,-0.271131605
21.621000000000002,2298.855469,1.254139248,-3.64753471,-2.623161674,0.0,2.575961113,0.966200709,-0.13744095
21.67,2297.696289,1.594001436,-3.810285515,-1.517412797,0.0,2.42522192,0.496418446,0.010637708
21.722,2297.696289,1.565280715,-3.75763098,-0.564841381,0.0,2.326152325,-0.489483804,-0.069257125
21.77,2297.696289,1.761539003,-4.102279639,0.239339554,0.0,2.290465832,-0.891621113,-0.140097201
21.82,2296.11499,1.134469599,-3.288525617,0.92385073,0.0,2.20524478,-2.613088369,-0.501221895
21.869,2294.783447,2.034386078,-4.073559356,1.096175133,0.0,1.991659284,-4.327631474,-1.225601673
21.922,2294.783447,3.020465159,-4.504370034,1.397743002,0.0,1.873947501,-4.859731197,-1.452502966
21.990000000000002,2294.783447,2.627948582,-4.212376493,0.986079009,0.0,1.712559938,-5.594763756,-1.70443809
22.055,2294.493408,2.795486003,-3.891661209,0.579201706,0.0,1.170872927,-6.791055679,-2.132141829
22.076,2293.99292,-0.981292173,-2.714110601,-3.020465159,0.0,-1.040616035,-10.79698277,-2.233874559
22.128,2293.99292,-2.288086101,-2.460410577,-3.834219766,0.0,-1.825183272,-11.64280319,-1.518549442
22.181,2293.99292,-6.816390824,-1.84770146,-4.782004017,0.0,-2.161809444,-11.87875938,-0.545958817
22.222,2291.774902,-9.664530778,-1.627509066,-2.374248412,0.0,-1.765530944,-10.70696831,0.836754441
22.273,2291.010986,-10.04747529,-1.546133518,-2.896008748,0.0,-0.767378271,-8.286687851,1.496685743
22.321,2291.010986,-8.472620904,-0.966931812,-1.191910969,0.0,-0.094663732,-4.969453812,1.489761472
22.372,2291.010986,-9.726758838,-0.947784689,-1.512626034,0.0,0.020384829,-4.132155895,1.437563539
22.422,2292.760254,-7.352510571,-0.871195976,0.143603736,0.0,0.198816627,-0.20505856,1.466325641
22.472,2293.937988,-11.35905554,-1.330728033,1.297220403,0.0,0.105073348,2.612033129,1.718260765
22.521,2293.937988,-14.91085413,-1.479118404,-0.426024427,0.0,-0.111707963,3.730028152,1.895094633
22.581,2293.846436,-13.34078665,-0.545694222,-2.364674741,0.0,-0.710386634,5.17292881,1.91213882
22.628,2293.846436,-10.98568485,-1.191910969,-1.73760519,0.0,-0.894144714,5.718344212,1.836505055
22.677,2293.846436,-19.69285727,2.249791855,-7.874271929,0.0,-1.200940847,7.482422352,1.687900662
22.721,2291.68335,-40.21383162,15.93522804,-29.44833755,0.0,-2.427063465,13.93739223,1.647958517
22.771,2291.68335,-28.24206696,13.37429326,-21.89478383,0.0,-4.455859661,17.45276451,1.100945234
22.825,2287.768066,-7.883844578,-5.045277858,3.379474545,0.0,-4.517644882,17.45276451,-3.672504663
22.872,2284.9021,-18.91261277,0.210618814,5.667560208,0.0,1.376463294,17.45276451,-5.358285904
22.925,2284.9021,-18.71635244,1.627509066,-3.025252068,0.0,3.226827621,17.45276451,-4.228572845
22.971,2283.487549,-2.699750167,-0.770673378,-6.131879246,0.0,4.391161919,17.45276451,1.253810644
23.02,2283.487549,0.311141431,-3.312459576,-1.689737272,0.0,3.439347982,17.45276451,2.605631351
23.07,2281.494141,2.522638929,-7.371658206,9.281588018,0.0,-1.489630699,16.77206039,3.369958639
23.121000000000002,2281.494141,-0.837688492,-6.816390824,11.34948173,0.0,-3.001773596,15.49161339,1.780051351
23.173000000000002,2280.400879,-5.916473615,-5.026130223,12.25418584,0.0,-2.932643414,14.12740517,-1.155876756
23.284000000000002,2280.400879,-8.27636174,-3.642747802,10.81336081,0.0,-2.932643414,14.12740517,-1.155876756
23.333000000000002,2278.738281,-10.59795518,-2.240218183,-0.698871501,2398.0,1.642667294,11.60326195,-1.87546289
23.377000000000002,2278.246338,-7.170613301,-2.958236808,-5.246322763,2398.0,2.075697422,6.245514393,-0.459726423
23.424,2278.246338,-6.481314814,-4.073559356,-6.940846944,2398.0,1.956387639,4.130964279,-0.090079658
23.472,2275.328857,-13.62320783,-6.007423127,-2.173203069,2398.0,0.992855966,-12.32417583,0.361059844
23.521,2275.328857,-39.51496048,-5.07878505,16.25594215,2398.0,0.547575414,-17.41933632,0.208194375
23.569000000000003,2273.869141,-38.97884073,-5.528743947,37.55237584,2398.0,0.827740014,-17.4528923,0.408464104
23.626,2273.869141,-6.265909767,-7.405165398,10.22937315,2398.0,1.397656441,-17.4528923,-2.460825682
23.684,2272.131348,-4.446928883,-4.834659135,0.88555641,2398.0,-2.266855001,-17.4528923,-2.808098793
23.73,2272.131348,-7.089237607,-3.130561429,-0.746739419,2398.0,-2.985375881,-17.4528923,-2.010215759
23.773,2268.500732,-17.54837594,-3.2789518,-5.284617448,2398.0,-3.074858189,-13.61474419,2.574149847
23.82,2268.500732,-16.73940766,-5.504809403,2.091827813,2398.0,-1.530757308,-10.23838806,4.102804184
23.927,2268.500732,-7.299856329,-6.682360303,4.293751311,2373.0,-0.724352181,-8.025834084,4.444221497
23.973000000000003,2266.439209,-0.995652607,-6.529183316,5.241536438,2373.0,3.125513554,-5.888381004,2.936339617
24.028000000000002,2266.439209,-1.124895854,-6.337711644,4.935181296,2373.0,3.347088575,-5.737113476,2.51183176
24.078,2263.33252,3.508717865,-4.068772155,2.144482493,2373.0,3.838175535,-5.239102364,0.797821283
24.123,2263.33252,3.604453701,-3.389048362,-0.832901584,2373.0,3.668798447,-5.161337852,-0.055455536
24.194000000000003,2260.97998,1.033946927,-2.422116476,-2.886434931,2373.0,3.294890642,-5.217264175,-0.785161734
24.239,2260.97998,-0.574414907,-1.345088321,-2.417329568,2373.0,2.8069942,-5.376522064,-1.299143076
24.274,2255.886475,-2.929516232,-0.59356214,-3.460849947,2373.0,2.11031127,-5.658284664,-1.75134778
24.321,2255.886475,-3.360327202,1.345088321,-2.986957675,2373.0,1.458902001,-5.770669937,-2.057611465
24.371000000000002,2253.26001,-6.634491801,1.900355995,-4.456502408,2373.0,1.032796144,-5.724863529,-2.370266676
24.42,2253.26001,-9.975672245,3.197576398,-1.79504678,2373.0,0.50229454,-5.63325119,-2.544970036
24.476000000000003,2252.897949,-11.67498333,4.001757187,0.057441493,2373.0,-0.236466393,-5.273724079,-2.546567917
24.542,2252.897949,-11.09578199,4.844232953,1.110535493,2373.0,-0.437268734,-5.021789074,-2.461346626
24.574,2252.718262,-10.23415947,3.436915696,14.40345466,2373.0,-0.276413798,-3.714176893,-2.254685402
24.625,2252.718262,-10.41605732,1.914716429,14.71459613,2373.0,0.449031293,-2.493383884,-2.419801474
24.675,2251.74707,-7.993941724,0.521760263,10.36340308,2373.0,0.510284007,-2.308027744,-2.485847712
24.731,2251.74707,-12.79030559,0.981292173,11.85209486,2373.0,1.046640635,-1.832387924,-2.490102291
24.782,2249.91333,-16.56708362,2.886434931,17.47178657,2373.0,1.423211694,-1.768472075,-2.320725441
24.826,2249.91333,-14.36994689,3.063546461,12.70414357,2373.0,2.280216932,-1.929859638,-1.614987493
24.869,2248.27124,-12.78073294,2.091827813,9.56879611,2373.0,2.430951834,-2.014015436,-1.452534676
24.922,2248.27124,-8.726320636,1.354661992,7.701946723,2354.0,2.764912367,-2.318148613,-0.989144683
24.973000000000003,2246.577881,-4.355980247,9.286374342,11.2106643,2354.0,3.049337864,-1.893640637,-1.103660583
25.021,2246.577881,-6.730228221,9.650170636,2.982170767,2354.0,3.162256002,-1.387107372,-1.276233435
25.080000000000002,2244.103027,-4.624039829,3.240657407,-0.344648951,2354.0,2.58807826,-1.237970352,-1.543614864
25.196,2244.103027,-5.466515303,5.662773883,-2.345527691,2354.0,2.234943151,-1.293364048,-1.56811583
25.223000000000003,2241.499023,-7.242414594,2.101401338,2.632734907,2354.0,0.265798479,-0.592420578,-0.788336813
25.271,2238.563232,-8.127971661,3.192789781,3.192789781,2354.0,-0.261507422,0.080293976,-0.147047609
25.321,2238.563232,-8.324229658,3.255017841,4.925608063,2354.0,-0.545933008,0.573511422,0.262546599
25.373,2235.759521,-6.682360303,1.268499681,6.294630051,2354.0,-0.875099719,1.190299511,0.794646144
25.424,2233.203857,-3.877300775,1.306793928,6.883405209,2354.0,-1.143546343,1.691506386,0.723273456
25.471,2233.203857,-5.878179514,1.842914551,3.92995531,2354.0,-1.201603293,1.89443934,0.865486264
25.526,2233.203857,-7.438673174,1.708884469,6.289843726,2354.0,-1.510529995,2.07446909,0.862290442
25.572,2230.74707,-7.218480635,0.50261303,5.246322763,2354.0,-1.563260555,2.163951159,0.83352828
25.625,2228.502686,-8.683239043,0.067015073,3.044399118,2354.0,-2.119861364,2.525075912,0.707294464
25.674,2228.502686,-8.046595967,-0.914277132,2.345527691,2354.0,-2.254617214,2.624678135,0.641248047
25.721,2228.502686,-8.898644674,-0.890343173,2.082253996,2354.0,-2.489512444,2.851578712,0.360025585
25.79,2226.894043,-8.668878317,-1.187124133,4.049625397,2354.0,-2.575798988,2.95757246,0.215682253
25.823,2226.894043,-10.77506671,-0.368582947,2.809846437,2354.0,-2.63012743,3.678756475,-0.398975343
25.87,2226.036377,-12.62755537,0.952571379,0.459531911,2354.0,-2.377127171,4.373841763,-0.793655813
25.921,2227.044922,-12.53181953,2.000878593,1.191910969,2354.0,-1.876452804,5.022055149,-1.085538387
25.971,2227.044922,-11.35426805,1.302007166,-1.828554264,2332.0,-1.414128065,5.375722885,-1.140399456
26.034000000000002,2226.23291,-11.9095366,3.259804749,-3.992183954,2332.0,-0.800003052,5.661213875,-1.056776166
26.07,2226.23291,-9.908656693,3.614027226,-6.007423127,2332.0,-0.496935338,5.653757095,-0.788862109
26.124000000000002,2226.23291,-8.707172418,2.465197486,-7.266349137,2332.0,-0.379223615,5.578656197,-0.514556527
26.178,2223.025146,-3.652321619,5.188881612,-8.15190562,2332.0,-0.45645529,5.175985813,-0.190716133
26.228,2219.09668,1.421676961,5.141013694,-10.50221934,2332.0,-0.650867999,4.546947002,0.067081034
26.273,2219.09668,1.632295829,4.327259088,-9.01352756,2332.0,-0.733425975,4.149603367,0.046308376
26.325,2219.09668,0.727592295,0.50261303,-6.849898016,2332.0,-0.932097793,3.375688553,0.160824299
26.422,2216.224365,-9.99481988,8.21413368,-12.24939835,2332.0,-1.255938172,3.464638233,0.726479709
26.471,2214.709717,-4.303325129,0.583988505,-5.600545824,2332.0,-2.501765013,4.761065006,2.317985058
26.523,2214.709717,-6.366432512,0.531333788,-3.116200995,2332.0,-3.118020535,5.106743336,2.51772213
26.577,2214.112305,1.565280715,-2.197137028,3.154495388,2332.0,-4.088476181,5.68411684,2.337159634
26.627000000000002,2213.688232,4.001757187,-3.465636855,5.806377637,2332.0,-4.411251545,5.025250435,1.090267539
26.671,2213.688232,5.79680382,-4.212376493,7.290283096,2332.0,-4.339346409,4.899016857,0.632736444
26.723000000000003,2212.46582,1.550920281,-0.813754533,11.01919262,2332.0,-3.773162365,4.420712471,-0.379257888
26.77,2212.46582,1.249352485,-3.030038977,7.764174783,2332.0,-2.916689873,3.874231577,-0.904965878
26.823,2210.580322,1.637082592,-1.517412797,8.204559863,2332.0,-2.480463982,3.414037466,-1.089256644
26.872,2210.580322,0.84726209,-1.354661992,7.596637654,2332.0,-1.870599985,2.58579421,-1.17927146
26.923000000000002,2207.847168,-5.093145776,-0.454745148,12.1057946,2310.0,-1.660742879,2.317347527,-1.147313595
26.970000000000002,2207.847168,-3.207149923,-0.670150779,8.61622349,2310.0,-0.893219829,0.12290296,-0.269535661
27.021,2207.847168,0.028720747,-0.818541296,5.71542871,2310.0,-0.893219829,0.12290296,-0.269535661
27.075,2205.424561,1.9242901,-1.713671231,4.05919863,2310.0,-0.482560426,-1.917611122,0.389863044
27.12,2203.20459,-0.148390526,-1.014799657,7.869484437,2310.0,-0.399469793,-2.499778271,0.51609689
27.17,2203.20459,-0.526547025,-1.742391953,7.089237607,2310.0,0.232764661,-4.497148991,0.973627985
27.227,2201.356689,2.273725668,-2.694963259,3.637961185,2310.0,0.639157414,-5.366405487,1.084957361
27.273,2201.356689,1.852488223,-2.661456066,2.589654189,2310.0,1.008271456,-5.591709137,0.967245638
27.333000000000002,2200.015625,1.81419383,-2.900795364,1.579641002,2310.0,1.433844686,-4.953083038,0.531552494
27.372,2200.015625,2.067893854,-3.207149923,0.488252669,2310.0,1.59310174,-4.056130409,0.178417295
27.421,2197.385254,2.532212454,-3.221510357,0.157964115,2310.0,1.687377572,-2.81722784,-0.152879953
27.472,2197.385254,5.926047432,-4.250670594,2.728471035,2310.0,1.874864101,-0.786301136,-0.605617344
27.525000000000002,2194.550781,8.218920588,-5.710641801,3.427342463,2310.0,2.424540758,2.50856185,-1.111618042
27.573,2194.550781,8.941725683,-5.964341533,3.709763062,2310.0,2.617353678,3.558912754,-1.129194856
27.642,2194.550781,6.634491801,-6.457381439,7.946073222,2310.0,2.990196228,4.915526867,-1.085519075
27.685000000000002,2190.385986,-0.148390526,-5.050064766,8.257214105,2310.0,3.422160864,4.530966282,-0.068191424
27.721,2187.938965,-0.162750896,-5.131439877,11.03355277,2310.0,3.090861797,4.08994627,0.980564475
27.774,2187.938965,-2.096614429,-4.241096777,10.87080371,2310.0,2.916691065,3.932287693,1.184030056
27.825,2185.99585,-6.127092922,-3.068333077,17.28031607,2310.0,2.656766415,3.963712931,1.800818086
27.87,2185.99585,-8.85077734,-3.422555554,12.68020961,2310.0,2.284456491,4.127763271,2.47300005
27.923000000000002,2185.086426,-8.262001598,-3.614027226,11.11971595,2295.0,1.891906619,4.16984129,2.766480446
27.973000000000003,2185.086426,-7.950860131,-3.140134954,7.156252575,2295.0,1.177114129,4.08621788,2.911356211
28.024,2184.121582,-10.77027922,-1.622722158,7.09881084,2295.0,0.651406109,3.768769503,2.768610954
28.07,2184.121582,-5.768083537,-2.120548388,3.58530665,2295.0,0.022367442,2.549574375,2.499099016
28.131,2181.627197,-5.782443678,0.119669777,3.2789518,2295.0,-0.249274999,2.430264711,1.761403322
28.17,2181.627197,-7.835977244,1.302007166,1.694524181,2295.0,-0.299342424,2.239049673,1.505739808
28.225,2181.627197,-8.199774122,1.144043051,2.173203069,2295.0,-0.37817198,1.912013412,1.06152463
28.271,2178.542969,-9.717186189,2.785912478,6.352071786,2295.0,-0.943300009,1.848096848,0.319043785
28.325,2175.833496,-8.104037118,1.823767355,5.662773883,2295.0,-0.836240947,2.128793955,0.022900263
28.373,2175.833496,-7.716307449,0.636643222,2.986957675,2295.0,-0.751552403,2.158621311,-0.290287495
28.424,2174.220215,-8.381671393,1.024373256,4.432568449,2295.0,-0.696158648,2.103227615,-0.617323697
28.472,2174.220215,-16.18892777,0.971718575,9.075756204,2295.0,-0.013324141,1.200416088,-0.931044042
28.531000000000002,2172.506592,-9.003954327,0.622282861,-1.526986322,2295.0,0.097463362,-0.731973648,-0.895357668
28.571,2172.506592,-20.0805881,0.813754533,8.994379926,2295.0,-0.016519934,-1.534650445,-1.087638021
28.626,2170.802002,-16.43305252,-0.167537677,8.994379926,2295.0,0.450598508,-3.253987312,-0.912401915
28.67,2170.802002,-13.42216234,-0.655790418,7.175400209,2295.0,0.585887134,-4.044413567,-0.923054576
28.723000000000003,2168.414551,-11.47872534,-1.024373256,11.83294723,2295.0,0.499068052,-4.389026642,-1.416804671
28.773,2168.414551,-6.950420761,-2.35510107,12.69456975,2295.0,0.486814141,-3.965584517,-2.125200033
28.827,2166.043701,-8.467832828,-3.044399118,12.53181953,2295.0,0.486814141,-3.965584517,-2.125200033
28.871000000000002,2166.043701,-5.332485366,-3.250231224,13.6806484,2295.0,0.401593,-3.385015488,-2.99339056
28.973000000000003,2162.526367,-5.993062401,-4.552238244,15.08796566,2295.0,0.299860239,-2.990334988,-3.319894075
29.024,2158.770996,-4.375127298,-5.184094703,13.05836546,2273.0,-0.066590734,-1.056347132,-3.804589272
29.074,2158.770996,-5.069211817,-5.672347701,14.0109375,2273.0,0.121961072,-0.262725204,-3.895136833
29.123,2154.6604,-5.389927101,-5.906899798,15.03531024,2273.0,0.490009934,0.309854448,-3.896202087
29.172,2154.6604,-5.370779467,-6.356858695,12.8812551,2273.0,1.182964444,0.939958394,-3.813644171
29.246000000000002,2152.165039,-5.77765677,-6.146239972,17.414346,2273.0,2.026121378,1.625456095,-3.680485964
29.28,2152.165039,-5.030917716,-6.538757133,15.62887406,2273.0,2.026121378,1.625456095,-3.680485964
29.325,2148.343018,-7.721093774,-7.91256603,14.70980864,2273.0,3.748117685,2.136782408,-3.012026787
29.389,2146.596436,-10.607529,-7.931712496,17.0074687,2273.0,4.289804935,1.829986334,-2.599236965
29.423000000000002,2146.596436,-12.00048611,-7.946073222,15.27943733,2273.0,4.609916687,1.627586007,-2.328127146
29.506,2146.596436,-6.624919152,-9.85600245,9.755480289,2273.0,4.957725525,1.423055291,-1.85994339
29.528000000000002,2144.395996,-7.835977244,-9.45869838,7.7737486,2273.0,5.669322014,2.359955311,-1.171249866
29.569000000000003,2144.395996,-8.898644674,-10.0426878,3.465636855,2273.0,5.792892933,2.496841908,-0.735556722
29.624000000000002,2142.957031,-6.806817007,-11.09578199,1.230205289,2273.0,5.711400032,2.74185276,-0.237012967
29.676000000000002,2140.99292,-6.07922442,-9.099690163,-1.996091977,2273.0,5.562263012,3.059834003,0.131568536
29.723000000000003,2140.99292,-5.868605697,-8.501341188,-3.915595168,2273.0,5.463726044,3.234004736,0.436766803
29.773,2138.673828,-3.264591658,-8.812482071,-5.701068568,2273.0,5.37637043,3.590867996,0.959285498
29.824,2138.673828,-3.800711989,-8.319443333,-7.476967859,2273.0,5.072237492,3.965841055,1.649044275
29.871000000000002,2138.673828,-3.379474545,-8.764614737,-8.238067055,2273.0,4.894338608,4.042540073,1.959568858
29.957,2135.601074,-1.354661992,-8.343376708,-8.0561692,2251.0,4.159306049,4.110184193,2.898066759
29.977,2135.601074,-1.354661992,-8.343376708,-8.0561692,2251.0,4.159306049,4.110184193,2.898066759
30.03,2130.934326,5.016557574,-3.69061572,-13.47960291,2251.0,2.256210804,3.044387341,3.486092806
30.068,2130.934326,0.067015073,-5.150587511,-10.26287975,2251.0,1.897216797,2.354095936,3.435492754
30.127000000000002,2125.915283,-3.944316036,-6.012209451,-6.174960256,2251.0,1.238883376,1.959415317,3.687960386
30.172,2121.518311,-6.691934121,-5.117079735,-8.61622349,2251.0,0.932087183,0.999612033,3.779040337
30.226000000000003,2121.518311,-3.489570814,-2.651882249,-5.9547683,2251.0,0.645531058,0.34713757,3.580368519
30.275000000000002,2121.518311,-3.542225349,-2.503491879,-6.802030098,2251.0,0.716429055,-0.011738151,3.330154896
30.326,2118.48291,-4.42778154,-3.384261453,-5.49523617,2251.0,0.855446041,0.135268345,3.170365334
30.375,2116.641846,-5.945194483,-3.015678543,-4.925608063,2251.0,0.933210373,0.058569301,3.10751462
30.42,2116.641846,-3.245444316,-2.27851243,-2.809846437,2251.0,1.20112431,0.19439052,2.808175325
30.471,2115.672363,-6.040930319,-3.173642439,-5.456941485,2251.0,1.519638419,0.233805314,2.287261009
30.522000000000002,2115.672363,-6.849898016,-2.627948582,-5.198454845,2251.0,1.586217403,0.414367646,2.198311567
30.57,2114.776611,-5.447368252,-2.910369182,-5.988275492,2251.0,1.65599227,0.986947238,2.032130241
30.621000000000002,2114.776611,-3.288525617,-2.005665356,-5.854245555,2251.0,1.629893184,1.540884733,1.996443987
30.683,2114.776611,-5.523956454,-1.991305214,-4.221949434,2251.0,1.59047842,1.614920616,1.932528138
30.720000000000002,2114.138184,-2.307233444,-2.27851243,-8.175838995,2251.0,1.491408825,2.131041288,1.688049912
30.772000000000002,2112.851318,-3.508717865,-1.84770146,-4.978262889,2251.0,1.464777231,2.362203598,1.584186673
30.821,2112.851318,-4.896887487,-0.957358287,-2.197137028,2251.0,1.526558042,2.520927429,1.392979026
30.874000000000002,2109.75708,-2.642308724,-2.034386078,-4.872953236,2251.0,1.542536974,2.508676767,1.443046451
30.941000000000003,2109.75708,-0.603135665,-2.067893854,-6.227615082,2230.0,1.427488446,2.435706139,1.62680459
30.972,2109.75708,-1.512626034,-1.919503191,-7.812042701,2230.0,1.311907291,2.357409239,1.731733203
31.022000000000002,2101.400391,-1.311580837,-2.283299339,-9.520928192,2230.0,1.20857656,2.116126776,1.989527106
31.074,2096.612549,-6.227615082,-1.823767355,-10.13842363,2230.0,0.943325818,1.895617127,2.269159317
31.12,2096.612549,-3.901234734,-3.523078007,-10.45913892,2230.0,0.637594938,2.123051167,2.500321627
31.172,2092.097412,-2.460410577,-5.07878505,-11.6941298,2230.0,0.132126912,2.397356749,2.924829483
31.227,2092.097412,-3.365114111,-4.609679687,-10.07140808,2230.0,-0.301968336,2.228512287,2.895002127
31.274,2092.097412,-2.149269256,-4.241096777,-9.516140699,2230.0,-0.445246428,1.868452907,2.875827312
31.328,2087.95874,-8.707172418,-5.581398773,-12.47916529,2230.0,-0.804775357,2.578451395,2.804990768
31.372,2084.378662,-3.604453701,-6.31856401,-12.00527127,2230.0,-1.272959113,4.005905628,2.981292009
31.421,2084.378662,-0.191471636,-6.390365887,-9.33424226,2230.0,-2.297210932,1.127028584,2.947736263
31.473000000000003,2080.919922,-0.172324476,-6.050504136,-9.913445354,2230.0,-2.338223457,0.195454776,2.953062534
31.522000000000002,2080.919922,-0.272847111,-5.088358867,-11.49308548,2230.0,-2.000002146,-2.293002844,3.096873283
31.585,2077.733643,-7.362084389,-4.877740145,-14.94914823,2230.0,-1.809852362,-2.230684996,3.367450476
31.626,2077.733643,-5.902113473,-4.911247921,-11.55531354,2230.0,-1.707054377,-1.765697002,3.540023327
