time,baro_altitude,accl_x,accl_y,accl_z,gps_altitude,gyro_roll,gyro_pitch,gyro_yaw
0.0,0.0,0.186684855,9.798560715,0.914277132,0.0,-0.001318426,0.001675807,0.000119177
0.16599999999999998,0.0,0.157964115,9.812920856,0.895129935,0.0,-0.000329391,0.000127902,0.000650022
0.909,-0.014635757,0.162750896,9.803348207,0.895129935,0.0,-0.000329391,0.000127902,0.000650022
0.9390000000000001,0.14469552,0.162750896,9.798560715,0.890343173,0.0,-0.001394655,-0.001469995,0.001715286
0.973,0.14469552,0.181898074,9.812920856,0.899916698,0.0,-0.000329391,-0.002535259,0.001715286
1.025,0.200412139,0.172324476,9.803348207,0.909490296,0.0,0.000735874,-0.001469995,0.000117389
1.076,0.206649095,0.177111275,9.817708349,0.895129935,0.0,0.000203241,0.002258431,0.000650022
1.125,0.206649095,0.157964115,9.812920856,0.875982812,0.0,0.001268506,0.000660534,-0.000947875
1.174,0.206649095,0.157964115,9.803348207,0.890343173,0.0,0.000203241,0.001725798,0.000650022
1.225,0.158832535,0.181898074,9.793774974,0.909490296,0.0,0.001268506,-0.002002627,0.000117389
1.436,0.200412139,0.143603736,9.788987482,0.909490296,0.0,0.000202412,0.002258807,-0.000417381
1.477,0.200412139,0.148390526,9.803348207,0.899916698,0.0,-0.00033022,0.002258807,-0.000417381
1.525,0.214299768,0.148390526,9.788987482,0.88555641,0.0,0.000735044,0.00066091,0.001713148
1.576,0.206649095,0.167537677,9.798560715,0.909490296,0.0,-0.00033022,-0.000936986,0.000647883
1.631,0.206649095,0.177111275,9.793774974,0.895129935,0.0,-0.00033022,0.000128278,0.000647883
1.673,0.192096204,0.177111275,9.774627924,0.880769502,0.0,-0.001395485,-0.000936986,-0.001482646
1.726,0.192096204,0.167537677,9.803348207,0.88555641,0.0,0.001267676,0.002258807,0.000115251
1.777,0.192096204,0.138816946,9.793774974,0.88555641,0.0,-0.001928117,0.002258807,-0.000417381
1.826,0.214299768,0.162750896,9.788987482,0.895129935,0.0,-0.001395485,-0.000404354,-0.001482646
1.875,0.214299768,0.162750896,9.798560715,0.880769502,0.0,-0.000862852,0.000128278,0.000115251
1.925,0.228686363,0.148390526,9.803348207,0.88555641,0.0,0.000202412,0.00066091,-0.000950013
1.972,0.228686363,0.172324476,9.788987482,0.890343173,0.0,-0.000861906,-0.002535312,-0.000947573
2.026,0.195006788,0.186684855,9.803348207,0.899916698,0.0,0.000203358,0.00279101,0.000117691
2.0799999999999996,0.146358699,0.148390526,9.793774974,0.890343173,0.0,0.000735991,0.003323642,0.000117691
2.131,0.146358699,0.148390526,9.793774974,0.871195976,0.0,0.000203358,0.000127849,-0.000414941
2.1769999999999996,0.159664139,0.167537677,9.793774974,0.904703461,0.0,0.000735991,-0.000937416,0.000117691
2.231,0.159664139,0.177111275,9.784200573,0.899916698,0.0,-0.000329274,0.000127849,0.000117691
2.279,0.201243728,0.186684855,9.788987482,0.899916698,0.0,-0.000861906,-0.000937416,-0.001480206
2.327,0.201243728,0.172324476,9.793774974,0.890343173,0.0,-0.000861906,-0.001470048,0.000650323
2.375,0.201243728,0.157964115,9.8081357,0.895129935,0.0,0.001268623,-0.000937416,0.000650323
2.4259999999999997,0.17163904,0.153177316,9.798560715,0.890343173,0.0,0.000203358,0.003856274,0.000117691
2.4939999999999998,0.213717654,0.167537677,9.798560715,0.890343173,0.0,0.000203358,0.002258378,0.000650323
2.529,0.213717654,0.153177316,9.784200573,0.88555641,0.0,0.000203358,-0.000404783,-0.000947573
2.5799999999999996,0.165069476,0.153177316,9.803348207,0.904703461,0.0,0.000203358,-0.000937416,-0.000414941
2.6239999999999997,0.165069476,0.162750896,9.798560715,0.880769502,0.0,0.000203358,-0.000937416,0.000117691
2.675,0.165069476,0.172324476,9.788987482,0.890343173,0.0,0.001268623,-0.000404783,-0.000947573
2.7279999999999998,0.233675942,0.172324476,9.788987482,0.904703461,0.0,-0.000329274,-0.000937416,0.000117691
2.7739999999999996,0.233675942,0.167537677,9.788987482,0.890343173,0.0,-0.000329274,0.002258378,0.000117691
2.8249999999999997,0.255297482,0.167537677,9.788987482,0.88555641,0.0,-0.001927171,-0.00200268,-0.000414941
2.877,0.30436188,0.172324476,9.784200573,0.899916698,0.0,-0.000861906,-0.001470048,-0.000414941
2.928,0.30436188,0.177111275,9.793774974,0.895129935,0.0,0.000203358,-0.000404783,0.000117691
2.9749999999999996,0.30436188,0.186684855,9.784200573,0.909490296,0.0,-0.001394538,0.000660481,0.001182956
3.0269999999999997,0.193759397,0.177111275,9.8081357,0.88555641,0.0,0.001801255,0.001193113,0.000117691
3.073,0.190931976,0.167537677,9.803348207,0.904703461,0.0,0.000203358,0.002258378,0.001182956
3.126,0.190931976,0.172324476,9.793774974,0.895129935,0.0,0.000735991,0.00279101,0.000650323
3.1759999999999997,0.190931976,0.167537677,9.793774974,0.914277132,0.0,-0.000329274,0.001725745,0.000650323
3.2249999999999996,0.248312041,0.148390526,9.788987482,0.94299778,0.0,0.000735991,-0.00200268,-0.002012838
3.275,0.275255829,0.177111275,9.798560715,0.871195976,0.0,0.000203358,-0.00200268,0.000650323
3.3259999999999996,0.275255829,0.177111275,9.774627924,0.899916698,0.0,-0.001394538,0.000127849,0.000650323
3.376,0.299372256,0.181898074,9.788987482,0.899916698,0.0,0.000203358,-0.001470048,0.000117691
3.424,0.299372256,0.162750896,9.788987482,0.914277132,0.0,-0.000329274,0.000127849,-0.000414941
3.476,0.26111865,0.167537677,9.774627924,0.890343173,0.0,-0.000328387,0.000127446,-0.000412654
3.522,0.26111865,0.167537677,9.774627924,0.890343173,0.0,-0.000328387,0.000127446,-0.000412654
3.577,0.241659269,0.162750896,9.784200573,0.92385073,0.0,0.000736878,-0.000405186,0.000652611
3.626,0.241659269,0.177111275,9.788987482,0.88555641,0.0,-0.000861019,-0.000937818,0.001185243
3.6759999999999997,0.263613462,0.191471636,9.788987482,0.890343173,0.0,-0.000861019,0.000127446,0.000652611
3.7249999999999996,0.263613462,0.172324476,9.784200573,0.914277132,0.0,-0.000861019,0.000660078,0.000652611
3.7739999999999996,0.305692434,0.162750896,9.793774974,0.895129935,0.0,-0.000328387,-0.002003083,0.000652611
3.827,0.305692434,0.177111275,9.779414248,0.895129935,0.0,0.000736878,0.000127446,0.000119979
3.876,0.323488742,0.167537677,9.788987482,0.890343173,0.0,-0.001393651,0.001192711,0.000652611
3.928,0.323488742,0.172324476,9.798560715,0.914277132,0.0,-0.000861019,-0.000937818,0.000119979
3.976,0.312262088,0.167537677,9.769840431,0.890343173,0.0,-0.000326612,-0.000405991,0.001189818
4.031000000000001,0.312262088,0.177111275,9.784200573,0.895129935,0.0,-0.000326612,0.000659273,-0.000940711
4.075,0.312262088,0.162750896,9.774627924,0.895129935,0.0,0.00020602,0.001724538,-0.000408079
4.126,0.31633693,0.162750896,9.784200573,0.88555641,0.0,-0.000326612,0.001724538,0.000657186
4.173,0.357584536,0.143603736,9.784200573,0.890343173,0.0,0.001803917,0.00225717,-0.000408079
4.231,0.357584536,0.177111275,9.784200573,0.899916698,0.0,-0.000326612,-0.000405991,-0.000408079
4.275,0.332636386,0.157964115,9.798560715,0.904703461,0.0,-0.000859245,0.000126641,0.000657186
4.327,0.332636386,0.172324476,9.788987482,0.914277132,0.0,-0.000859245,-0.000405991,0.000124553
4.3740000000000006,0.384195954,0.167537677,9.774627924,0.895129935,0.0,0.00020602,0.000126641,0.000657186
4.425,0.384195954,0.148390526,9.788987482,0.890343173,0.0,-0.001391877,0.001191905,0.000657186
4.478000000000001,0.358915091,0.167537677,9.788987482,0.890343173,0.0,-0.000325075,0.00172384,-0.000404114
4.543,0.358915091,0.157964115,9.788987482,0.909490296,0.0,-0.000325075,0.000658576,0.000661151
4.575,0.336794406,0.162750896,9.774627924,0.88555641,0.0,0.001272822,0.000125943,0.000128518
4.6290000000000004,0.336794406,0.167537677,9.784200573,0.899916698,0.0,-0.001390339,-0.001471953,-0.000936746
4.673,0.378707349,0.181898074,9.779414248,0.904703461,0.0,0.00074019,-0.000406689,-0.000404114
4.756,0.378707349,0.177111275,9.793774974,0.904703461,0.0,0.001272822,0.000125943,0.000661151
4.775,0.378707349,0.177111275,9.793774974,0.904703461,0.0,0.001272822,0.000125943,0.000661151
4.825,0.40615043,0.181898074,9.788987482,0.890343173,0.0,-0.000857707,0.001191208,-0.000936746
4.875,0.456546128,0.157964115,9.779414248,0.904703461,0.0,0.00074019,0.000658576,-0.000404114
4.926,0.456546128,0.162750896,9.784200573,0.914277132,0.0,0.000207558,-0.001471953,-0.000404114
4.974,0.446566761,0.172324476,9.788987482,0.899916698,0.0,-0.000858831,-0.000406179,0.000125621
5.026,0.446566761,0.167537677,9.793774974,0.914277132,0.0,-0.000326198,-0.000406179,0.000125621
5.073,0.446566761,0.172324476,9.784200573,0.899916698,0.0,-0.000858831,-0.000406179,-0.000939644
5.125,0.434924185,0.167537677,9.798560715,0.919063821,0.0,0.001804331,0.002256982,0.001190885
5.175,0.459456772,0.167537677,9.788987482,0.88555641,0.0,-0.000326198,0.000126453,0.000125621
5.2250000000000005,0.459456772,0.172324476,9.779414248,0.895129935,0.0,-0.000326198,0.000659085,-0.000407011
5.273000000000001,0.385859191,0.177111275,9.784200573,0.899916698,0.0,-0.000326198,-0.000938811,-0.000407011
5.325,0.385859191,0.177111275,9.779414248,0.899916698,0.0,0.001271698,-0.000938811,0.000125621
5.376,0.376711488,0.153177316,9.779414248,0.914277132,0.0,-0.001391463,-0.000938811,0.000125621
5.431,0.376711488,0.162750896,9.788987482,0.914277132,0.0,-0.000858831,-0.000938811,0.000125621
5.476,0.399164915,0.167537677,9.774627924,0.933424255,0.0,0.000206434,0.000126453,-0.001472276
5.527,0.399164915,0.153177316,9.784200573,0.904703461,0.0,0.000208504,-0.000407118,-0.001999571
5.575,0.374715626,0.172324476,9.788987482,0.909490296,0.0,0.001273768,0.000658146,0.000130958
5.626,0.374715626,0.162750896,9.779414248,0.895129935,0.0,-0.000324128,-0.001472383,0.000663591
5.6770000000000005,0.357584536,0.177111275,9.784200573,0.919063821,0.0,0.000208504,0.000658146,-0.000401674
5.7250000000000005,0.357584536,0.181898074,9.798560715,0.899916698,0.0,0.000208504,0.001190778,-0.000401674
5.776,0.376212537,0.153177316,9.784200573,0.914277132,0.0,0.000741136,0.001723411,0.001196223
5.825,0.376212537,0.162750896,9.784200573,0.895129935,0.0,0.000741136,0.000125514,0.000130958
5.8740000000000006,0.392512053,0.162750896,9.784200573,0.909490296,0.0,-0.002454657,-0.002537647,-0.002532203
5.926,0.392512053,0.181898074,9.788987482,0.904703461,0.0,-0.000324128,-0.000939751,-0.000934306
5.9750000000000005,0.395838469,0.162750896,9.793774974,0.909490296,0.0,-0.00085676,-0.000939751,0.000130958
6.025,0.395838469,0.167537677,9.784200573,0.914277132,0.0,-0.000855932,0.000125138,0.000133093
6.078,0.333052188,0.167537677,9.784200573,0.92385073,0.0,-0.000855932,0.001190403,-0.000932171
6.128,0.333052188,0.153177316,9.788987482,0.928637493,0.0,0.001274596,0.002255667,0.000665725
6.175,0.318499118,0.172324476,9.779414248,0.899916698,0.0,0.000209332,-0.000407494,0.000133093
6.236000000000001,0.340952426,0.172324476,9.798560715,0.895129935,0.0,-0.0003233,0.000125138,0.000665725
6.275,0.340952426,0.162750896,9.784200573,0.947784689,0.0,-0.001388565,0.000125138,0.000665725
6.3260000000000005,0.340952426,0.186684855,9.793774974,0.928637493,0.0,-0.0003233,-0.002005391,-0.000932171
6.377000000000001,0.332636386,0.172324476,9.774627924,0.914277132,0.0,-0.000855932,-0.000940126,0.000133093
6.4270000000000005,0.332636386,0.157964115,9.793774974,0.92385073,0.0,-0.0003233,0.001190403,0.000133093
6.474,0.288894087,0.162750896,9.803348207,0.909490296,0.0,0.001276193,-0.000408219,0.000669843
6.524,0.288894087,0.153177316,9.788987482,0.909490296,0.0,-0.001386968,-0.000408219,-0.000395422
6.589,0.304611355,0.177111275,9.784200573,0.895129935,0.0,0.000210929,-0.000940851,0.000669843
6.625,0.304611355,0.172324476,9.784200573,0.919063821,0.0,-0.000321703,0.00172231,0.000137211
6.674,0.330557376,0.186684855,9.784200573,0.92385073,0.0,0.000210929,-0.000940851,-0.000395422
6.732,0.330557376,0.172324476,9.788987482,0.96214505,0.0,0.000210929,0.000657046,-0.000395422
6.775,0.388354003,0.167537677,9.784200573,0.947784689,0.0,0.000743561,0.003320207,-0.001993318
6.8260000000000005,0.388354003,0.177111275,9.788987482,0.890343173,0.0,-0.000321703,0.001189678,0.000137211
6.875,0.310183078,0.186684855,9.798560715,0.914277132,0.0,-0.001386968,-0.000940851,-0.000395422
6.926,0.310183078,0.157964115,9.779414248,0.904703461,0.0,-0.000854335,0.001189678,0.000669843
6.976,0.33712703,0.177111275,9.779414248,0.904703461,0.0,-0.001386968,-0.001473483,-0.000395422
7.029,0.449061602,0.172324476,9.784200573,0.904703461,0.0,-0.000319456,-0.000409239,0.000143006
7.075,0.449061602,0.181898074,9.788987482,0.899916698,0.0,0.000213176,0.000123394,0.00120827
7.126,0.449061602,0.181898074,9.779414248,0.899916698,0.0,-0.000852088,0.000656026,0.000675638
7.175,0.415797114,0.167537677,9.784200573,0.895129935,0.0,0.001278441,0.002253923,0.000143006
7.2250000000000005,0.415797114,0.157964115,9.784200573,0.928637493,0.0,-0.001917352,0.000123394,0.00120827
7.276,0.348436862,0.162750896,9.784200573,0.899916698,0.0,-0.00138472,-0.002007135,-0.000389627
7.328,0.35791716,0.157964115,9.784200573,0.909490296,0.0,0.000745809,-0.000409239,0.000143006
7.376,0.35791716,0.172324476,9.784200573,0.92385073,0.0,0.000745809,-0.000409239,0.000143006
7.425,0.399164915,0.167537677,9.784200573,0.890343173,0.0,-0.000319456,0.000656026,-0.000922259
7.4750000000000005,0.399164915,0.177111275,9.793774974,0.938211091,0.0,0.000213176,0.000123394,-0.000389627
7.525,0.363405764,0.162750896,9.779414248,0.909490296,0.0,-0.001383656,0.000655543,0.001743647
7.575,0.363405764,0.162750896,9.779414248,0.919063821,0.0,0.000214241,-0.000942354,-0.000386882
7.634,0.363405764,0.172324476,9.784200573,0.904703461,0.0,0.000746873,-0.002540251,-0.000386882
7.678,0.390433013,0.191471636,9.793774974,0.928637493,0.0,-0.001916288,0.001188175,0.000145751
7.735,0.373634547,0.162750896,9.784200573,0.952571379,0.0,0.000746873,0.000655543,0.000678383
7.776,0.373634547,0.167537677,9.793774974,0.919063821,0.0,0.001279506,0.000655543,-0.000919514
7.824,0.373634547,0.129243366,9.779414248,0.952571379,0.0,0.000214241,0.000655543,-0.000386882
7.875,0.413302302,0.162750896,9.788987482,0.909490296,0.0,0.000214241,0.000655543,0.001211015
7.926,0.413302302,0.181898074,9.779414248,0.928637493,0.0,-0.000318391,-0.000942354,-0.000919514
7.976,0.453219682,0.181898074,9.788987482,0.890343173,0.0,0.000746873,-0.002007618,0.000145751
8.058,0.453219682,0.167537677,9.788987482,0.919063821,0.0,-0.001382059,0.000654818,0.001747765
8.076,0.403322965,0.172324476,9.760267782,0.899916698,0.0,-0.000849426,0.00118745,-0.000915396
8.124,0.395838469,0.177111275,9.784200573,0.919063821,0.0,-0.000316794,0.000654818,-0.000382764
8.176,0.395838469,0.162750896,9.793774974,0.919063821,0.0,0.000215838,0.000122186,0.0006825
8.239,0.395838469,0.177111275,9.788987482,0.899916698,0.0,0.00074847,-0.000943078,-0.000382764
8.276,0.360910952,0.162750896,9.788987482,0.899916698,0.0,0.000215838,-0.000410446,-0.000382764
8.325000000000001,0.400578648,0.172324476,9.784200573,0.92385073,0.0,0.000215838,0.000654818,0.0006825
8.373000000000001,0.400578648,0.177111275,9.793774974,0.947784689,0.0,0.000215838,0.000654818,0.0006825
8.425,0.318499118,0.172324476,9.765053523,0.909490296,0.0,0.00074847,0.000654818,-0.000382764
8.475,0.318499118,0.181898074,9.779414248,0.909490296,0.0,0.001813735,0.000122186,0.0006825
8.526,0.296877444,0.162750896,9.788987482,0.899916698,0.0,0.000219032,0.000120737,0.000158103
8.576,0.296877444,0.167537677,9.788987482,0.919063821,0.0,0.000751664,-0.000944528,-0.001439794
8.632,0.323488742,0.186684855,9.779414248,0.933424255,0.0,0.001284296,-0.000944528,-0.000374529
8.677,0.323488742,0.167537677,9.779414248,0.914277132,0.0,0.000219032,-0.00147716,-0.000374529
8.73,0.323488742,0.191471636,9.774627924,0.895129935,0.0,0.001284296,-0.000411895,0.000158103
8.775,0.364570022,0.157964115,9.798560715,0.919063821,0.0,0.000219032,0.000653369,-0.000374529
8.829,0.357584536,0.181898074,9.803348207,0.914277132,0.0,-0.000846233,0.000653369,-0.000907162
8.874,0.357584536,0.167537677,9.779414248,0.909490296,0.0,-0.000846233,0.000653369,0.001223367
8.925,0.334549069,0.172324476,9.784200573,0.909490296,0.0,-0.0003136,-0.000411895,0.001223367
8.974,0.334549069,0.186684855,9.779414248,0.909490296,0.0,0.000219032,-0.000411895,0.001223367
9.027000000000001,0.372553438,0.181898074,9.798560715,0.919063821,0.0,-0.000844991,-0.001477723,-0.000903959
9.076,0.372553438,0.162750896,9.774627924,0.928637493,0.0,-0.001377623,0.001185438,-0.000371327
9.13,0.365068972,0.162750896,9.779414248,0.92385073,0.0,-0.000312358,0.000120173,0.000161305
9.175,0.365068972,0.181898074,9.784200573,0.928637493,0.0,-0.000844991,0.001185438,0.00122657
9.225,0.372553438,0.148390526,9.784200573,0.895129935,0.0,-0.001377623,0.000120173,-0.000903959
9.276,0.372553438,0.153177316,9.779414248,0.947784689,0.0,-0.000844991,0.000120173,-0.000371327
9.326,0.376711488,0.201045234,9.774627924,0.909490296,0.0,-0.001377623,-0.000412459,-0.000371327
9.376,0.376711488,0.143603736,9.784200573,0.928637493,0.0,-0.001377623,-0.000412459,-0.000371327
9.425,0.376711488,0.191471636,9.784200573,0.909490296,0.0,-0.000844991,0.000652805,-0.000903959
9.475,0.351763278,0.172324476,9.788987482,0.909490296,0.0,0.000752906,0.000652805,0.000693937
9.53,0.269434631,0.177111275,9.793774974,0.919063821,0.0,0.000752906,-0.000945091,0.000161305
9.573,0.269434631,0.167537677,9.774627924,0.909490296,0.0,-0.001377623,0.000652805,-0.000371327
9.627,0.269434631,0.172324476,9.784200573,0.92385073,0.0,0.000220274,0.000652805,0.000693937
9.978,0.364570022,0.177111275,9.788987482,0.914277132,0.0,0.000220274,-0.000412459,0.000693937
10.026,0.441577107,0.181898074,9.774627924,0.92385073,0.0,0.001820122,0.000119288,-0.000366295
10.076,0.441577107,0.157964115,9.788987482,0.92385073,0.0,-0.000843039,-0.000413345,0.00069897
10.126,0.414133906,0.186684855,9.774627924,0.947784689,0.0,0.000222226,-0.000413345,0.00069897
10.177,0.414133906,0.153177316,9.774627924,0.909490296,0.0,0.000754858,0.000119288,-0.001431559
10.231,0.35841614,0.153177316,9.8081357,0.919063821,0.0,0.000754858,0.00065192,-0.000366295
10.274000000000001,0.35841614,0.172324476,9.760267782,0.899916698,0.0,0.000222226,0.000119288,-0.000366295
10.325000000000001,0.355422348,0.181898074,9.784200573,0.94299778,0.0,0.000222226,-0.002011241,0.00069897
10.375,0.355422348,0.153177316,9.784200573,0.919063821,0.0,0.000754858,0.00065192,-0.000898927
10.425,0.390017211,0.167537677,9.765053523,0.94299778,0.0,0.000222226,0.000119288,0.002829499
10.475,0.390017211,0.177111275,9.774627924,0.904703461,0.0,0.000754858,0.001184552,-0.000366295
10.522,0.390017211,0.177111275,9.784200573,0.904703461,0.0,0.000222226,0.000119288,0.000166338
10.574,0.397002727,0.186684855,9.779414248,0.914277132,0.0,0.000757993,0.000650497,0.000707052
10.627,0.327646762,0.177111275,9.803348207,0.919063821,0.0,-0.000307272,-0.001480032,-0.000358212
10.68,0.327646762,0.177111275,9.798560715,0.914277132,0.0,0.000757993,-0.000947399,-0.000358212
10.726,0.347272605,0.177111275,9.788987482,0.914277132,0.0,-0.000307272,0.001715762,-0.000358212
10.775,0.347272605,0.167537677,9.779414248,0.904703461,0.0,0.00022536,-0.000414767,-0.000890845
10.825000000000001,0.36257416,0.177111275,9.784200573,0.899916698,0.0,0.00022536,0.000650497,0.00017442
10.874,0.36257416,0.172324476,9.784200573,0.92385073,0.0,0.00022536,0.000117865,-0.000358212
10.926,0.404653549,0.177111275,9.784200573,0.914277132,0.0,0.000757993,-0.000414767,0.001239684
10.976,0.404653549,0.177111275,9.774627924,0.919063821,0.0,0.00022536,0.000117865,0.00017442
11.028,0.422865808,0.177111275,9.784200573,0.92385073,0.0,0.001290625,0.000117865,0.001239684
11.074,0.422865808,0.181898074,9.769840431,0.909490296,0.0,-0.000305024,-0.000415787,-0.000352417
11.127,0.415797114,0.167537677,9.784200573,0.933424255,0.0,-0.000305024,-0.000415787,-0.001417682
11.175,0.415797114,0.177111275,9.774627924,0.914277132,0.0,0.00076024,-0.000415787,-0.000352417
11.228,0.450309038,0.148390526,9.769840431,0.933424255,0.0,-0.000837656,0.000116845,0.001245479
11.276,0.450309038,0.172324476,9.784200573,0.914277132,0.0,-0.000305024,-0.000415787,0.000180215
11.328,0.45072484,0.172324476,9.779414248,0.914277132,0.0,-0.001370289,-0.000948419,0.000712847
11.375,0.45072484,0.191471636,9.798560715,0.933424255,0.0,0.00076024,-0.000415787,0.000180215
11.425,0.45072484,0.172324476,9.774627924,0.904703461,0.0,-0.001370289,0.001714742,0.000712847
11.474,0.45072484,0.172324476,9.784200573,0.928637493,0.0,0.00076024,0.000649478,0.000180215
11.528,0.493469864,0.191471636,9.793774974,0.957358287,0.0,0.000231157,0.001180499,0.000189365
11.576,0.493469864,0.153177316,9.793774974,0.96214505,0.0,0.000763789,0.000647867,0.000189365
11.624,0.483157814,0.181898074,9.788987482,0.928637493,0.0,-0.000301476,0.001713132,-0.001408532
11.68,0.483157814,0.172324476,9.788987482,0.933424255,0.0,-0.00136674,-0.000417397,0.000189365
11.728,0.441577107,0.186684855,9.774627924,0.919063821,0.0,-0.000301476,0.000115235,0.001787261
11.776,0.441577107,0.172324476,9.788987482,0.928637493,0.0,-0.00136674,0.000647867,0.001254629
11.825000000000001,0.443240315,0.186684855,9.788987482,0.899916698,0.0,-0.001899372,0.001713132,-0.000343268
11.874,0.443240315,0.153177316,9.788987482,0.957358287,0.0,0.000231157,0.001180499,-0.000343268
11.926,0.429934531,0.162750896,9.784200573,0.909490296,0.0,-0.000301476,0.000115235,-0.000343268
11.975,0.429934531,0.157964115,9.774627924,0.933424255,0.0,-0.000301476,-0.000417397,0.001254629
12.026,0.441161275,0.181898074,9.774627924,0.92385073,0.0,-0.002964637,0.000115235,-0.001408532
12.076,0.441161275,0.167537677,9.784200573,0.904703461,0.0,0.001829053,0.000647867,-0.000343268
12.126,0.475673288,0.186684855,9.779414248,0.966931812,0.0,0.000763789,0.000647867,-0.000343268
12.195,0.475673288,0.157964115,9.788987482,0.94299778,0.0,0.000231157,0.000647867,0.000189365
12.235,0.463199049,0.181898074,9.784200573,0.92385073,0.0,0.000763789,-0.000417397,0.001254629
12.278,0.463199049,0.177111275,9.788987482,0.928637493,0.0,-0.000301476,0.000647867,0.000189365
12.327,0.460704207,0.186684855,9.788987482,0.899916698,0.0,-0.000301476,0.000647867,0.000189365
12.374,0.460704207,0.172324476,9.774627924,0.92385073,0.0,-0.000834108,-0.001482662,-0.001408532
12.425,0.439664394,0.162750896,9.784200573,0.909490296,0.0,0.000763789,0.000647867,-0.001408532
12.477,0.439664394,0.167537677,9.788987482,0.976505338,0.0,-0.000834108,0.001180499,-0.0008759
12.532,0.425776452,0.167537677,9.793774974,0.96214505,0.0,-0.000834108,-0.000950029,-0.001408532
12.574,0.425776452,0.191471636,9.784200573,0.914277132,0.0,0.000766096,0.000646821,-0.00033732
12.629,0.413302302,0.177111275,9.784200573,0.919063821,0.0,0.000233463,0.000114188,-0.00033732
12.675,0.298540652,0.172324476,9.774627924,0.938211091,0.0,-0.001897066,-0.000418444,-0.00033732
12.74,0.298540652,0.172324476,9.779414248,0.938211091,0.0,-0.001897066,-0.000418444,-0.00033732
12.779,0.298540652,0.162750896,9.784200573,0.933424255,0.0,-0.000299169,-0.000951076,-0.00033732
12.870000000000001,0.242823511,0.162750896,9.788987482,0.933424255,0.0,0.000233463,0.000114188,-0.001935217
12.876,0.242823511,0.162750896,9.788987482,0.933424255,0.0,0.000233463,0.000114188,-0.001935217
12.925,0.260287046,0.167537677,9.784200573,0.919063821,0.0,-0.000299169,0.000646821,0.000195312
12.976,0.260287046,0.177111275,9.779414248,0.928637493,0.0,-0.000831801,0.000114188,-0.00033732
13.038,0.288561434,0.186684855,9.784200573,0.928637493,0.0,0.000766096,0.000646821,-0.00033732
13.075000000000001,0.275255829,0.177111275,9.769840431,0.933424255,0.0,0.00076858,-0.000952203,-0.000330915
13.125,0.275255829,0.167537677,9.779414248,0.92385073,0.0,-0.000296685,0.000645693,-0.000863548
13.175,0.275255829,0.181898074,9.774627924,0.92385073,0.0,0.00076858,-0.000419571,-0.000863548
13.227,0.276087433,0.181898074,9.788987482,0.919063821,0.0,-0.000296685,-0.000952203,0.000201717
13.278,0.276087433,0.167537677,9.788987482,0.938211091,0.0,0.001301212,0.000113061,0.000734349
13.333,0.279746473,0.177111275,9.779414248,0.92385073,0.0,0.001301212,0.001178326,0.001266981
13.378,0.279746473,0.162750896,9.784200573,0.952571379,0.0,0.001301212,0.001178326,0.001266981
13.426,0.413302302,0.167537677,9.779414248,0.919063821,0.0,0.000235947,0.000645693,-0.000330915
13.474,0.413302302,0.167537677,9.798560715,0.909490296,0.0,0.00076858,-0.000419571,-0.000330915
13.548,0.394507915,0.191471636,9.788987482,0.933424255,0.0,-0.002427214,-0.000419571,0.000734349
13.575000000000001,0.394507915,0.167537677,9.788987482,0.914277132,0.0,-0.000829317,0.000113061,0.000201717
13.625,0.377210438,0.172324476,9.774627924,0.938211091,0.0,0.000239141,0.000111612,0.000742584
13.674,0.40615043,0.172324476,9.788987482,0.899916698,0.0,-0.000826123,0.000111612,0.000742584
13.724,0.40615043,0.172324476,9.779414248,0.904703461,0.0,0.001837038,-0.001486285,0.001275216
13.775,0.434591562,0.196258435,9.788987482,0.909490296,0.0,-0.001891388,-0.00042102,0.000742584
13.832,0.434591562,0.177111275,9.779414248,0.933424255,0.0,0.000771774,0.001709509,0.000742584
13.874,0.492305607,0.177111275,9.793774974,0.938211091,0.0,-0.000826123,0.001709509,0.000742584
13.932,0.492305607,0.148390526,9.774627924,0.933424255,0.0,-0.000826123,-0.00042102,0.000209952
13.98,0.558419347,0.201045234,9.788987482,0.919063821,0.0,-0.000293491,-0.001486285,0.000209952
14.032,0.558419347,0.186684855,9.788987482,0.914277132,0.0,-0.001891388,-0.00042102,0.000209952
14.075000000000001,0.558419347,0.177111275,9.769840431,0.947784689,0.0,0.000771774,-0.000953652,-0.000322681
14.127,0.620874405,0.181898074,9.765053523,0.92385073,0.0,-0.000823935,0.000643251,0.000748226
14.175,0.620874405,0.177111275,9.769840431,0.92385073,0.0,-0.001356567,0.000643251,-0.00084967
14.23,0.636176348,0.181898074,9.788987482,0.933424255,0.0,-0.000291303,-0.000422013,-0.000317038
14.273,0.726408422,0.157964115,9.812920856,0.94299778,0.0,0.00024133,-0.006280968,0.000215594
14.332,0.726408422,0.205832015,9.798560715,0.928637493,0.0,-0.000291303,0.003306412,0.001280859
14.375,0.726408422,0.224979175,10.67933087,0.780246976,0.0,0.000773962,-0.006280968,-0.002447567
14.441,0.707696617,-0.84726209,85.29583073,11.20587797,0.0,-0.146765172,-0.263542324,-0.083407663
14.474,0.707696617,5.433008111,86.27233906,12.31162641,0.0,0.206902623,1.374301791,0.007139813
14.527000000000001,0.872610986,-7.208907402,87.38766365,9.544860983,0.0,0.118485689,-0.515477359,-0.303917408
14.577,1.110714316,1.067454484,82.30886517,8.424752986,0.0,0.10463725,0.028340127,-0.176618308
14.63,1.110714316,0.062228283,81.40416222,9.702826047,0.0,0.01941609,1.221969008,0.091828339
14.675,1.600910068,0.27763391,80.68614578,9.137984264,0.0,0.180271015,1.055255055,0.208474785
14.73,1.600910068,0.038294329,78.51773167,8.889070857,0.0,0.238327935,0.793200016,0.375188679
14.786,2.435143948,0.043081119,77.69918957,8.86992439,0.0,0.278275371,0.709044099,0.467866689
14.828,2.435143948,-0.181898074,77.00511293,8.884284532,0.0,0.30757013,0.620094538,0.540837288
14.879,3.689116001,-0.617496099,75.84670324,8.85077734,0.0,0.349648088,0.500252306,0.634580553
14.929,3.689116001,-0.713231862,75.66959171,8.898644674,0.0,0.362431258,0.5087744,0.652690053
14.976,3.689116001,-1.105748804,74.56384211,9.047034752,0.0,0.386399716,0.576418698,0.613807917
15.029,5.522724152,-1.637082592,73.19482012,9.099690163,0.0,0.352311254,0.844332695,0.47851932
15.076,5.522724152,-1.953010675,72.55817938,8.951300085,0.0,0.332071215,0.992937088,0.430049807
15.127,7.978384018,-1.862061602,71.4715704,8.836416614,0.0,0.246321023,1.419573903,0.111012399
15.177,7.978384018,-1.560493952,71.12213717,9.114049721,0.0,0.208504125,1.544209838,-0.081267834
15.229000000000001,10.77283764,-1.005226205,70.27009897,9.133197355,0.0,0.172817767,1.302394748,-0.344388157
15.278,13.73141193,-0.588775267,68.83883724,8.884284532,0.0,0.132337719,1.046198606,-0.476480961
15.332,13.73141193,0.023933957,68.3266573,8.884284532,0.0,0.057236586,0.584939122,-0.561702132
15.379,13.73141193,0.732379058,68.4367486,9.09011693,0.0,0.039659724,0.368157864,-0.568626344
15.434000000000001,16.85224533,1.144043051,67.6804369,8.640158033,0.0,-0.097759388,-0.392973602,-0.363030285
15.492,20.32945442,1.234992197,67.37408409,8.439113128,0.0,-0.134511024,-0.482988447,-0.264493316
15.527000000000001,20.32945442,0.933424255,66.81403389,8.065743601,0.0,-0.201090053,-0.853167892,0.034313358
15.575000000000001,24.21123695,0.40687723,66.27311964,7.749814641,0.0,-0.135576293,-1.267023087,0.230322018
15.629,24.21123695,-0.153177316,66.30183992,7.606210887,0.0,-0.0428962,-1.269154549,0.308624297
15.675,28.57501411,-1.077027936,65.37320185,7.802469468,0.0,0.060967084,-1.275013566,0.313417971
15.73,28.57501411,-1.536559993,64.98068819,8.223706913,0.0,0.148318768,-1.103505969,0.177064136
15.775,33.55912399,-1.483905312,64.82751179,8.491767955,0.0,0.093457647,-1.122680783,0.000230234
15.827,33.55912399,-1.158403412,64.77006655,8.659305084,0.0,-0.00401405,-1.260632515,-0.200039476
15.876,39.20986938,-0.622282861,63.13777685,7.850337386,0.0,-0.224523798,-2.047863007,-0.459964007
15.93,39.20986938,-0.33028859,63.44412966,7.529622686,0.0,-0.226654321,-2.109115601,-0.436528206
15.976,45.01150894,0.301567851,63.13298702,7.395592165,0.0,-0.120660506,-1.750121474,-0.294315398
16.038999999999998,45.01150894,0.248913134,63.05639648,7.376445115,0.0,-0.023188811,-1.562634945,-0.171277344
16.089,51.11513519,-0.186684855,62.34795504,7.634931755,0.0,0.052977599,-1.391127348,-0.061022472
16.125999999999998,51.11513519,0.043081119,62.38146048,8.453472686,0.0,0.110504717,-1.373019099,-0.026926689
16.176,57.71603012,-0.50261303,61.51983795,8.27636174,0.0,-0.068992339,-2.607660532,-0.196836367
16.226999999999997,57.71603012,-0.986079009,60.84490194,7.639718664,0.0,-0.153680861,-2.895814657,-0.244240642
16.275,64.70744324,-1.244565722,61.04594393,7.386018932,0.0,-0.149419814,-2.479828835,-0.213880599
16.325,64.70744324,-0.823328058,61.16561956,7.299856329,0.0,-0.094558686,-1.9605124,-0.213347971
16.375,64.70744324,-0.488252669,60.78746138,7.357298064,0.0,-0.041295465,-1.595126748,-0.211750075
16.426,72.11711884,-0.579201706,60.40930319,7.476967859,0.0,0.062035188,-1.074745059,-0.163813174
16.474,79.92635345,-0.612709263,60.24176197,7.678012764,0.0,0.079612046,-0.965022862,-0.160084739
16.526999999999997,79.92635345,-0.27763391,59.91626387,7.587063837,0.0,0.038599368,-0.70350045,-0.113745742
16.589,88.32087708,-0.583988505,59.5093854,7.486541092,0.0,0.04126253,-0.642780364,-0.077526748
16.628999999999998,88.32087708,-0.430811189,58.74350338,7.443460083,0.0,0.033276651,-0.413750142,-0.057277422
16.674999999999997,97.05641174,-0.363796148,58.44193106,7.572703111,0.0,0.02795033,-0.256090999,-0.056744792
16.724999999999998,97.05641174,-0.114882987,58.83444939,7.371658206,0.0,-0.056205563,-0.17406562,-0.002948937
16.776999999999997,106.1020737,-0.536120587,58.47544117,7.237628269,0.0,-0.050346609,-0.028657023,0.059369035
16.825999999999997,106.1020737,-0.76109978,58.28875465,6.701507354,0.0,-0.031704478,0.05123781,0.052977446
16.874,115.3537216,-0.627069624,57.86751604,6.371218836,0.0,0.002916616,0.164155841,0.016758455
16.926,115.3537216,-0.148390526,57.33139629,7.563129878,0.0,0.120628335,0.214755908,-0.040233191
16.974999999999998,124.9559784,-0.560054546,57.25481043,7.682799673,0.0,0.074821964,0.380404532,0.008768972
17.025,124.9559784,-0.263273513,57.27395573,7.261562228,0.0,-0.030106584,0.623284876,0.034335319
17.073999999999998,134.7647552,-0.157964115,57.09205904,6.830750966,0.0,-0.064195044,0.676015437,0.035400584
17.137999999999998,134.7647552,-0.268060293,56.7809164,6.581837559,0.0,-0.033302378,0.745790243,0.078011155
17.174999999999997,144.940094,-0.497826304,55.97194929,6.998288679,0.0,0.048191655,0.759638131,0.097721912
17.238999999999997,144.940094,-0.464318746,56.07247028,6.921699893,0.0,0.03274532,0.882143497,0.085471369
17.276,155.3310394,-0.320714992,55.99588442,6.907339752,0.0,0.029549528,0.890133023,0.075883992
17.328999999999997,155.3310394,-0.124456567,55.81398306,7.285495603,0.0,0.027951632,0.9908005,0.099852443
17.378,166.1743164,-0.205832015,55.67995195,6.447807622,0.0,-0.011995785,1.087739587,0.129147202
17.429,166.1743164,0.258486732,55.45497484,6.112732196,0.0,-0.002941038,1.119697452,0.132342994
17.483999999999998,177.2855682,-0.291994252,55.43582954,6.136666155,0.0,0.068431683,1.153785944,0.18773675
17.532999999999998,188.4733429,-0.76109978,54.49283133,6.864258742,0.0,0.056713771,1.255518675,0.099319808
17.575999999999997,188.4733429,0.052654699,54.39230566,7.242414594,0.0,0.030614793,1.348196745,0.058307122
17.625,188.4733429,0.086162238,54.47368135,7.060516739,0.0,0.00611649,1.38707757,0.105718561
17.689999999999998,212.2634583,-0.172324476,54.4497509,6.366432512,0.0,-0.071115181,1.495201945,0.194668129
17.729,212.2634583,-0.100522617,54.34444008,6.093585145,0.0,0.00611649,1.535681963,0.200527087
17.779999999999998,224.713501,-0.038294329,53.69821968,7.01743573,0.0,0.09613134,1.633153677,0.246866092
17.839,224.713501,-0.92385073,53.16210461,6.438233805,0.0,-0.002405626,1.822238088,0.31184724
17.875999999999998,237.4329224,-0.770673378,53.10944452,5.710641801,0.0,0.040737584,1.825966477,0.179754436
17.927,237.4329224,-0.842475255,53.31527634,5.461728978,0.0,0.083880797,1.807857037,0.160047039
17.980999999999998,250.3621979,0.253699914,52.53981934,7.500901818,0.0,0.118501894,1.918644547,0.230354488
18.037999999999997,250.3621979,-1.062667575,52.58289976,5.533530271,0.0,-0.021580387,2.078966856,0.352327287
18.073999999999998,263.4990234,-1.038733616,51.94146919,5.787230003,0.0,0.01091018,2.021975279,0.256453484
18.127,263.4990234,-1.29243364,51.70212727,6.586624467,0.0,0.145666137,2.015583515,0.209581837
18.174999999999997,276.508667,-0.291994252,51.35747919,6.758949089,0.0,0.096666805,2.102401495,0.149934366
18.229,276.508667,0.067015073,51.35269871,6.931273711,0.0,0.032218307,2.191350937,0.190414414
18.276,289.6401978,-0.402090468,51.10856695,5.930834341,0.0,-0.056198642,2.325041771,0.333159834
18.328999999999997,302.8578491,-1.129682763,50.60116749,5.882965839,0.0,0.087612063,2.296812296,0.319844037
18.375,302.8578491,-0.875982812,50.35704041,6.328137827,0.0,0.114243671,2.306399584,0.31398508
18.432,316.4010315,-0.794607337,50.12727814,6.251549041,0.0,0.008249857,2.487494469,0.293212444
18.474999999999998,316.4010315,0.148390526,50.01717749,6.347284877,0.0,-0.006131212,2.57804203,0.309724033
18.531,316.4010315,-1.144043051,49.7969902,6.074438095,0.0,0.006651961,2.624381065,0.373107255
18.575,330.2626343,-0.96214505,49.50499287,5.188881612,0.0,0.002390903,2.567922115,0.325702995
18.639,344.3967896,-0.564841381,49.02631369,5.600545824,0.0,0.045003969,2.620118856,0.311328322
18.674999999999997,344.3967896,-1.345088321,49.00238323,6.323350918,0.0,0.062580831,2.726112604,0.386429489
18.724999999999998,344.3967896,-1.105748804,48.67687578,5.882965839,0.0,0.0455366,2.758603096,0.342753649
18.782,358.8814697,-0.765886615,48.6481555,5.471302211,0.0,0.01038287,2.821986437,0.285229355
18.825,358.8814697,-0.909490296,47.90141411,6.73501513,0.0,0.059385039,2.89602232,0.348612577
18.877,373.5685425,-1.053094123,48.21256142,5.705854893,0.0,-0.011987682,2.975384474,0.370450497
18.924999999999997,373.5685425,0.047867913,47.27913818,6.198894215,0.0,0.241012618,2.905076981,0.262326181
18.976,388.0942993,-1.340301558,46.44623594,6.395152795,0.0,-0.015183477,3.071790934,0.388559997
19.029999999999998,388.0942993,-0.751526181,46.84832458,4.839445752,0.0,-0.120112024,3.138902664,0.345949441
19.08,402.8746338,-0.708445099,45.78087025,7.366871297,0.0,-0.051935099,3.309877634,0.340090483
19.128,402.8746338,-0.291994252,46.10158787,4.801151651,0.0,-0.165917203,3.402554989,0.413596749
19.176,417.796875,-0.818541296,45.83831081,4.102279639,0.0,0.054059897,3.284843206,0.437565207
19.232,417.796875,-1.459971207,45.55110331,5.854245555,0.0,0.15739055,3.227851629,0.434369415
19.273999999999997,432.681488,-0.59356214,45.17773495,5.059638584,0.0,-0.019975983,3.374858141,0.325179815
19.331999999999997,432.681488,-0.469105545,45.37399178,4.815511793,0.0,-0.029030731,3.405218124,0.345952481
19.375,447.8058472,-1.713671231,44.00975494,5.461728978,0.0,0.07962624,3.421197176,0.440228373
19.427,447.8058472,-1.680163601,43.83743324,5.160160744,0.0,0.040211458,3.421729803,0.355539858
19.564999999999998,480.5294189,-1.876422182,43.03803644,4.935181296,0.0,0.079093613,3.521332026,0.399748325
19.576999999999998,480.5294189,-1.876422182,43.03803644,4.935181296,0.0,0.079093613,3.521332026,0.399748325
19.631999999999998,480.5294189,-0.512186628,43.11462698,5.820738363,0.0,0.106257856,3.525060415,0.356072485
19.679,498.8597412,-1.311580837,42.32959499,4.614466888,0.0,0.032758571,3.673130274,0.439705968
19.729,498.8597412,-1.431250632,42.2482193,5.050064766,0.0,0.088684954,3.641172409,0.42106384
19.775,514.1590576,-1.254139248,41.72166986,5.47608912,0.0,0.120642886,3.69017458,0.405617505
19.825,532.0873413,-1.239778814,41.43446236,4.604893363,0.0,0.051400699,3.8393116,0.448760718
19.875,532.0873413,-1.278073207,41.39617176,5.035704041,0.0,0.101468131,3.848898888,0.463141769
19.933999999999997,532.0873413,-1.158403412,41.36266165,5.164947653,0.0,0.103598654,3.861682177,0.451423883
19.974999999999998,552.402771,-0.880769502,40.78824663,4.537878102,0.0,0.055129126,3.930924416,0.425324887
20.029999999999998,573.7307739,-0.84726209,40.23297691,4.671908039,0.0,0.073771253,3.989513874,0.474859685
20.075,573.7307739,-0.665364017,40.35264788,3.580519742,0.0,0.016779603,4.02839613,0.499893397
20.125999999999998,595.3065796,-0.828114894,39.89790382,5.231962621,0.0,0.164318725,4.029994011,0.51214397
20.177,595.3065796,-1.105748804,39.96012955,4.762856966,0.0,0.063651241,4.103497505,0.518535554
20.226,616.4265137,-1.383382568,39.59155102,4.920821154,0.0,0.095609173,4.073137283,0.49936077
20.273999999999997,616.4265137,-1.359448609,39.09372187,4.604893363,0.0,0.064716503,4.106160641,0.495099723
20.325999999999997,637.2164307,-1.014799657,38.98841338,4.217162818,0.0,0.024236456,4.1210742,0.442369133
20.375,637.2164307,-1.488692075,38.27996726,4.671908039,0.0,0.074303888,4.141847134,0.49936077
20.432,657.2491455,-0.837688492,38.32783518,3.834219766,0.0,0.043943848,4.177000523,0.473261803
20.474999999999998,657.2491455,-0.679724304,38.05020266,3.599666792,0.0,0.018910132,4.276602745,0.45941335
20.538999999999998,678.4170532,-0.531333788,37.66247416,3.379474545,-5.0,0.006126959,4.403902054,0.500958681
20.573999999999998,678.4170532,-0.861622378,36.72904625,3.599666792,-5.0,0.111055508,4.375139713,0.510546029
20.628999999999998,700.0055542,-0.536120587,35.90571899,3.973036611,-5.0,0.014649074,4.383661747,0.452489138
20.674999999999997,700.0055542,-0.268060293,35.45097494,2.709323692,-5.0,-0.026892157,4.371942043,0.469011247
20.726,700.0055542,-0.828114894,34.81911936,3.403408211,-5.0,0.121712238,4.22706604,0.495642871
20.773999999999997,720.9665527,-0.076588658,33.32564125,2.469984394,-5.0,0.051404778,4.185520649,0.500436544
20.825,741.3362427,-1.043520525,31.76514525,3.10662747,-5.0,0.078569025,4.035851002,0.469011247
20.875,741.3362427,-0.138816946,31.21945286,2.680603117,-5.0,0.021577375,3.953292847,0.417878568
20.924999999999997,741.3362427,-0.387730107,30.30996008,1.948224059,-5.0,0.023707904,3.845168591,0.488718659
20.982999999999997,760.3374634,-0.301567851,27.21290789,2.541786271,-5.0,0.100939579,3.679519892,0.427998573
21.041999999999998,760.3374634,0.086162238,26.82996454,1.981731397,-5.0,0.05460057,3.631582975,0.419476449
21.075,778.725647,-0.536120587,25.71942744,1.163190174,-5.0,-0.01038056,3.551155567,0.42480278
21.125999999999998,797.2196655,0.258486732,23.06754665,0.770673378,-5.0,0.013055258,3.39402914,0.381659567
21.174999999999997,797.2196655,-1.062667575,21.61714897,1.297220403,-5.0,0.083364837,3.265663862,0.458364099
21.226,835.7556763,0.895129935,20.96135826,0.981292173,-5.0,0.043417424,3.196421623,0.266083866
21.275,835.7556763,-0.167537677,19.49660044,0.397303668,-5.0,0.0231774,3.158071995,0.477006227
21.323999999999998,855.7654419,0.421237627,17.75420892,-0.363796148,-5.0,-0.007182637,3.060600281,0.317216545
21.378,855.7654419,-1.029160164,17.15107129,1.01958642,-5.0,0.107865922,2.989760399,0.400839806
21.432,876.5826416,0.354222549,17.78292921,0.478679107,-5.0,-0.010911062,3.043556213,0.282595456
21.474999999999998,876.5826416,-0.689297903,16.32295771,0.607922427,-5.0,0.065255344,2.95513916,0.35822925
21.534,898.2014771,0.34943575,14.36994689,-0.119669777,-5.0,0.019448975,2.948747635,0.293248117
21.613,898.2014771,0.464318746,9.69803797,-0.875982812,-5.0,0.021579504,2.905071735,0.260224909
21.625,898.2014771,0.464318746,9.69803797,-0.875982812,-5.0,0.021579504,2.905071735,0.260224909
21.677,920.5537109,0.110096188,6.399939704,-1.163190174,-5.0,0.018386431,2.893352747,0.322549909
21.732,943.7485352,-0.009573582,5.437794435,-0.832901584,-5.0,0.047681201,2.908266306,0.339061499
21.776999999999997,943.7485352,-0.291994252,3.781564939,-0.986079009,-5.0,0.045550674,2.891222239,0.332669914
21.826999999999998,968.0044556,-0.067015073,3.575732833,-1.522199559,-5.0,0.029039074,2.921582222,0.32787624
21.878,968.0044556,-0.368582947,2.379035321,-1.555707189,-5.0,0.024245385,2.90933156,0.338528872
21.924999999999997,993.1951904,-0.157964115,1.9242901,-1.378595805,-5.0,0.050344363,2.907201052,0.331072032
21.976999999999997,993.1951904,0.129243366,1.36902228,-1.239778814,-5.0,0.019451695,2.943952799,0.30603832
22.025,1019.550781,-0.335075353,1.641869208,-1.388169476,-5.0,0.024778016,2.972714901,0.35344258
22.075999999999997,1019.550781,-0.737165894,0.694084738,-1.378595805,-5.0,0.0162559,2.981769562,0.334267825
22.174,1019.550781,-0.27763391,0.0,-1.378595805,-5.0,0.035963293,2.988161325,0.326278329
22.226999999999997,1046.822998,-0.852048853,-0.92385073,-1.598788199,-5.0,0.046617184,3.125579834,0.337999433
22.276999999999997,1074.664185,-0.507399829,-2.508278787,-1.694524181,-5.0,0.043421388,3.194822073,0.35504365
22.325999999999997,1103.182861,-0.430811189,-3.025252068,-1.488692075,-5.0,0.039692964,3.270455837,0.373685777
22.375,1103.182861,-0.583988505,-3.69061572,-1.306793928,-5.0,0.059400357,3.323186398,0.341195226
22.43,1132.447144,-0.421237627,-4.810725176,-1.742391953,-5.0,0.03916033,3.431843281,0.417361647
22.476,1132.447144,-0.411664029,-5.169734561,-1.536559993,-5.0,0.041823491,3.469127655,0.412035316
22.526,1161.860596,-0.799394099,-5.198454845,-2.082253996,-5.0,0.027975053,3.543696165,0.406176358
22.575,1161.860596,-0.890343173,-5.088358867,-1.598788199,-5.0,0.088695124,3.575121403,0.395523727
22.63,1191.699097,-0.488252669,-6.103158963,-1.594001436,-5.0,0.038627699,3.670462608,0.419492155
22.674999999999997,1191.699097,-0.751526181,-6.308990192,-1.933863625,-5.0,0.024246627,3.694431067,0.431742698
22.775,1221.763306,-0.713231862,-7.232840776,-1.546133518,-5.0,0.084968649,3.712007046,0.407779276
22.826999999999998,1252.040771,-0.622282861,-7.7737486,-1.584427911,-5.0,0.076446533,3.80947876,0.438671947
22.877,1252.040771,-0.540907349,-7.505688727,-1.661016551,-5.0,0.063663363,3.852621794,0.441335112
22.936,1282.551392,-0.526547025,-7.826403427,-1.594001436,-5.0,0.064195991,3.832381964,0.448791981
22.991,1313.151978,-0.583988505,-8.573142481,-1.637082592,-5.0,0.076446533,3.808413506,0.414170891
23.035,1313.151978,-0.674937542,-9.204999816,-1.617935249,-5.0,0.055673882,3.826522827,0.437606692
23.075999999999997,1313.151978,-0.545694222,-9.640597987,-1.785472962,-5.0,0.050347559,3.815870285,0.431747735
23.133,1343.618408,-0.708445099,-9.827282166,-1.651443025,-5.0,0.032238062,3.795630217,0.44346565
23.174999999999997,1343.618408,-0.775460213,-8.362523174,-1.641869208,-5.0,0.054078113,3.72532177,0.440275341
23.226,1374.240234,-0.804180935,-11.61275527,-1.718457848,-5.0,0.039164409,3.723191261,0.418970048
23.276999999999997,1374.240234,-0.378156509,-12.24939835,-2.05353342,-5.0,0.050882321,3.692831278,0.383816332
23.328,1404.699341,-0.038294329,-12.68020961,-1.694524181,-5.0,0.054610744,3.669395447,0.399795294
23.406,1404.699341,-0.804180935,-13.12538102,-2.096614429,-5.0,0.027446501,3.635307074,0.435481638
23.430999999999997,1435.100952,-0.392516869,-13.43652365,-1.704097706,-5.0,0.04875179,3.60707736,0.449862719
23.476999999999997,1435.100952,-0.641429985,-13.5226845,-2.115761626,-5.0,0.019989651,3.590033293,0.436546922
23.532,1465.560059,-0.33028859,-13.47003026,-1.775899583,-3.0,0.061534964,3.51599741,0.412578464
23.573999999999998,1465.560059,-0.617496099,-13.50832319,-1.833341026,-3.0,0.052480217,3.502681494,0.415774256
23.628,1496.129761,0.224979175,-13.76681159,-1.622722158,-3.0,0.063665494,3.447820425,0.366239458
23.674999999999997,1526.464478,-0.804180935,-14.17368889,-1.828554264,-3.0,0.01040505,3.463798285,0.431227773
23.729,1526.464478,-0.301567851,-14.09231203,-1.986518306,-3.0,0.054613523,3.404675961,0.356126636
23.773999999999997,1556.694824,-0.473892345,-14.23591695,-1.68495051,-3.0,0.027449282,3.404143333,0.437086731
23.825999999999997,1556.694824,-0.641429985,-13.76681159,-1.823767355,-3.0,0.069527224,3.297084332,0.349735051
23.915999999999997,1587.110718,-0.296781052,-15.03052392,-1.704097706,-3.0,0.045026146,3.298682213,0.37902981
23.929,1587.110718,-0.296781052,-15.03052392,-1.704097706,-3.0,0.045026146,3.298682213,0.37902981
23.974999999999998,1616.901611,-0.780246976,-16.27508862,-2.020025936,-3.0,0.042895615,3.19002533,0.365181386
24.028,1616.901611,-0.574414907,-16.35646431,-2.115761626,-3.0,0.027981915,3.159665108,0.340680301
24.075,1646.743042,-0.569628144,-16.33253269,-2.221071133,-3.0,0.017861903,3.131435633,0.376366645
24.128999999999998,1646.743042,-0.828114894,-16.4426275,-2.158842635,-3.0,0.027449282,3.046747208,0.335353971
24.174999999999997,1676.181641,-0.378156509,-16.36125298,-2.091827813,-3.0,0.032775603,3.028105021,0.316711843
24.229,1676.181641,-0.631856459,-15.97352214,-2.034386078,-3.0,-0.003973536,2.985493183,0.403537273
24.275,1676.181641,-1.273286444,-16.25594215,-1.991305214,-3.0,0.000820154,2.967383862,0.408863604
24.331,1705.31189,-0.143603736,-16.27508862,-2.010452265,-3.0,0.050887585,2.838486671,0.293282419
24.375,1733.947754,-0.770673378,-16.8112107,-2.087040758,-3.0,0.000287522,2.854465723,0.327903509
24.453,1733.947754,-0.794607337,-16.75855646,-2.158842635,-3.0,0.000287522,2.854465723,0.327903509
24.476,1762.071655,-0.808967625,-17.18936539,-2.479557627,-3.0,0.018929649,2.696274042,0.315652966
24.537,1762.071655,-1.067454484,-17.21330051,-2.848140538,-3.0,0.015201225,2.601465464,0.283162385
24.581999999999997,1789.873657,-0.928637493,-17.29946253,-2.733257651,-3.0,0.029582294,2.551398039,0.273042381
24.633,1789.873657,-1.053094123,-17.28031607,-2.910369182,-3.0,-0.0050388,2.517842293,0.291151881
24.674999999999997,1817.271118,-1.244565722,-17.27552974,-3.503931248,-3.0,0.039169673,2.4384799,0.268248677
24.732999999999997,1817.271118,-0.526547025,-17.60103018,-2.761978519,-3.0,0.091368817,2.374031067,0.25866437
24.775,1844.290527,-0.59356214,-17.54358962,-2.407755896,-3.0,0.045562446,2.403325796,0.260794908
24.831,1844.290527,-0.622282861,-17.36169059,-3.322033101,-3.0,0.030648742,2.350595236,0.283165455
24.875999999999998,1871.097656,-0.72280546,-17.30425003,-2.752404702,-3.0,0.072726689,2.282418251,0.266653866
24.93,1871.097656,-0.751526181,-17.35211678,-2.694963259,-3.0,0.056747723,2.264841318,0.259197026
24.976999999999997,1871.097656,-0.990865698,-17.39998586,-2.426903239,-3.0,0.0365077,2.254188776,0.25493595
25.026999999999997,1897.525146,-0.186684855,-17.30903635,-2.058320329,-3.0,0.042899285,2.253656149,0.230434865
25.075,1923.648193,-0.44517155,-17.44306629,-1.972158018,-3.0,0.034377169,2.214241266,0.250674903
25.125,1923.648193,-0.110096188,-17.51008067,-1.646656117,-3.0,0.064737201,2.172163486,0.197411671
25.174999999999997,1949.307617,0.373369709,-17.3808394,-1.029160164,-3.0,0.02798558,2.20252347,0.237359092
25.224999999999998,1949.307617,-0.019147164,-17.00268238,-2.029599315,-3.0,0.01360735,2.154052496,0.233105347
25.276,1974.654907,0.047867913,-17.2420208,-1.555707189,-3.0,0.07965374,2.100789309,0.220854804
25.325,1974.654907,0.067015073,-17.0457628,-1.129682763,-3.0,0.049826343,2.066700697,0.227246389
25.375999999999998,1999.575562,0.162750896,-16.30381124,-2.13012206,-3.0,-0.025807435,2.034210205,0.234703243
25.426,1999.575562,0.162750896,-16.27508862,-2.508278787,-3.0,-0.004502146,1.938336492,0.222985342
25.474,2024.037109,0.177111275,-16.25594215,-1.89078247,-3.0,0.069533728,1.846191168,0.221920073
25.531,2024.037109,0.516973463,-15.96394832,-2.230644512,-3.0,-0.044449564,1.813700557,0.183570549
25.575999999999997,2047.789185,0.679724304,-15.45654886,-2.680603117,-3.0,-0.036460079,1.785471082,0.205941111
25.627,2047.789185,0.023933957,-15.36559935,-2.426903239,-3.0,0.070598997,1.668824673,0.243225366
25.676,2071.375488,0.718018697,-15.34645288,-2.07268047,-3.0,0.044500019,1.619289875,0.143090501
25.726999999999997,2071.375488,0.842475255,-15.15019372,-2.05353342,-3.0,-0.001837447,1.626745939,0.203814536
25.776,2094.505859,-0.129243366,-15.0209501,-2.379035321,-3.0,0.007217301,1.553775311,0.209673494
25.83,2117.452393,-0.023933957,-15.01616378,-1.68495051,-3.0,0.058349997,1.477076292,0.152681842
25.874,2117.452393,0.282420672,-14.97786968,-1.589214674,-3.0,0.03278365,1.463760495,0.153214484
25.926,2117.452393,-0.047867913,-14.78639801,-2.043959749,-3.0,-0.027936427,1.4429878,0.194227159
25.976999999999997,2139.914307,-0.234552773,-14.57099121,-2.326380348,-3.0,0.009880462,1.397714138,0.176650301
26.029999999999998,2139.914307,0.0,-14.33165162,-2.364674741,-3.0,0.043968927,1.307699203,0.151083946
26.075999999999997,2161.761719,-0.114882987,-14.47046905,-1.84770146,-3.0,0.070067905,1.272012949,0.152681842
26.125999999999998,2161.761719,-0.071801868,-14.47046905,-1.775899583,-3.0,0.031185752,1.267751813,0.161736593
26.174,2204.95874,-0.311141431,-14.15932758,-2.254578617,-3.0,0.024261532,1.184661269,0.147355527
26.227999999999998,2226.375244,-0.387730107,-14.17368889,-1.929076716,-3.0,0.054622397,1.127669215,0.124987103
26.273999999999997,2226.375244,-0.229765974,-14.02529764,-1.747178715,-3.0,0.037045535,1.121277571,0.107942872
26.328,2226.375244,-0.34943575,-13.72372999,-2.13012206,-3.0,0.001359174,1.083460689,0.129780799
26.375999999999998,2247.180664,-0.311141431,-13.2689836,-2.604014331,-3.0,0.014142347,0.980130076,0.121258676
26.426,2247.180664,-0.210618814,-13.14931381,-2.551359504,-3.0,0.047165547,0.956694245,0.115399718
26.474999999999998,2267.814697,-0.382943308,-13.2689836,-1.751965624,-3.0,0.074329793,0.896506846,0.138835534
26.532999999999998,2288.097412,-0.464318746,-13.13016851,-2.024812698,-3.0,0.004022336,0.904496312,0.10368181
26.583,2288.097412,-0.359009349,-13.09666073,-2.254578617,-3.0,0.031186581,0.830993056,0.086637579
26.625,2288.097412,-0.268060293,-12.89082892,-2.05353342,-3.0,0.031186581,0.830993056,0.086637579
26.677,2308.275391,-0.579201706,-13.00571122,-1.694524181,-3.0,0.014142347,0.789447725,0.112203926
26.724999999999998,2308.275391,-0.464318746,-12.76158531,-1.857274985,-3.0,-0.013554528,0.776131928,0.094627067
26.775,2328.084717,-0.215405595,-12.63234169,-1.866848511,-3.0,0.016276129,0.70848614,0.095700718
26.826999999999998,2347.62207,-0.497826304,-12.4360837,-1.742391953,-3.0,0.030124567,0.66108191,0.119669169
26.875,2347.62207,-0.679724304,-12.4743778,-1.771112674,-3.0,0.027461406,0.651494503,0.11274495
26.927,2366.943848,-0.521760263,-12.36906815,-1.517412797,-3.0,0.022135084,0.605688155,0.072797537
26.976,2366.943848,-0.339862152,-12.04356654,-1.704097706,-3.0,0.002427692,0.566273332,0.06214489
27.026,2366.943848,-0.335075353,-11.99091113,-1.632295829,-3.0,0.010949807,0.526858568,0.079721749
27.078999999999997,2385.917725,-0.536120587,-11.95261703,-1.555707189,-3.0,0.004025589,0.487976402,0.071199633
27.127,2404.67334,-0.411664029,-11.68934348,-1.632295829,-3.0,0.007221382,0.439506888,0.057883829
27.177,2404.67334,-0.421237627,-11.64626188,-1.594001436,-3.0,0.01148244,0.412342638,0.058416463
27.237,2423.029297,-0.449958349,-11.51223195,-1.479118404,-3.0,0.006689519,0.378786445,0.061614238
27.275,2423.029297,-0.607922427,-11.22502444,-1.44561092,-3.0,0.000297932,0.348959059,0.038711052
27.33,2441.208252,-0.583988505,-11.20587797,-1.373809043,-3.0,-0.003963126,0.336708516,0.031786833
27.375,2441.208252,-0.545694222,-11.19151783,-1.36902228,-3.0,-0.002365229,0.30315268,0.031254202
27.451999999999998,2459.104492,-0.387730107,-10.95217824,-1.421676961,-3.0,-0.017811565,0.268531591,0.034449995
27.479,2459.104492,-0.50261303,-10.85165491,-1.354661992,-3.0,-0.005561023,0.223790467,0.044037376
27.528,2476.797607,-0.631856459,-10.75113392,-1.397743002,-3.0,0.003493725,0.200354651,0.034449995
27.575,2476.797607,-0.550480948,-10.50700567,-1.29243364,-3.0,0.007222151,0.140167207,0.008883649
27.628999999999998,2494.259766,-0.464318746,-10.53572712,-1.177550535,-3.0,0.015744267,0.141765103,-0.000171099
27.677,2494.259766,-0.354222549,-10.37776322,-1.129682763,-3.0,0.005091622,0.107676648,0.00195943
27.729,2494.259766,-0.258486732,-10.15278494,-1.16797701,-3.0,0.001895829,0.087969251,0.012079443
27.776999999999997,2511.465332,-0.478679107,-10.07140808,-1.330728033,-3.0,0.000300889,0.021921515,0.05629554
27.828,2528.500732,-0.550480948,-10.07619557,-1.287646878,-3.0,0.005627211,0.003812019,0.048306059
27.874,2528.500732,-0.674937542,-9.985246062,-1.29243364,-3.0,0.000300889,-0.031341709,0.008358642
27.927,2545.248535,-0.368582947,-9.812920856,-1.196697731,-3.0,0.00775774,-0.070756488,-0.009750853
27.976999999999997,2545.248535,-0.31592823,-9.477846599,-1.148829813,-3.0,0.016812488,-0.102181792,0.01048917
28.025,2561.805176,-0.392516869,-9.487419248,-1.115322256,-3.0,0.016812488,-0.13893342,0.04138184
28.075,2561.805176,-0.727592295,-9.592728901,-1.005226205,-3.0,-0.010351756,-0.171956614,0.015815493
28.125999999999998,2577.971191,-0.789820501,-9.386897087,-1.115322256,-3.0,-0.017808607,-0.183141887,0.009423907
28.174999999999997,2577.971191,-0.301567851,-9.233719516,-1.086601534,-3.0,-0.009286491,-0.212969303,-0.03265404
28.229,2594.245605,-0.378156509,-9.204999816,-1.187124133,-3.0,-0.005025433,-0.235872477,-0.010283486
28.273,2594.245605,-0.263273513,-9.09490267,-0.981292173,-3.0,-0.010350632,-0.249721423,0.000904688
28.326999999999998,2610.166748,-0.636643222,-8.999167418,-1.053094123,-3.0,-0.00289378,-0.315235198,0.004100482
28.374,2610.166748,-0.493039504,-8.85077734,-0.914277132,-3.0,-0.021535909,-0.343464702,-0.025194291
28.427,2625.847412,-0.244126334,-8.845990431,-0.957358287,-3.0,-0.027394863,-0.334942579,-0.034249038
28.476999999999997,2625.847412,-0.134030147,-8.702386093,-1.187124133,-3.0,-0.001295884,-0.392466873,0.006763643
28.526999999999997,2641.353516,-0.464318746,-8.668878317,-0.871195976,-3.0,0.02586836,-0.442001671,0.034993149
28.575,2641.353516,-0.713231862,-8.635371125,-0.785033739,-3.0,0.007226232,-0.456915349,0.009426804
28.627,2656.562256,-0.201045234,-8.386458302,-1.163190174,-3.0,-0.029525392,-0.47662276,-0.057684857
28.674999999999997,2656.562256,-0.172324476,-8.329015982,-0.981292173,-3.0,0.010422025,-0.503254354,-0.021465866
28.726,2671.698486,-0.344648951,-8.27636174,-0.94299778,-3.0,0.014683083,-0.518700719,0.010492068
28.775,2671.698486,-0.708445099,-8.262001598,-0.713231862,-3.0,-0.011412939,-0.544801056,-0.004946642
28.84,2686.549561,-0.694084738,-8.060956109,-0.823328058,-3.0,-0.027924538,-0.592737973,-0.100820445
28.874,2686.549561,-0.469105545,-7.936499405,-1.038733616,-3.0,-0.025794009,-0.617771685,-0.110407822
28.929,2701.332275,-0.229765974,-7.821616518,-1.000439297,-3.0,-0.018869789,-0.630022228,-0.103483602
28.974,2701.332275,-0.196258435,-7.759388459,-0.96214505,-3.0,-0.002890823,-0.663578033,-0.045959324
29.029999999999998,2715.887939,-0.622282861,-7.792896235,-0.708445099,-3.0,0.007229189,-0.684883356,-0.029980356
29.075999999999997,2715.887939,-0.670150779,-7.678012764,-0.660577181,-3.0,-0.007151881,-0.699264407,-0.045426689
29.125999999999998,2730.186768,-0.378156509,-7.49611491,-0.804180935,-3.0,-0.03804455,-0.714178085,-0.09123306
29.174999999999997,2744.25708,-0.339862152,-7.405165398,-1.029160164,-3.0,-0.006619249,-0.762647629,-0.072590932
29.226,2744.25708,-0.186684855,-7.271135461,-1.16797701,-3.0,0.010957615,-0.765310764,-0.052350909
29.276,2744.25708,-0.454745148,-7.089237607,-0.828114894,-3.0,0.046646461,-0.794606686,-0.028376054
29.326999999999998,2758.178467,-0.50261303,-7.094024515,-0.55526782,-3.0,0.034928549,-0.830293059,-0.061931886
29.372,2758.178467,-0.483465906,-7.170613301,-0.88555641,-3.0,0.014155893,-0.840413094,-0.076312952
29.429,2771.700439,-0.402090468,-7.046156597,-0.64621682,-3.0,-0.001823075,-0.86118573,-0.076845586
29.474999999999998,2785.123047,-0.33028859,-6.926486802,-1.053094123,-3.0,-0.014606248,-0.903796315,-0.065127678
29.528,2785.123047,-0.497826304,-6.816390824,-1.086601534,-3.0,0.012025364,-0.918709993,-0.027843423
29.575,2785.123047,-0.579201706,-6.758949089,-0.880769502,-3.0,0.050374884,-0.942678452,-0.042757124
29.642999999999997,2798.571777,-0.373369709,-6.629705477,-0.493039504,-3.0,0.058897,-0.982625902,-0.093889818
29.677,2798.571777,-0.306354631,-6.5579036,-0.421237627,-3.0,0.039722241,-0.982625902,-0.10614036
29.729999999999997,2811.800781,-0.359009349,-6.500462449,-0.488252669,-3.0,-0.032183111,-0.950667918,-0.080574006
29.776999999999997,2811.800781,-0.516973463,-6.356858695,-1.211058238,-3.0,-0.05188879,-0.989550889,-0.082700118
29.831,2824.702881,-0.392516869,-6.179747748,-0.785033739,-3.0,0.073279783,-1.058260322,-0.1087991
29.875,2837.489746,-0.44517155,-6.280269909,-0.454745148,-3.0,0.058898713,-1.068912983,-0.115723319
29.932,2837.489746,-0.387730107,-6.170173931,-0.449958349,-3.0,0.032799736,-1.063586712,-0.115723319
29.974999999999998,2850.169678,-0.196258435,-5.811164546,-0.914277132,-3.0,-0.034311924,-1.052934051,-0.096548557
30.025,2850.169678,-0.167537677,-5.930834341,-0.938211091,-3.0,-0.009810843,-1.08222878,-0.083765388
30.075999999999997,2862.569824,-0.282420672,-5.873392606,-0.718018697,-3.0,0.064225033,-1.132828832,-0.098146453
30.125,2862.569824,-0.507399829,-5.792017496,-0.560054546,-3.0,0.028538678,-1.154134154,-0.092287503
30.176,2862.569824,-0.110096188,-5.83988483,-0.50261303,-3.0,0.028006045,-1.172776341,-0.110396996
30.229999999999997,2874.962891,-0.363796148,-5.763296044,-0.995652607,-3.0,0.005102859,-1.14028573,-0.089624338
30.276,2874.962891,-0.402090468,-5.720215619,-0.665364017,-3.0,0.042919748,-1.17490685,-0.060329568
30.328999999999997,2887.260498,-0.44517155,-5.619692874,-0.598348866,-3.0,0.039723955,-1.211658478,-0.121049643
30.384999999999998,2899.285889,-0.670150779,-5.581398773,-0.579201706,-3.0,0.037060793,-1.210593224,-0.127973855
30.426,2899.285889,-0.421237627,-5.437794435,-0.641429985,-3.0,0.023744987,-1.218050003,-0.160464421
30.474,2899.285889,-0.426024427,-5.428220618,-0.574414907,-3.0,0.002972331,-1.20579946,-0.172182322
30.531,2911.296875,-0.363796148,-5.342059183,-0.636643222,-3.0,0.001374434,-1.245214224,-0.154072836
30.573999999999998,2923.176758,-0.220192375,-5.160160744,-0.751526181,-3.0,-0.002353992,-1.241485834,-0.149811774
30.628999999999998,2923.176758,-0.258486732,-5.260683489,-0.674937542,-3.0,0.017886033,-1.275574327,-0.126375958
30.674999999999997,2934.75708,-0.397303668,-5.217602479,-0.526547025,-3.0,0.016820768,-1.278237462,-0.118386477
30.724999999999998,2934.75708,-0.454745148,-5.059638584,-0.569628144,-3.0,0.009896549,-1.292085886,-0.141822293
30.775,2946.349121,-0.512186628,-5.069211817,-0.469105545,-3.0,0.015225424,-1.303272247,-0.159924999
30.826999999999998,2946.349121,-0.335075353,-4.925608063,-0.569628144,-3.0,0.001376987,-1.314990163,-0.163653433
30.877,2957.665039,-0.411664029,-4.892100286,-0.50261303,-3.0,-0.001286174,-1.314990163,-0.157794476
30.927,2957.665039,-0.335075353,-4.839445752,-0.44517155,-3.0,-0.007145129,-1.31925118,-0.162588164
30.974999999999998,2968.891846,-0.507399829,-4.825085318,-0.670150779,-3.0,-0.011406187,-1.296880722,-0.147674471
31.026999999999997,2968.891846,-0.521760263,-4.734136683,-0.516973463,-3.0,-0.00022091,-1.300076485,-0.161522895
31.075,2991.021973,-0.339862152,-4.590532637,-0.473892345,-3.0,0.001909619,-1.327240705,-0.191882938
31.128,2991.021973,-0.387730107,-4.552238244,-0.359009349,-3.0,-0.006079864,-1.342687011,-0.174838707
31.174999999999997,3001.840332,-0.291994252,-4.533090901,-0.430811189,-3.0,-0.02685252,-1.326708078,-0.169512391
